{"features":[{"geometry":{"coordinates":[[-82.18692,36.59434],[-82.18646,36.59442],[-82.18644,36.59507],[-82.18516,36.59503],[-82.18413,36.5969],[-82.18306,36.59655],[-82.1822,36.59862],[-82.1792,36.60273],[-82.1812,36.60368],[-82.17982,36.60546],[-82.17833,36.60655],[-82.17613,36.60726],[-82.17402,36.61022],[-82.17338,36.61289],[-82.17123,36.61688],[-82.17036,36.61766],[-82.1693,36.61825],[-82.1644,36.61962],[-82.16371,36.62001],[-82.16317,36.62065],[-82.16167,36.62398],[-82.1611,36.62457],[-82.16022,36.62496],[-82.15447,36.6262],[-82.15284,36.62717],[-82.14638,36.63021],[-82.1436,36.63108],[-82.14328,36.63002],[-82.14305,36.62993],[-82.14292,36.63011],[-82.14345,36.63112],[-82.14179,36.6314],[-82.13715,36.6313],[-82.13359,36.63206],[-82.13085,36.63211],[-82.13094,36.63059],[-82.13203,36.63062],[-82.13204,36.63005],[-82.13164,36.62965],[-82.13105,36.62967],[-82.13117,36.62821],[-82.12913,36.62866],[-82.12557,36.63001],[-82.12938,36.62857],[-82.13112,36.62856],[-82.13085,36.63211],[-82.12272,36.63216],[-82.12167,36.63251],[-82.12187,36.63394],[-82.12275,36.63394],[-82.12274,36.63333],[-82.1234,36.63312],[-82.12497,36.63449]],"type":"LineString"},"properties":{"color":"#9BF28F","color_name":"gray","kind":"route","label":"Falls/Walmart","long":"Falls/Walmart","route_id":"19151","text_color":"#000000","type_label":"Bus"},"type":"Feature"},{"geometry":{"coordinates":[[-82.18692,36.59434],[-82.18646,36.59442],[-82.18644,36.59507],[-82.19701,36.59537],[-82.19699,36.59747],[-82.20068,36.59756],[-82.20073,36.59839],[-82.20187,36.59913],[-82.20235,36.59896],[-82.20226,36.59916],[-82.20215,36.59903],[-82.21061,36.59591],[-82.21168,36.59602],[-82.21258,36.59638],[-82.2158,36.59916],[-82.21688,36.5983],[-82.21778,36.59908],[-82.21875,36.59862],[-82.21863,36.59828],[-82.21889,36.59815],[-82.21732,36.59791],[-82.21771,36.59758],[-82.21895,36.59693],[-82.22088,36.59682],[-82.2214,36.59801],[-82.22099,36.59817],[-82.2208,36.59816],[-82.21977,36.59687],[-82.219,36.59692],[-82.2179,36.59745],[-82.21662,36.59854],[-82.21565,36.59761],[-82.21458,36.59575],[-82.2129,36.59644],[-82.21197,36.59598],[-82.21053,36.59573],[-82.19513,36.6015],[-82.19463,36.60037],[-82.19404,36.60048],[-82.19442,36.60132],[-82.19481,36.60119],[-82.19536,36.60222],[-82.1942,36.60264],[-82.19439,36.60328],[-82.19518,36.60318],[-82.1964,36.60224],[-82.19628,36.60189],[-82.19679,36.60165],[-82.19715,36.60226],[-82.19864,36.60284],[-82.19917,36.60347],[-82.2004,36.60405],[-82.19568,36.60869],[-82.19472,36.60854],[-82.19361,36.60863],[-82.19278,36.6049]],"type":"LineString"},"properties":{"color":"#006AFE","color_name":"blue","kind":"route","label":"West Bristol","long":"West Bristol","route_id":"19152","text_color":"#FFFFFF","type_label":"Bus"},"type":"Feature"},{"geometry":{"coordinates":[[-82.18692,36.59434],[-82.18695,36.59393],[-82.18648,36.59392],[-82.18644,36.59507],[-82.18516,36.59503],[-82.18413,36.5969],[-82.18285,36.59651],[-82.18051,36.59643],[-82.17973,36.59622],[-82.17917,36.59831],[-82.17765,36.59902],[-82.17642,36.60028],[-82.17112,36.59784],[-82.16921,36.60082],[-82.16387,36.6032],[-82.16434,36.6038],[-82.16331,36.60452],[-82.1617,36.60512],[-82.16096,36.60493],[-82.15971,36.60504],[-82.15662,36.60477],[-82.15499,36.60639],[-82.15186,36.60748],[-82.14967,36.60954],[-82.14665,36.61076],[-82.14547,36.61071],[-82.14312,36.60983],[-82.13909,36.60968],[-82.138,36.61265],[-82.13444,36.61566],[-82.12748,36.61912],[-82.12913,36.62141],[-82.1234,36.62449],[-82.12241,36.62539],[-82.12181,36.62648],[-82.12154,36.63069],[-82.12185,36.6339],[-82.12273,36.6339],[-82.12278,36.63326],[-82.1234,36.63312],[-82.12538,36.63483],[-82.12678,36.63358],[-82.12678,36.63209],[-82.12286,36.63214],[-82.12168,36.63249],[-82.12158,36.63157],[-82.12224,36.6315],[-82.12303,36.63053],[-82.12397,36.63052],[-82.12924,36.62864],[-82.13059,36.62847],[-82.1311,36.6286],[-82.13095,36.6306],[-82.13203,36.63062],[-82.13205,36.63048]],"type":"LineString"},"properties":{"color":"#FF1F39","color_name":"red","kind":"route","label":"East Bristol","long":"East Bristol","route_id":"19153","text_color":"#000000","type_label":"Bus"},"type":"Feature"},{"geometry":{"coordinates":[-82.19409,36.60041],"type":"Point"},"properties":{"kind":"stop","name":"Food City (Euclid Ave & Bob Morrison Blvd)","stop_id":"2740415"},"type":"Feature"},{"geometry":{"coordinates":[-82.18304,36.5979],"type":"Point"},"properties":{"kind":"stop","name":"Leisure Park Towers (Piedmont Ave)","stop_id":"2740416"},"type":"Feature"},{"geometry":{"coordinates":[-82.14351,36.63069],"type":"Point"},"properties":{"kind":"stop","name":"Cabela Dr & Lee Hwy","stop_id":"2745306"},"type":"Feature"},{"geometry":{"coordinates":[-82.13208,36.63047],"type":"Point"},"properties":{"kind":"stop","name":"Food City-Bonham Rd","stop_id":"2745307"},"type":"Feature"},{"geometry":{"coordinates":[-82.18698,36.59435],"type":"Point"},"properties":{"kind":"stop","name":"Downtown Transfer Center","stop_id":"2751213"},"type":"Feature"},{"geometry":{"coordinates":[-82.11552,36.6344],"type":"Point"},"properties":{"kind":"stop","name":"Home Depot","stop_id":"2751214"},"type":"Feature"},{"geometry":{"coordinates":[-82.12492,36.63453],"type":"Point"},"properties":{"kind":"stop","name":"Walmart-Lee Hwy","stop_id":"2751216"},"type":"Feature"},{"geometry":{"coordinates":[-82.16157,36.62519],"type":"Point"},"properties":{"kind":"stop","name":"Price Less Food- Lee Hwy","stop_id":"2751217"},"type":"Feature"},{"geometry":{"coordinates":[-82.17648,36.60051],"type":"Point"},"properties":{"kind":"stop","name":"MLK Jr Blvd & W Mary St","stop_id":"2751218"},"type":"Feature"},{"geometry":{"coordinates":[-82.11926,36.63397],"type":"Point"},"properties":{"kind":"stop","name":"Dollar General-Plaza Dr & Lee Hwy","stop_id":"2751221"},"type":"Feature"},{"geometry":{"coordinates":[-82.16144,36.60503],"type":"Point"},"properties":{"kind":"stop","name":"McKinley Ave & King Mill Pike St","stop_id":"2751235"},"type":"Feature"},{"geometry":{"coordinates":[-82.16049,36.59923],"type":"Point"},"properties":{"kind":"stop","name":"Woodland Apartments on Avondale","stop_id":"2751236"},"type":"Feature"},{"geometry":{"coordinates":[-82.21498,36.59635],"type":"Point"},"properties":{"kind":"stop","name":"Kroger-Gate City Hwy","stop_id":"2751237"},"type":"Feature"},{"geometry":{"coordinates":[-82.19286,36.60489],"type":"Point"},"properties":{"kind":"stop","name":"Commonwealth Ave & Lawrence Ave","stop_id":"2751238"},"type":"Feature"},{"geometry":{"coordinates":[-82.16434,36.61199],"type":"Point"},"properties":{"kind":"stop","name":"E Valley Dr & Texas Ave","stop_id":"2751239"},"type":"Feature"},{"geometry":{"coordinates":[-82.1166,36.63389],"type":"Point"},"properties":{"kind":"stop","name":"DSS Office","stop_id":"2754986"},"type":"Feature"},{"geometry":{"coordinates":[-82.12059,36.62951],"type":"Point"},"properties":{"kind":"stop","name":"Wellmont Medical Associates/Ballad Health Family Medicine","stop_id":"2754988"},"type":"Feature"},{"geometry":{"coordinates":[-82.13389,36.62434],"type":"Point"},"properties":{"kind":"stop","name":"Ridgecrest Apartments","stop_id":"2754989"},"type":"Feature"},{"geometry":{"coordinates":[-82.16559,36.59694],"type":"Point"},"properties":{"kind":"stop","name":"Harbor Landing @ Dixie St","stop_id":"2754990"},"type":"Feature"},{"geometry":{"coordinates":[-82.1657,36.59842],"type":"Point"},"properties":{"kind":"stop","name":"Eastridge Apartments","stop_id":"2754991"},"type":"Feature"},{"geometry":{"coordinates":[-82.2188,36.59859],"type":"Point"},"properties":{"kind":"stop","name":"Hard Rock Hotel Employee Entrance","stop_id":"4160593"},"type":"Feature"},{"geometry":{"coordinates":[-82.22076,36.59815],"type":"Point"},"properties":{"kind":"stop","name":"Hard Rock Hotel Main Entrance","stop_id":"4160595"},"type":"Feature"},{"geometry":{"coordinates":[-82.20235,36.59878],"type":"Point"},"properties":{"kind":"stop","name":"Euclid Ave @ Hardee\u2019s","stop_id":"4210424"},"type":"Feature"},{"geometry":{"coordinates":[-82.20231,36.59905],"type":"Point"},"properties":{"kind":"stop","name":"Euclid Ave @ Euclid Village","stop_id":"4210425"},"type":"Feature"},{"geometry":{"coordinates":[-82.20567,36.59782],"type":"Point"},"properties":{"kind":"stop","name":"Euclid Ave @ Grace Medical","stop_id":"4210426"},"type":"Feature"},{"geometry":{"coordinates":[-82.18262,36.60195],"type":"Point"},"properties":{"kind":"stop","name":"Oakview Ave & Hope Ln","stop_id":"4210427"},"type":"Feature"},{"geometry":{"coordinates":[-82.1744,36.60943],"type":"Point"},"properties":{"kind":"stop","name":"Lee Hwy @ Country Boy Market","stop_id":"4210428"},"type":"Feature"},{"geometry":{"coordinates":[-82.18105,36.6037],"type":"Point"},"properties":{"kind":"stop","name":"Oakview Ave & Clinton Ave","stop_id":"4210429"},"type":"Feature"},{"geometry":{"coordinates":[-82.18345,36.59682],"type":"Point"},"properties":{"kind":"stop","name":"Cumberland St & Waters Alley","stop_id":"4210430"},"type":"Feature"}],"type":"FeatureCollection"}
