{"features":[{"geometry":{"coordinates":[[-113.98688,46.86254],[-113.9869,46.865],[-113.98777,46.8656],[-113.98797,46.866],[-113.98751,46.86862],[-113.98693,46.86995],[-113.98008,46.86794],[-113.9753,46.86551],[-113.97579,46.86501],[-113.97558,46.86491],[-113.9758,46.86501],[-113.97532,46.86553],[-113.9797,46.86778],[-113.98515,46.86946],[-113.98695,46.86998],[-113.98709,46.86967],[-113.99141,46.87019],[-113.99325,46.87074],[-113.99381,46.86977],[-113.98764,46.86877],[-113.98796,46.86616],[-113.98827,46.86568],[-113.98924,46.865],[-113.98925,46.86203],[-113.98689,46.86202],[-113.98688,46.86255]],"type":"LineString"},"properties":{"color":"#AAB33D","color_name":"yellow","kind":"route","label":"Green","long":"Missoula College","route_id":"11694","text_color":"#FFFFFF","type_label":"Bus"},"type":"Feature"},{"geometry":{"coordinates":[[-113.98688,46.86255],[-113.98685,46.865],[-113.9893,46.86502],[-113.98915,46.84882],[-113.9974,46.84883],[-113.99735,46.8452],[-113.99704,46.8452],[-113.997,46.845],[-113.99608,46.84502],[-113.99608,46.84521],[-113.9973,46.84522],[-113.99735,46.8488],[-113.98915,46.84882],[-113.98925,46.86203],[-113.98691,46.86202],[-113.98691,46.86255]],"type":"LineString"},"properties":{"color":"#7F1A17","color_name":"brown","kind":"route","label":"Red","long":"Lewis & Clark","route_id":"3227","text_color":"#FFFFFF","type_label":"Bus"},"type":"Feature"},{"geometry":{"coordinates":[[-113.98689,46.86229],[-113.98691,46.86499],[-114.00354,46.865],[-114.00348,46.86904],[-114.00317,46.86987],[-114.00267,46.87045],[-114.00377,46.87095],[-114.00738,46.87185],[-114.01847,46.87193],[-114.01854,46.86699],[-114.02238,46.867],[-114.02242,46.87194],[-114.00763,46.87188],[-114.00494,46.87129],[-114.00267,46.87045],[-114.00317,46.86987],[-114.00348,46.86904],[-114.00352,46.86648],[-114.00366,46.86648],[-114.00352,46.86648],[-114.00352,46.86404],[-113.98923,46.864],[-113.98925,46.86203],[-113.98689,46.86202],[-113.98689,46.86229]],"type":"LineString"},"properties":{"color":"#441D3A","color_name":"black","kind":"route","label":"Purple","long":"5th/6th/Sawmill District","route_id":"3229","text_color":"#FFFFFF","type_label":"Bus"},"type":"Feature"},{"geometry":{"coordinates":[[-113.98688,46.86255],[-113.98691,46.86499],[-113.98781,46.86564],[-113.98796,46.86616],[-113.9876,46.86835],[-113.98709,46.86967],[-113.99141,46.87019],[-113.99837,46.87229],[-113.99858,46.87209],[-113.99597,46.8703],[-113.9935,46.86966],[-113.98779,46.86888],[-113.98756,46.86852],[-113.98796,46.86616],[-113.98827,46.86568],[-113.98924,46.865],[-113.98915,46.84882],[-113.9974,46.84883],[-113.99735,46.8452],[-113.99704,46.8452],[-113.997,46.845],[-113.99608,46.84502],[-113.99608,46.84521],[-113.9973,46.84522],[-113.99735,46.8488],[-113.98915,46.84882],[-113.98925,46.86203],[-113.98691,46.86202],[-113.98691,46.86255]],"type":"LineString"},"properties":{"color":"#C69130","color_name":"orange","kind":"route","label":"Gold","long":"Downtown Late Night","route_id":"3230","text_color":"#FFFFFF","type_label":"Bus"},"type":"Feature"},{"geometry":{"coordinates":[[-113.98688,46.86255],[-113.9869,46.86401],[-113.98426,46.86402],[-113.98422,46.865],[-113.98221,46.86498],[-113.98069,46.86464],[-113.98021,46.86401],[-113.98025,46.86372],[-113.98155,46.86186],[-113.98157,46.86136],[-113.98103,46.86108],[-113.98101,46.86068],[-113.98211,46.8581],[-113.98268,46.85742],[-113.98332,46.85713],[-113.98922,46.85711],[-113.98916,46.84882],[-113.99737,46.84881],[-113.99734,46.84518],[-113.99607,46.84498],[-113.99607,46.84517],[-113.99733,46.84522],[-113.99735,46.84881],[-113.98915,46.84882],[-113.98925,46.86203],[-113.98691,46.86202],[-113.98691,46.86255]],"type":"LineString"},"properties":{"color":"#00BEFD","color_name":"teal","kind":"route","label":"Commencement South","long":"Lewis & Clark","route_id":"76327","text_color":"#000000","type_label":"Bus"},"type":"Feature"},{"geometry":{"coordinates":[[-113.98688,46.86255],[-113.98691,46.86499],[-113.98781,46.86564],[-113.98796,46.86616],[-113.98756,46.86852],[-113.98717,46.86948],[-113.98676,46.86982],[-113.98008,46.86794],[-113.9745,46.86512],[-113.97502,46.86464],[-113.9758,46.86501],[-113.97532,46.86553],[-113.9797,46.86778],[-113.98695,46.86998],[-113.9876,46.86835],[-113.98796,46.86616],[-113.98827,46.86568],[-113.98924,46.865],[-113.98925,46.86203],[-113.98689,46.86202],[-113.98688,46.86255]],"type":"LineString"},"properties":{"color":"#00BEFD","color_name":"teal","kind":"route","label":"Commencement East","long":"Missoula College Park & Ride","route_id":"76334","text_color":"#000000","type_label":"Bus"},"type":"Feature"},{"geometry":{"coordinates":[[-113.98689,46.86229],[-113.98691,46.86499],[-113.98781,46.86564],[-113.98796,46.86616],[-113.9876,46.86835],[-113.98709,46.86967],[-113.99141,46.87019],[-113.99837,46.87229],[-113.99858,46.87209],[-113.99597,46.8703],[-113.9935,46.86966],[-113.98769,46.86881],[-113.98756,46.86852],[-113.98796,46.86616],[-113.98827,46.86568],[-113.98924,46.865],[-113.98925,46.86203],[-113.98689,46.86202],[-113.98689,46.86229]],"type":"LineString"},"properties":{"color":"#00BEFD","color_name":"teal","kind":"route","label":"Commencement Downtown","long":"Downtown/ROAM","route_id":"76338","text_color":"#000000","type_label":"Bus"},"type":"Feature"},{"geometry":{"coordinates":[[-113.98155,46.86186],[-113.98157,46.86136],[-113.98103,46.86108],[-113.98102,46.86059],[-113.98211,46.8581],[-113.98268,46.85742],[-113.98349,46.8571],[-113.98923,46.8571],[-113.98915,46.84882],[-113.99737,46.84881],[-113.99734,46.84518],[-113.99703,46.8452],[-113.997,46.845],[-113.99608,46.84502],[-113.99608,46.84521],[-113.9973,46.84522],[-113.99735,46.8488],[-113.98915,46.84882],[-113.98925,46.86203],[-113.98691,46.86202],[-113.9869,46.86401],[-113.98527,46.86402],[-113.98506,46.86499],[-113.98247,46.86501],[-113.98102,46.86475],[-113.98023,46.86409],[-113.98025,46.86372],[-113.98154,46.86187]],"type":"LineString"},"properties":{"color":"#00BEFD","color_name":"teal","kind":"route","label":"Blue","long":"Lewis & Clark/East Main Campus","route_id":"76590","text_color":"#000000","type_label":"Bus"},"type":"Feature"},{"geometry":{"coordinates":[-113.99034,46.87015],"type":"Point"},"properties":{"kind":"stop","name":"Main St & Adams St","stop_id":"2483927"},"type":"Feature"},{"geometry":{"coordinates":[-113.98534,46.86939],"type":"Point"},"properties":{"kind":"stop","name":"E Broadway St & N Monroe St","stop_id":"2483932"},"type":"Feature"},{"geometry":{"coordinates":[-113.98158,46.86826],"type":"Point"},"properties":{"kind":"stop","name":"Eastgate","stop_id":"2483933"},"type":"Feature"},{"geometry":{"coordinates":[-113.97677,46.86613],"type":"Point"},"properties":{"kind":"stop","name":"Broadway St at MonTEC","stop_id":"2483935"},"type":"Feature"},{"geometry":{"coordinates":[-113.9756,46.86486],"type":"Point"},"properties":{"kind":"stop","name":"Missoula College","stop_id":"2483936"},"type":"Feature"},{"geometry":{"coordinates":[-113.98932,46.85055],"type":"Point"},"properties":{"kind":"stop","name":"Arthur Ave & E Central Ave","stop_id":"2562426"},"type":"Feature"},{"geometry":{"coordinates":[-113.98912,46.85084],"type":"Point"},"properties":{"kind":"stop","name":"Arthur Ave & Central Ave","stop_id":"2562427"},"type":"Feature"},{"geometry":{"coordinates":[-113.98914,46.85439],"type":"Point"},"properties":{"kind":"stop","name":"Arthur & Beverly","stop_id":"2562428"},"type":"Feature"},{"geometry":{"coordinates":[-113.98913,46.85294],"type":"Point"},"properties":{"kind":"stop","name":"Arthur & Woodworth","stop_id":"2562429"},"type":"Feature"},{"geometry":{"coordinates":[-113.98934,46.85403],"type":"Point"},"properties":{"kind":"stop","name":"Arthur & Beverly","stop_id":"2562430"},"type":"Feature"},{"geometry":{"coordinates":[-113.98683,46.86229],"type":"Point"},"properties":{"kind":"stop","name":"Maurice & Connell (Music Building)","stop_id":"2562431"},"type":"Feature"},{"geometry":{"coordinates":[-113.99724,46.84767],"type":"Point"},"properties":{"kind":"stop","name":"Higgins & Livingston","stop_id":"2562432"},"type":"Feature"},{"geometry":{"coordinates":[-113.99743,46.84777],"type":"Point"},"properties":{"kind":"stop","name":"Higgins & Livingston","stop_id":"2562433"},"type":"Feature"},{"geometry":{"coordinates":[-113.98917,46.86027],"type":"Point"},"properties":{"kind":"stop","name":"Arthur Ave & University Ave.","stop_id":"3451570"},"type":"Feature"},{"geometry":{"coordinates":[-113.98935,46.8583],"type":"Point"},"properties":{"kind":"stop","name":"Arthur Ave & Keith Ave.","stop_id":"3451571"},"type":"Feature"},{"geometry":{"coordinates":[-113.99305,46.87079],"type":"Point"},"properties":{"kind":"stop","name":"E Main St & N Pattee St","stop_id":"4207408"},"type":"Feature"},{"geometry":{"coordinates":[-113.996,46.87166],"type":"Point"},"properties":{"kind":"stop","name":"W Main St & Ryman St","stop_id":"4207409"},"type":"Feature"},{"geometry":{"coordinates":[-113.9935,46.86966],"type":"Point"},"properties":{"kind":"stop","name":"E Front St & S Pattee St","stop_id":"4207410"},"type":"Feature"},{"geometry":{"coordinates":[-114.00552,46.87147],"type":"Point"},"properties":{"kind":"stop","name":"Cregg Ln & Cottonwood St","stop_id":"4207411"},"type":"Feature"},{"geometry":{"coordinates":[-114.00587,46.87143],"type":"Point"},"properties":{"kind":"stop","name":"Cregg Ln & Hickory St","stop_id":"4207412"},"type":"Feature"},{"geometry":{"coordinates":[-114.01127,46.87199],"type":"Point"},"properties":{"kind":"stop","name":"Wyoming St & Moose Crk Trl","stop_id":"4207413"},"type":"Feature"},{"geometry":{"coordinates":[-114.01128,46.87184],"type":"Point"},"properties":{"kind":"stop","name":"Wyoming St & Moose Crk Trl (IB)","stop_id":"4207414"},"type":"Feature"},{"geometry":{"coordinates":[-114.00321,46.87018],"type":"Point"},"properties":{"kind":"stop","name":"Orange St & Cregg Ln","stop_id":"4207415"},"type":"Feature"},{"geometry":{"coordinates":[-114.00338,46.86732],"type":"Point"},"properties":{"kind":"stop","name":"Orange St & 3rd St W (OB)","stop_id":"4207416"},"type":"Feature"},{"geometry":{"coordinates":[-114.00366,46.86648],"type":"Point"},"properties":{"kind":"stop","name":"Orange St & 3rd St W (IB)","stop_id":"4207417"},"type":"Feature"},{"geometry":{"coordinates":[-113.99021,46.86915],"type":"Point"},"properties":{"kind":"stop","name":"E Front St & Lambros St","stop_id":"4207418"},"type":"Feature"},{"geometry":{"coordinates":[-114.0019,46.86506],"type":"Point"},"properties":{"kind":"stop","name":"S 5th St W & Chestnut","stop_id":"4207424"},"type":"Feature"},{"geometry":{"coordinates":[-113.98144,46.86845],"type":"Point"},"properties":{"kind":"stop","name":"E Broadway & Van Buren (IB)","stop_id":"4207442"},"type":"Feature"},{"geometry":{"coordinates":[-113.99756,46.85807],"type":"Point"},"properties":{"kind":"stop","name":"S Higgins Ave & Keith Ave","stop_id":"4211613"},"type":"Feature"},{"geometry":{"coordinates":[-113.9968,46.87081],"type":"Point"},"properties":{"kind":"stop","name":"W Front St & Ryman St","stop_id":"4211614"},"type":"Feature"},{"geometry":{"coordinates":[-113.99759,46.86474],"type":"Point"},"properties":{"kind":"stop","name":"S Higgins Ave & S 5th St W","stop_id":"4211615"},"type":"Feature"},{"geometry":{"coordinates":[-113.9956,46.86985],"type":"Point"},"properties":{"kind":"stop","name":"N Higgins Ave & W Front St","stop_id":"4211616"},"type":"Feature"},{"geometry":{"coordinates":[-113.93523,46.88196],"type":"Point"},"properties":{"kind":"stop","name":"Sha-Ron FAS","stop_id":"4211713"},"type":"Feature"},{"geometry":{"coordinates":[-113.88891,46.87218],"type":"Point"},"properties":{"kind":"stop","name":"Milltown State Park","stop_id":"4211714"},"type":"Feature"},{"geometry":{"coordinates":[-113.98294,46.86495],"type":"Point"},"properties":{"kind":"stop","name":"Campus Rec","stop_id":"4211715"},"type":"Feature"},{"geometry":{"coordinates":[-113.99917,46.86507],"type":"Point"},"properties":{"kind":"stop","name":"S 5th St W & Myrtle","stop_id":"807576"},"type":"Feature"},{"geometry":{"coordinates":[-113.99914,46.86398],"type":"Point"},"properties":{"kind":"stop","name":"S 6th St W & Myrtle St","stop_id":"807579"},"type":"Feature"},{"geometry":{"coordinates":[-113.9894,46.86287],"type":"Point"},"properties":{"kind":"stop","name":"Arthur Ave & Eddy Ave","stop_id":"807580"},"type":"Feature"},{"geometry":{"coordinates":[-113.98936,46.86028],"type":"Point"},"properties":{"kind":"stop","name":"Arthur Ave & University Ave.","stop_id":"807581"},"type":"Feature"},{"geometry":{"coordinates":[-113.98914,46.85866],"type":"Point"},"properties":{"kind":"stop","name":"Arthur Ave & Keith Ave.","stop_id":"807582"},"type":"Feature"},{"geometry":{"coordinates":[-114.02225,46.86807],"type":"Point"},"properties":{"kind":"stop","name":"S Catlin St & S 2nd St W","stop_id":"807583"},"type":"Feature"},{"geometry":{"coordinates":[-114.02231,46.8701],"type":"Point"},"properties":{"kind":"stop","name":"S Catlin St & Milwaukee Trail","stop_id":"807584"},"type":"Feature"},{"geometry":{"coordinates":[-113.98682,46.86255],"type":"Point"},"properties":{"kind":"stop","name":"Maurice & Connell (Charging Station)","stop_id":"807585"},"type":"Feature"},{"geometry":{"coordinates":[-113.997,46.845],"type":"Point"},"properties":{"kind":"stop","name":"Lewis and Clark Park and Ride","stop_id":"807587"},"type":"Feature"},{"geometry":{"coordinates":[-114.01868,46.87053],"type":"Point"},"properties":{"kind":"stop","name":"S Russell St & Dakota St","stop_id":"807591"},"type":"Feature"},{"geometry":{"coordinates":[-113.99546,46.86394],"type":"Point"},"properties":{"kind":"stop","name":"S 6th St E & Gerald Ave.","stop_id":"807592"},"type":"Feature"},{"geometry":{"coordinates":[-113.99237,46.86504],"type":"Point"},"properties":{"kind":"stop","name":"S 5th St E & Hilda Ave.","stop_id":"807593"},"type":"Feature"},{"geometry":{"coordinates":[-113.99446,46.86504],"type":"Point"},"properties":{"kind":"stop","name":"S 5th St E & Ronald Ave.","stop_id":"807597"},"type":"Feature"},{"geometry":{"coordinates":[-113.99233,46.86395],"type":"Point"},"properties":{"kind":"stop","name":"S 6th St E & Hilda Ave.","stop_id":"807598"},"type":"Feature"},{"geometry":{"coordinates":[-114.00221,46.86399],"type":"Point"},"properties":{"kind":"stop","name":"S 6th St W & Chestnut St.","stop_id":"807600"},"type":"Feature"},{"geometry":{"coordinates":[-113.98657,46.85716],"type":"Point"},"properties":{"kind":"stop","name":"Science Complex","stop_id":"807605"},"type":"Feature"},{"geometry":{"coordinates":[-113.99102,46.84889],"type":"Point"},"properties":{"kind":"stop","name":"South Ave E & Helen Ave.","stop_id":"807606"},"type":"Feature"},{"geometry":{"coordinates":[-113.98955,46.84875],"type":"Point"},"properties":{"kind":"stop","name":"South Ave E & Arthur Ave.","stop_id":"807607"},"type":"Feature"},{"geometry":{"coordinates":[-113.99601,46.84886],"type":"Point"},"properties":{"kind":"stop","name":"South Ave E & Gerald Ave.","stop_id":"807608"},"type":"Feature"},{"geometry":{"coordinates":[-113.99524,46.84872],"type":"Point"},"properties":{"kind":"stop","name":"South Ave E & Gerald Ave. (Dornblaser Park & Ride)","stop_id":"807609"},"type":"Feature"},{"geometry":{"coordinates":[-113.99272,46.84888],"type":"Point"},"properties":{"kind":"stop","name":"South Ave E & Hilda Ave.","stop_id":"807610"},"type":"Feature"},{"geometry":{"coordinates":[-113.99177,46.84873],"type":"Point"},"properties":{"kind":"stop","name":"South Ave E & Granite Ct","stop_id":"807611"},"type":"Feature"},{"geometry":{"coordinates":[-113.98174,46.8619],"type":"Point"},"properties":{"kind":"stop","name":"University Center","stop_id":"807620"},"type":"Feature"},{"geometry":{"coordinates":[-113.98417,46.86439],"type":"Point"},"properties":{"kind":"stop","name":"Van Buren & 5th St E (Adams Center)","stop_id":"807621"},"type":"Feature"},{"geometry":{"coordinates":[-114.02121,46.87185],"type":"Point"},"properties":{"kind":"stop","name":"Wyoming & Catlin St","stop_id":"807623"},"type":"Feature"}],"type":"FeatureCollection"}
