{"features":[{"geometry":{"coordinates":[[-120.38908,38.03003],[-120.38862,38.02967],[-120.38859,38.0293],[-120.38835,38.0291],[-120.38757,38.02914],[-120.38485,38.02849],[-120.38118,38.02703],[-120.37951,38.02701],[-120.37879,38.02678],[-120.37997,38.02403],[-120.37979,38.02289],[-120.38251,38.02201],[-120.38376,38.02084],[-120.38749,38.01963],[-120.39196,38.01939],[-120.39584,38.01836],[-120.39632,38.01543],[-120.3961,38.01395],[-120.3974,38.01373],[-120.40571,38.01098],[-120.40793,38.01075],[-120.41305,38.01168],[-120.41626,38.01169],[-120.41762,38.01152],[-120.42141,38.01034],[-120.42262,38.00944],[-120.42397,38.00787],[-120.42481,38.0058],[-120.42535,38.00501],[-120.428,38.00278],[-120.4289,38.0013],[-120.43086,37.99966],[-120.43224,37.99756],[-120.43438,37.99521],[-120.43494,37.99408],[-120.43783,37.99247],[-120.44077,37.98987],[-120.44164,37.98848],[-120.4444,37.9889],[-120.44582,37.98941],[-120.44884,37.99009],[-120.45729,37.99174],[-120.4592,37.9918],[-120.46104,37.99155],[-120.46152,37.99127],[-120.46207,37.99028],[-120.46239,37.99004],[-120.46412,37.99],[-120.46472,37.99027],[-120.46574,37.9914],[-120.46771,37.9918],[-120.46891,37.99253],[-120.46909,37.99219],[-120.4687,37.9907],[-120.46887,37.99019],[-120.46987,37.98957],[-120.47087,37.98975],[-120.47253,37.9892],[-120.47386,37.99029],[-120.4762,37.99111],[-120.47903,37.99303],[-120.48086,37.99393],[-120.48515,37.99773],[-120.48779,37.99945],[-120.50334,38.0053],[-120.5047,38.00612],[-120.50527,38.00718],[-120.5051,38.00925],[-120.50546,38.01034],[-120.50618,38.01104],[-120.50828,38.01215],[-120.50893,38.01271],[-120.50936,38.01355],[-120.50943,38.0156],[-120.50976,38.01651],[-120.51029,38.0171],[-120.51331,38.01942],[-120.51365,38.02006],[-120.51351,38.02074],[-120.51243,38.02135],[-120.51227,38.02163],[-120.51325,38.02341],[-120.51234,38.02625],[-120.51104,38.02714],[-120.51058,38.02766],[-120.50738,38.02751],[-120.50665,38.028],[-120.50627,38.033],[-120.50663,38.03398],[-120.51003,38.037],[-120.5111,38.03771],[-120.51901,38.03969],[-120.5211,38.04067],[-120.52268,38.04189],[-120.52501,38.045],[-120.52991,38.04904],[-120.53233,38.0522],[-120.53497,38.05489],[-120.53558,38.05648],[-120.53571,38.0584],[-120.53661,38.06044],[-120.53716,38.06274],[-120.5376,38.0635],[-120.53739,38.06589],[-120.53842,38.06694],[-120.53906,38.06828],[-120.54122,38.07055],[-120.54322,38.07349],[-120.54581,38.07531],[-120.54988,38.07707],[-120.55499,38.07979]],"type":"LineString"},"properties":{"color":"#EC9632","color_name":"orange","kind":"route","label":"Columbia College Shuttle","long":"Columbia College Shuttle","route_id":"32512","text_color":"#FFFFFF","type_label":"Bus"},"type":"Feature"},{"geometry":{"coordinates":[[-120.83856,38.1688],[-120.83869,38.16837],[-120.83904,38.1687],[-120.83668,38.17164],[-120.83424,38.17332],[-120.83145,38.17595],[-120.82996,38.17978],[-120.82594,38.18329],[-120.82557,38.18655],[-120.82842,38.19119],[-120.82908,38.19155],[-120.82973,38.19066],[-120.8307,38.19111],[-120.82997,38.19203],[-120.82905,38.19154],[-120.82818,38.19218],[-120.82213,38.1933],[-120.8046,38.19595],[-120.80236,38.19659],[-120.80029,38.19764],[-120.79811,38.1993],[-120.79554,38.20133],[-120.79206,38.20449],[-120.78989,38.20612],[-120.78724,38.208],[-120.7851,38.20893],[-120.78257,38.20922],[-120.77907,38.20869],[-120.77551,38.20858],[-120.77363,38.20876],[-120.77064,38.2094],[-120.76527,38.21167],[-120.76358,38.212],[-120.7484,38.21242],[-120.74649,38.21175],[-120.74458,38.21026],[-120.74354,38.20977],[-120.73679,38.20818],[-120.73169,38.20618],[-120.72721,38.20517],[-120.72141,38.20084],[-120.72014,38.20036],[-120.71862,38.20027],[-120.71685,38.20072],[-120.71587,38.20128],[-120.71484,38.20229],[-120.71385,38.20445],[-120.71319,38.20528],[-120.71227,38.20591],[-120.71003,38.20688],[-120.70816,38.2086],[-120.70656,38.2092],[-120.70526,38.20925],[-120.70441,38.20908],[-120.70089,38.20709],[-120.69881,38.20616],[-120.69514,38.20259],[-120.6931,38.20136],[-120.68884,38.19944],[-120.6857,38.19762],[-120.68218,38.19668],[-120.67952,38.19562],[-120.67671,38.1933],[-120.67495,38.19068],[-120.67438,38.18922],[-120.67311,38.18917],[-120.67224,38.18941],[-120.67125,38.19015],[-120.67064,38.19104],[-120.67017,38.19132],[-120.66942,38.19133],[-120.66861,38.19081],[-120.66819,38.19099],[-120.66781,38.19087],[-120.66857,38.19078],[-120.66932,38.1913],[-120.67017,38.19132],[-120.67064,38.19104],[-120.67125,38.19015],[-120.67224,38.18942],[-120.67343,38.18915],[-120.67423,38.18917],[-120.67452,38.18936],[-120.67397,38.1874],[-120.66349,38.1769],[-120.65984,38.17438],[-120.65298,38.16778],[-120.65195,38.16649],[-120.6508,38.16429],[-120.64753,38.16018],[-120.64614,38.15807],[-120.64343,38.15559],[-120.64231,38.15307],[-120.64189,38.15114],[-120.64048,38.1482],[-120.6397,38.14694],[-120.63635,38.14287],[-120.63522,38.13998],[-120.63469,38.13806],[-120.63535,38.13545],[-120.63463,38.13116],[-120.63401,38.13024],[-120.63248,38.12878],[-120.6303,38.12589],[-120.62936,38.12501],[-120.62256,38.12082],[-120.61785,38.11669],[-120.61627,38.11559],[-120.61441,38.11473],[-120.60135,38.10985],[-120.59449,38.10564],[-120.59303,38.10443],[-120.58825,38.09934],[-120.5821,38.09405],[-120.57853,38.09132],[-120.56753,38.08607],[-120.56376,38.08524],[-120.56221,38.08469],[-120.55979,38.08324],[-120.55751,38.08146],[-120.55436,38.07941],[-120.54988,38.07707],[-120.54515,38.07492],[-120.54322,38.07349],[-120.54101,38.0703],[-120.53928,38.06846],[-120.53858,38.06824],[-120.53804,38.0685],[-120.53759,38.06941],[-120.53797,38.07185],[-120.5377,38.07284],[-120.53715,38.07346],[-120.53382,38.0757],[-120.52996,38.07779],[-120.52737,38.07836],[-120.52699,38.07867],[-120.52692,38.07921],[-120.51886,38.08087],[-120.51762,38.0813],[-120.50335,38.091],[-120.50206,38.09168],[-120.49288,38.09339],[-120.49097,38.09352],[-120.4812,38.09323],[-120.47997,38.09278],[-120.47736,38.09094],[-120.47604,38.09054],[-120.47441,38.09065],[-120.47302,38.09141],[-120.47233,38.09249],[-120.47117,38.0977],[-120.46909,38.10186],[-120.46505,38.10576],[-120.45401,38.11494],[-120.45282,38.11669],[-120.45032,38.12279],[-120.45015,38.12385],[-120.4504,38.12511],[-120.45088,38.12594],[-120.45354,38.12919],[-120.45659,38.13644],[-120.45674,38.13746],[-120.45644,38.13855],[-120.45609,38.13907],[-120.4556,38.13885],[-120.45609,38.13907],[-120.45565,38.13955],[-120.45274,38.14157],[-120.45052,38.14406],[-120.44924,38.146],[-120.44761,38.14702],[-120.44428,38.15028],[-120.44356,38.15063],[-120.44227,38.15077],[-120.44124,38.15123],[-120.43996,38.15264],[-120.43855,38.15379],[-120.43831,38.15432],[-120.4382,38.15565],[-120.43726,38.15665],[-120.43675,38.15841],[-120.43652,38.16054],[-120.43684,38.16263],[-120.4359,38.16383],[-120.43093,38.16524],[-120.42833,38.1648],[-120.42695,38.16506],[-120.42353,38.16496],[-120.42189,38.16523],[-120.41637,38.16712],[-120.41324,38.16934],[-120.40972,38.17068],[-120.40597,38.17135],[-120.40345,38.17254],[-120.4022,38.17293],[-120.39765,38.173],[-120.39676,38.17317],[-120.3937,38.17518],[-120.39066,38.17671],[-120.3823,38.17866],[-120.38165,38.17926],[-120.38102,38.1811],[-120.38022,38.18194],[-120.37696,38.18314],[-120.37252,38.18655],[-120.3715,38.18674],[-120.36952,38.18664],[-120.36848,38.18714],[-120.36432,38.19298],[-120.36404,38.19376],[-120.36428,38.19442],[-120.36544,38.19572],[-120.3662,38.19711],[-120.36622,38.1977],[-120.36569,38.19894],[-120.36592,38.19985],[-120.36929,38.20231],[-120.36985,38.20327],[-120.3692,38.20573],[-120.36779,38.20488],[-120.3692,38.20573],[-120.3683,38.20872],[-120.36825,38.20996],[-120.37097,38.21663],[-120.37108,38.21746],[-120.37088,38.21828],[-120.36952,38.22002],[-120.36917,38.2211],[-120.36896,38.22304],[-120.36968,38.22527],[-120.36808,38.2324],[-120.36755,38.2335],[-120.36527,38.23523],[-120.36449,38.23694],[-120.36284,38.23894],[-120.36278,38.23907],[-120.36365,38.23956],[-120.36278,38.23907],[-120.3612,38.24222],[-120.36071,38.24338],[-120.3592,38.24879],[-120.35829,38.2504],[-120.35317,38.2546],[-120.3492,38.25622],[-120.34708,38.25765]],"type":"LineString"},"properties":{"color":"#D10000","color_name":"red","kind":"route","label":"Red Line","long":"Red Line","route_id":"556","text_color":"#FFFFFF","type_label":"Bus"},"type":"Feature"},{"geometry":{"coordinates":[-120.83873,38.16872],"type":"Point"},"properties":{"kind":"stop","name":"Valley Springs - Vista Del Lago","stop_id":"17760"},"type":"Feature"},{"geometry":{"coordinates":[-120.8303,38.1915],"type":"Point"},"properties":{"kind":"stop","name":"Valley Springs - Daphne St","stop_id":"17761"},"type":"Feature"},{"geometry":{"coordinates":[-120.68941,38.1998],"type":"Point"},"properties":{"kind":"stop","name":"San Andreas - Credit Union","stop_id":"17762"},"type":"Feature"},{"geometry":{"coordinates":[-120.67745,38.1941],"type":"Point"},"properties":{"kind":"stop","name":"San Andreas - Treats","stop_id":"17764"},"type":"Feature"},{"geometry":{"coordinates":[-120.66785,38.19105],"type":"Point"},"properties":{"kind":"stop","name":"San Andreas - Government Center","stop_id":"17766"},"type":"Feature"},{"geometry":{"coordinates":[-120.70422,38.29753],"type":"Point"},"properties":{"kind":"stop","name":"Mokelumne Hill - Sierra Trading Post","stop_id":"17767"},"type":"Feature"},{"geometry":{"coordinates":[-120.54329,38.22728],"type":"Point"},"properties":{"kind":"stop","name":"Mountain Ranch - Blunder Inn","stop_id":"17771"},"type":"Feature"},{"geometry":{"coordinates":[-120.54058,38.06974],"type":"Point"},"properties":{"kind":"stop","name":"Angels Camp - Visitors Center","stop_id":"17774"},"type":"Feature"},{"geometry":{"coordinates":[-120.45209,38.11884],"type":"Point"},"properties":{"kind":"stop","name":"Douglas Flat - SR 4","stop_id":"17776"},"type":"Feature"},{"geometry":{"coordinates":[-120.36774,38.20492],"type":"Point"},"properties":{"kind":"stop","name":"Avery - Hotel Rd","stop_id":"17783"},"type":"Feature"},{"geometry":{"coordinates":[-120.36369,38.23957],"type":"Point"},"properties":{"kind":"stop","name":"Arnold - Big Trees Market","stop_id":"17784"},"type":"Feature"},{"geometry":{"coordinates":[-120.34716,38.25774],"type":"Point"},"properties":{"kind":"stop","name":"Arnold - Library/Blagen Rd.","stop_id":"17785"},"type":"Feature"},{"geometry":{"coordinates":[-120.38905,38.03006],"type":"Point"},"properties":{"kind":"stop","name":"Sonora - Columbia College","stop_id":"17786"},"type":"Feature"},{"geometry":{"coordinates":[-120.6069,37.93956],"type":"Point"},"properties":{"kind":"stop","name":"Copperopolis - Copper Cove Dr./Feather Dr.","stop_id":"17789"},"type":"Feature"},{"geometry":{"coordinates":[-120.64265,37.93216],"type":"Point"},"properties":{"kind":"stop","name":"Copperopolis - Cover Cove Dr./Little John Rd.","stop_id":"17790"},"type":"Feature"},{"geometry":{"coordinates":[-120.65282,37.97268],"type":"Point"},"properties":{"kind":"stop","name":"Copperopolis - Copper Town Square","stop_id":"17791"},"type":"Feature"},{"geometry":{"coordinates":[-120.6866,38.19794],"type":"Point"},"properties":{"kind":"stop","name":"San Andreas - Post Office","stop_id":"17792"},"type":"Feature"},{"geometry":{"coordinates":[-120.55506,38.07966],"type":"Point"},"properties":{"kind":"stop","name":"Angels Camp - Save Mart","stop_id":"2506170"},"type":"Feature"},{"geometry":{"coordinates":[-120.55402,38.07935],"type":"Point"},"properties":{"kind":"stop","name":"Angels Camp - Bret Harte HS","stop_id":"2506172"},"type":"Feature"},{"geometry":{"coordinates":[-120.54024,38.06969],"type":"Point"},"properties":{"kind":"stop","name":"Angels Camp - Raspberry Ln/Historic Downtown","stop_id":"2506173"},"type":"Feature"},{"geometry":{"coordinates":[-120.82808,38.19049],"type":"Point"},"properties":{"kind":"stop","name":"Valley Springs - Ace Hardware Senders","stop_id":"2506174"},"type":"Feature"},{"geometry":{"coordinates":[-120.45557,38.1338],"type":"Point"},"properties":{"kind":"stop","name":"Murphys - Murphys Suites","stop_id":"2506192"},"type":"Feature"},{"geometry":{"coordinates":[-120.45565,38.13878],"type":"Point"},"properties":{"kind":"stop","name":"Murphys - Tom Bell Road Car Wash","stop_id":"2506193"},"type":"Feature"},{"geometry":{"coordinates":[-120.76471,38.35018],"type":"Point"},"properties":{"kind":"stop","name":"Jackson - Sutter Hospital","stop_id":"2506301"},"type":"Feature"},{"geometry":{"coordinates":[-120.80787,38.38004],"type":"Point"},"properties":{"kind":"stop","name":"Sutter Hill - Transit Center","stop_id":"2506304"},"type":"Feature"},{"geometry":{"coordinates":[-120.68197,38.19667],"type":"Point"},"properties":{"kind":"stop","name":"San Andreas - SR 49/Court St","stop_id":"2506305"},"type":"Feature"},{"geometry":{"coordinates":[-120.51652,38.33745],"type":"Point"},"properties":{"kind":"stop","name":"Rail Road Flat - Community Center","stop_id":"2506619"},"type":"Feature"},{"geometry":{"coordinates":[-120.55511,38.07023],"type":"Point"},"properties":{"kind":"stop","name":"Angels Camp - World Mark","stop_id":"2506620"},"type":"Feature"},{"geometry":{"coordinates":[-120.36952,38.20528],"type":"Point"},"properties":{"kind":"stop","name":"Avery - SR 4 (Westbound)","stop_id":"2506621"},"type":"Feature"},{"geometry":{"coordinates":[-120.4639,38.13586],"type":"Point"},"properties":{"kind":"stop","name":"Murphys - Black Bart Playhouse","stop_id":"2506622"},"type":"Feature"},{"geometry":{"coordinates":[-120.56933,38.08699],"type":"Point"},"properties":{"kind":"stop","name":"Angels Camp - Travelodge/Copello","stop_id":"2506623"},"type":"Feature"},{"geometry":{"coordinates":[-120.45218,38.11802],"type":"Point"},"properties":{"kind":"stop","name":"Douglas Flat - Ansil Davis Rd/SR 4","stop_id":"2506624"},"type":"Feature"},{"geometry":{"coordinates":[-120.67829,38.17977],"type":"Point"},"properties":{"kind":"stop","name":"San Andreas - Resource Connection - Food Bank","stop_id":"2514513"},"type":"Feature"},{"geometry":{"coordinates":[-120.76661,38.33975],"type":"Point"},"properties":{"kind":"stop","name":"Jackson - Raley's","stop_id":"27814"},"type":"Feature"},{"geometry":{"coordinates":[-120.36784,38.20486],"type":"Point"},"properties":{"kind":"stop","name":"Avery - Hotel Rd","stop_id":"3449926"},"type":"Feature"},{"geometry":{"coordinates":[-120.55492,38.07986],"type":"Point"},"properties":{"kind":"stop","name":"Angels Camp - Save Mart (Westbound)","stop_id":"3449929"},"type":"Feature"},{"geometry":{"coordinates":[-120.46926,38.12064],"type":"Point"},"properties":{"kind":"stop","name":"Murphys - Ironstone Vineyards","stop_id":"3449930"},"type":"Feature"},{"geometry":{"coordinates":[-120.69554,38.2223],"type":"Point"},"properties":{"kind":"stop","name":"San Andreas - Gold Strike Mobile Home Park","stop_id":"770052"},"type":"Feature"}],"type":"FeatureCollection"}
