{"features":[{"geometry":{"coordinates":[-74.0064,40.7445],"type":"Point"},"properties":{"kind":"stop","name":"10th & 18th St","stop_id":"10th_18th_st"},"type":"Feature"},{"geometry":{"coordinates":[-74.0009,40.752],"type":"Point"},"properties":{"kind":"stop","name":"10th & 30th","stop_id":"10th_30th"},"type":"Feature"},{"geometry":{"coordinates":[-73.9989,40.7544],"type":"Point"},"properties":{"kind":"stop","name":"10th & 34th","stop_id":"10th_34th"},"type":"Feature"},{"geometry":{"coordinates":[-73.9998,40.7549],"type":"Point"},"properties":{"kind":"stop","name":"10th Ave & 34th","stop_id":"10th_ave_34th"},"type":"Feature"},{"geometry":{"coordinates":[-74.0062,40.7502],"type":"Point"},"properties":{"kind":"stop","name":"11th Ave & 25th","stop_id":"11th_ave_25th"},"type":"Feature"},{"geometry":{"coordinates":[-74.0039,40.7534],"type":"Point"},"properties":{"kind":"stop","name":"11th Ave & 30th","stop_id":"11th_ave_30th"},"type":"Feature"},{"geometry":{"coordinates":[-74.3777,40.7394],"type":"Point"},"properties":{"kind":"stop","name":"135 Main St","stop_id":"135_main_st"},"type":"Feature"},{"geometry":{"coordinates":[-74.3776,40.7395],"type":"Point"},"properties":{"kind":"stop","name":"135 Main St","stop_id":"135_main_st_2"},"type":"Feature"},{"geometry":{"coordinates":[-74.0076,40.742],"type":"Point"},"properties":{"kind":"stop","name":"14th & 10th Ave","stop_id":"14th_10th_ave"},"type":"Feature"},{"geometry":{"coordinates":[-73.9938,40.7362],"type":"Point"},"properties":{"kind":"stop","name":"14th & 5th Ave","stop_id":"14th_5th_ave"},"type":"Feature"},{"geometry":{"coordinates":[-74.0027,40.74],"type":"Point"},"properties":{"kind":"stop","name":"14th & 8th Ave","stop_id":"14th_8th_ave"},"type":"Feature"},{"geometry":{"coordinates":[-73.9966,40.7372],"type":"Point"},"properties":{"kind":"stop","name":"14th St & 6th Ave","stop_id":"14th_st_6th_ave"},"type":"Feature"},{"geometry":{"coordinates":[-74.0023,40.7396],"type":"Point"},"properties":{"kind":"stop","name":"14th St & 8th Ave","stop_id":"14th_st_8th_ave"},"type":"Feature"},{"geometry":{"coordinates":[-73.9786,40.7535],"type":"Point"},"properties":{"kind":"stop","name":"43rd & Madison","stop_id":"43rd_madison"},"type":"Feature"},{"geometry":{"coordinates":[-73.9789,40.7532],"type":"Point"},"properties":{"kind":"stop","name":"43rd & Madison","stop_id":"43rd_madison_2"},"type":"Feature"},{"geometry":{"coordinates":[-73.9769,40.756],"type":"Point"},"properties":{"kind":"stop","name":"47th & Madison","stop_id":"47th_madison"},"type":"Feature"},{"geometry":{"coordinates":[-73.977,40.7557],"type":"Point"},"properties":{"kind":"stop","name":"47th & Madison","stop_id":"47th_madison_2"},"type":"Feature"},{"geometry":{"coordinates":[-73.974,40.7544],"type":"Point"},"properties":{"kind":"stop","name":"480 Lexington","stop_id":"480_lexington"},"type":"Feature"},{"geometry":{"coordinates":[-73.9746,40.7591],"type":"Point"},"properties":{"kind":"stop","name":"52nd & Madison","stop_id":"52nd_madison"},"type":"Feature"},{"geometry":{"coordinates":[-73.9748,40.7589],"type":"Point"},"properties":{"kind":"stop","name":"52nd & Madison","stop_id":"52nd_madison_2"},"type":"Feature"},{"geometry":{"coordinates":[-73.9723,40.7623],"type":"Point"},"properties":{"kind":"stop","name":"57th & Madison","stop_id":"57th_madison"},"type":"Feature"},{"geometry":{"coordinates":[-73.9712,40.7581],"type":"Point"},"properties":{"kind":"stop","name":"610 Lexington \u2022 Lex & 52nd","stop_id":"610_lexington_lex_52nd"},"type":"Feature"},{"geometry":{"coordinates":[-73.9678,40.7686],"type":"Point"},"properties":{"kind":"stop","name":"67th & Madison","stop_id":"67th_madison"},"type":"Feature"},{"geometry":{"coordinates":[-73.9659,40.7711],"type":"Point"},"properties":{"kind":"stop","name":"71st & Madison","stop_id":"71st_madison"},"type":"Feature"},{"geometry":{"coordinates":[-73.9689,40.7613],"type":"Point"},"properties":{"kind":"stop","name":"American Eagle \u2022 Lex, btwn 57th and 58th","stop_id":"american_eagle_lex_btwn_57th_and_58th"},"type":"Feature"},{"geometry":{"coordinates":[-74.2926,40.7217],"type":"Point"},"properties":{"kind":"stop","name":"B'nai Israel","stop_id":"b_nai_israel"},"type":"Feature"},{"geometry":{"coordinates":[-73.974,40.7635],"type":"Point"},"properties":{"kind":"stop","name":"Bergdorf Goodman \u2022 5th btwn 57th & 58th","stop_id":"bergdorf_goodman_5th_btwn_57th_58th"},"type":"Feature"},{"geometry":{"coordinates":[-74.4427,40.6824],"type":"Point"},"properties":{"kind":"stop","name":"Berkeley Heights","stop_id":"berkeley_heights"},"type":"Feature"},{"geometry":{"coordinates":[-74.2566,40.8345],"type":"Point"},"properties":{"kind":"stop","name":"Bloomfield and Fells","stop_id":"bloomfield_and_fells"},"type":"Feature"},{"geometry":{"coordinates":[-74.2314,40.8253],"type":"Point"},"properties":{"kind":"stop","name":"Bloomfield and Mt Prospect","stop_id":"bloomfield_and_mt_prospect"},"type":"Feature"},{"geometry":{"coordinates":[-74.2753,40.839],"type":"Point"},"properties":{"kind":"stop","name":"Bloomfield and Roseland","stop_id":"bloomfield_and_roseland"},"type":"Feature"},{"geometry":{"coordinates":[-74.2982,40.8523],"type":"Point"},"properties":{"kind":"stop","name":"Bloomfield&Kirkpatrick","stop_id":"bloomfield_kirkpatrick"},"type":"Feature"},{"geometry":{"coordinates":[-74.2872,40.8457],"type":"Point"},"properties":{"kind":"stop","name":"Bloomfield & Lane Ave","stop_id":"bloomfield_lane_ave"},"type":"Feature"},{"geometry":{"coordinates":[-73.9841,40.7548],"type":"Point"},"properties":{"kind":"stop","name":"Bryant Park","stop_id":"bryant_park"},"type":"Feature"},{"geometry":{"coordinates":[-73.9845,40.7549],"type":"Point"},"properties":{"kind":"stop","name":"Bryant Park","stop_id":"bryant_park_2"},"type":"Feature"},{"geometry":{"coordinates":[-74.3849,40.7403],"type":"Point"},"properties":{"kind":"stop","name":"Chatham","stop_id":"chatham"},"type":"Feature"},{"geometry":{"coordinates":[-74.4434,40.7788],"type":"Point"},"properties":{"kind":"stop","name":"Convent Station","stop_id":"convent_station"},"type":"Feature"},{"geometry":{"coordinates":[-73.9921,40.7353],"type":"Point"},"properties":{"kind":"stop","name":"Corner of Union Square","stop_id":"corner_of_union_square"},"type":"Feature"},{"geometry":{"coordinates":[-74.3033,40.6558],"type":"Point"},"properties":{"kind":"stop","name":"Cranford","stop_id":"cranford"},"type":"Feature"},{"geometry":{"coordinates":[-74.3024,40.6561],"type":"Point"},"properties":{"kind":"stop","name":"Cranford Train Station","stop_id":"cranford_train_station"},"type":"Feature"},{"geometry":{"coordinates":[-73.9887,40.757],"type":"Point"},"properties":{"kind":"stop","name":"Dallas BBQ \u2022 42nd & 8th","stop_id":"dallas_bbq_42nd_8th"},"type":"Feature"},{"geometry":{"coordinates":[-74.3852,40.6408],"type":"Point"},"properties":{"kind":"stop","name":"Fanwood","stop_id":"fanwood"},"type":"Feature"},{"geometry":{"coordinates":[-74.3851,40.6409],"type":"Point"},"properties":{"kind":"stop","name":"Fanwood Train Station","stop_id":"fanwood_train_station"},"type":"Feature"},{"geometry":{"coordinates":[-74.3257,40.653],"type":"Point"},"properties":{"kind":"stop","name":"Garwood","stop_id":"garwood"},"type":"Feature"},{"geometry":{"coordinates":[-73.983,40.7545],"type":"Point"},"properties":{"kind":"stop","name":"Grace Building \u2022 42nd btwn 5th & 6th","stop_id":"grace_building_42nd_btwn_5th_6th"},"type":"Feature"},{"geometry":{"coordinates":[-73.9774,40.7521],"type":"Point"},"properties":{"kind":"stop","name":"Grand Central \u2022 42nd, under Park Ave Bridge","stop_id":"grand_central_42nd_under_park_ave_bridge"},"type":"Feature"},{"geometry":{"coordinates":[-74.1887,40.8583],"type":"Point"},"properties":{"kind":"stop","name":"Grove St and Charles","stop_id":"grove_st_and_charles"},"type":"Feature"},{"geometry":{"coordinates":[-74.113,40.997],"type":"Point"},"properties":{"kind":"stop","name":"Ho-Ho-Kus","stop_id":"ho_ho_kus"},"type":"Feature"},{"geometry":{"coordinates":[-74.4161,40.757],"type":"Point"},"properties":{"kind":"stop","name":"Madison","stop_id":"madison"},"type":"Feature"},{"geometry":{"coordinates":[-73.986,40.7434],"type":"Point"},"properties":{"kind":"stop","name":"Madison Square","stop_id":"madison_square"},"type":"Feature"},{"geometry":{"coordinates":[-74.4039,40.7517],"type":"Point"},"properties":{"kind":"stop","name":"Main&Bruns","stop_id":"main_bruns"},"type":"Feature"},{"geometry":{"coordinates":[-74.3034,40.7251],"type":"Point"},"properties":{"kind":"stop","name":"Millburn","stop_id":"millburn"},"type":"Feature"},{"geometry":{"coordinates":[-74.3037,40.7257],"type":"Point"},"properties":{"kind":"stop","name":"Millburn Train Station","stop_id":"millburn_train_station"},"type":"Feature"},{"geometry":{"coordinates":[-74.2967,40.7231],"type":"Point"},"properties":{"kind":"stop","name":"Millburn & Walnut","stop_id":"millburn_walnut"},"type":"Feature"},{"geometry":{"coordinates":[-74.2184,40.8157],"type":"Point"},"properties":{"kind":"stop","name":"Montclair YMCA","stop_id":"montclair_ymca"},"type":"Feature"},{"geometry":{"coordinates":[-74.3879,40.7107],"type":"Point"},"properties":{"kind":"stop","name":"New Providence","stop_id":"new_providence"},"type":"Feature"},{"geometry":{"coordinates":[-73.9847,40.7427],"type":"Point"},"properties":{"kind":"stop","name":"NY Life Insurance (Corner of Park Ave and 27th St)","stop_id":"ny_life_insurance_corner_of_park_ave_and_27th_st"},"type":"Feature"},{"geometry":{"coordinates":[-73.9864,40.7404],"type":"Point"},"properties":{"kind":"stop","name":"One Madison Ave (Park Ave, north of 23rd)","stop_id":"one_madison_ave_park_ave_north_of_23rd"},"type":"Feature"},{"geometry":{"coordinates":[-74.085,40.9704],"type":"Point"},"properties":{"kind":"stop","name":"Paramus Women's Club","stop_id":"paramus_women_s_club"},"type":"Feature"},{"geometry":{"coordinates":[-74.0851,40.9702],"type":"Point"},"properties":{"kind":"stop","name":"Paramus Womens Club","stop_id":"paramus_womens_club"},"type":"Feature"},{"geometry":{"coordinates":[-73.9863,40.74],"type":"Point"},"properties":{"kind":"stop","name":"Park Ave and 23rd St","stop_id":"park_ave_and_23rd_st"},"type":"Feature"},{"geometry":{"coordinates":[-73.9734,40.7552],"type":"Point"},"properties":{"kind":"stop","name":"Park Ave Kitchen \u2022 Lex & 48th","stop_id":"park_ave_kitchen_lex_48th"},"type":"Feature"},{"geometry":{"coordinates":[-74.2015,40.8396],"type":"Point"},"properties":{"kind":"stop","name":"Park & Bellevue","stop_id":"park_bellevue"},"type":"Feature"},{"geometry":{"coordinates":[-74.2015,40.8398],"type":"Point"},"properties":{"kind":"stop","name":"Park St & Bellevue","stop_id":"park_st_bellevue"},"type":"Feature"},{"geometry":{"coordinates":[-74.1956,40.8527],"type":"Point"},"properties":{"kind":"stop","name":"Park St & Mt Hebron","stop_id":"park_st_mt_hebron"},"type":"Feature"},{"geometry":{"coordinates":[-73.9915,40.7578],"type":"Point"},"properties":{"kind":"stop","name":"Port Authority","stop_id":"port_authority"},"type":"Feature"},{"geometry":{"coordinates":[-74.1206,40.9813],"type":"Point"},"properties":{"kind":"stop","name":"Ridgewood","stop_id":"ridgewood"},"type":"Feature"},{"geometry":{"coordinates":[-74.12,40.981],"type":"Point"},"properties":{"kind":"stop","name":"Ridgewood","stop_id":"ridgewood_2"},"type":"Feature"},{"geometry":{"coordinates":[-73.9784,40.757],"type":"Point"},"properties":{"kind":"stop","name":"Sephora \u2022 5th & 47th","stop_id":"sephora_5th_47th"},"type":"Feature"},{"geometry":{"coordinates":[-74.3237,40.725],"type":"Point"},"properties":{"kind":"stop","name":"Short Hills","stop_id":"short_hills"},"type":"Feature"},{"geometry":{"coordinates":[-74.3238,40.7252],"type":"Point"},"properties":{"kind":"stop","name":"Short Hills Train Station","stop_id":"short_hills_train_station"},"type":"Feature"},{"geometry":{"coordinates":[-74.3582,40.7159],"type":"Point"},"properties":{"kind":"stop","name":"Summit","stop_id":"summit"},"type":"Feature"},{"geometry":{"coordinates":[-73.9886,40.737],"type":"Point"},"properties":{"kind":"stop","name":"Union Square North (CVS)","stop_id":"union_square_north_cvs"},"type":"Feature"},{"geometry":{"coordinates":[-73.9885,40.7374],"type":"Point"},"properties":{"kind":"stop","name":"Union Square North (Rothmans)","stop_id":"union_square_north_rothmans"},"type":"Feature"},{"geometry":{"coordinates":[-74.2081,40.8411],"type":"Point"},"properties":{"kind":"stop","name":"Upper Montclair","stop_id":"upper_montclair"},"type":"Feature"},{"geometry":{"coordinates":[-74.2096,40.832],"type":"Point"},"properties":{"kind":"stop","name":"Valley & Watchung","stop_id":"valley_watchung"},"type":"Feature"},{"geometry":{"coordinates":[-74.007,40.7192],"type":"Point"},"properties":{"kind":"stop","name":"Varick & Franklin","stop_id":"varick_franklin"},"type":"Feature"},{"geometry":{"coordinates":[-74.2446,40.8312],"type":"Point"},"properties":{"kind":"stop","name":"Verona Park","stop_id":"verona_park"},"type":"Feature"},{"geometry":{"coordinates":[-74.1229,41.012],"type":"Point"},"properties":{"kind":"stop","name":"Waldwick","stop_id":"waldwick"},"type":"Feature"},{"geometry":{"coordinates":[-74.207,40.8297],"type":"Point"},"properties":{"kind":"stop","name":"Watchung Ave Station","stop_id":"watchung_ave_station"},"type":"Feature"},{"geometry":{"coordinates":[-74.1915,40.8544],"type":"Point"},"properties":{"kind":"stop","name":"Water Treatment Plant","stop_id":"water_treatment_plant"},"type":"Feature"},{"geometry":{"coordinates":[-74.3477,40.6498],"type":"Point"},"properties":{"kind":"stop","name":"Westfield","stop_id":"westfield"},"type":"Feature"},{"geometry":{"coordinates":[-74.0131,40.7143],"type":"Point"},"properties":{"kind":"stop","name":"WTC","stop_id":"wtc"},"type":"Feature"},{"geometry":{"coordinates":[-73.9762,40.7601],"type":"Point"},"properties":{"kind":"stop","name":"Zara \u2022 5th & 52nd","stop_id":"zara_5th_52nd"},"type":"Feature"}],"type":"FeatureCollection"}
