{"features":[{"geometry":{"coordinates":[[-117.7193,33.47673],[-117.71811,33.47567],[-117.71743,33.47556],[-117.71672,33.47579],[-117.71063,33.46671],[-117.71,33.46607],[-117.70902,33.46559],[-117.70775,33.46539],[-117.70578,33.46569],[-117.70558,33.46552],[-117.69813,33.46551],[-117.69685,33.46579],[-117.69522,33.46648],[-117.69429,33.46657],[-117.6908,33.46593],[-117.68763,33.46507],[-117.68904,33.46367],[-117.69005,33.46298],[-117.69118,33.46269],[-117.69373,33.46261],[-117.69381,33.46345],[-117.69425,33.46406],[-117.69732,33.46564],[-117.69799,33.46661],[-117.6978,33.47361],[-117.6975,33.47535],[-117.698,33.48852],[-117.69735,33.4911],[-117.69936,33.49143],[-117.70169,33.49117],[-117.70537,33.48958],[-117.70724,33.48908],[-117.70933,33.48916],[-117.71119,33.48983],[-117.71239,33.48718],[-117.71372,33.48533],[-117.71435,33.48381],[-117.71441,33.48252],[-117.71387,33.47977],[-117.714,33.47879],[-117.71438,33.47789],[-117.71536,33.47674],[-117.71664,33.47593],[-117.71869,33.47897],[-117.71945,33.47858],[-117.71968,33.47821],[-117.7193,33.47673]],"type":"LineString"},"properties":{"color":"#0810FC","color_name":"blue","kind":"route","label":"North Route","long":"North Route","route_id":"TL-15","text_color":"#FFFFFF","type_label":"Bus"},"type":"Feature"},{"geometry":{"coordinates":[[-117.65754,33.45597],[-117.65823,33.4564],[-117.6612,33.45289],[-117.66259,33.45404],[-117.66341,33.45398],[-117.66389,33.45418],[-117.66504,33.45572],[-117.66839,33.45855],[-117.66965,33.45819],[-117.66972,33.45783],[-117.66779,33.45585],[-117.66789,33.45572],[-117.67761,33.46154],[-117.67894,33.46261],[-117.67926,33.46328],[-117.67921,33.46397],[-117.67807,33.46554],[-117.67598,33.46436],[-117.67526,33.46517],[-117.67747,33.46639],[-117.67896,33.46458],[-117.68028,33.46463],[-117.68404,33.46426],[-117.68749,33.46503],[-117.68564,33.46671],[-117.68389,33.4695],[-117.68402,33.47211],[-117.68484,33.47422],[-117.68492,33.47555],[-117.68846,33.47663],[-117.6911,33.47633],[-117.69547,33.47637],[-117.69547,33.47692],[-117.69598,33.47849],[-117.69642,33.4791],[-117.69777,33.47916],[-117.69785,33.47715],[-117.69765,33.47536],[-117.69793,33.47393],[-117.69817,33.46728],[-117.70223,33.46647],[-117.70224,33.46551],[-117.69747,33.46561],[-117.69435,33.46399],[-117.6939,33.46341],[-117.69385,33.4625],[-117.69091,33.46261],[-117.68997,33.46284],[-117.68926,33.46328],[-117.68749,33.46503],[-117.67979,33.46295],[-117.66796,33.45564],[-117.66834,33.45519],[-117.66822,33.45505],[-117.66779,33.45585],[-117.66972,33.45783],[-117.66965,33.45819],[-117.66839,33.45855],[-117.66504,33.45572],[-117.66389,33.45418],[-117.66341,33.45398],[-117.66259,33.45404],[-117.66103,33.45279],[-117.65545,33.45033],[-117.65387,33.44912],[-117.6522,33.45085],[-117.65206,33.45197],[-117.65229,33.45265],[-117.65278,33.45318],[-117.65754,33.45597]],"type":"LineString"},"properties":{"color":"#B30095","color_name":"purple","kind":"route","label":"South Route","long":"South Route","route_id":"TL-19","text_color":"#FFFFFF","type_label":"Bus"},"type":"Feature"},{"geometry":{"coordinates":[-117.6964,33.46591],"type":"Point"},"properties":{"kind":"stop","name":"Del Prado/Golden Lantern","stop_id":"TL-100"},"type":"Feature"},{"geometry":{"coordinates":[-117.69779,33.47878],"type":"Point"},"properties":{"kind":"stop","name":"Golden Lantern & Acapulco","stop_id":"TL-101"},"type":"Feature"},{"geometry":{"coordinates":[-117.68872,33.46421],"type":"Point"},"properties":{"kind":"stop","name":"Dana Point Harbor Drive and Park Lantern","stop_id":"TL-102"},"type":"Feature"},{"geometry":{"coordinates":[-117.69134,33.4639],"type":"Point"},"properties":{"kind":"stop","name":"Park Lantern (Marriott Hotel)","stop_id":"TL-103"},"type":"Feature"},{"geometry":{"coordinates":[-117.70702,33.46211],"type":"Point"},"properties":{"kind":"stop","name":"Dana Point Harbor Drive (Ocean Institute)","stop_id":"TL-104"},"type":"Feature"},{"geometry":{"coordinates":[-117.70385,33.4634],"type":"Point"},"properties":{"kind":"stop","name":"Dana Point Harbor Drive (Baby Beach)","stop_id":"TL-105"},"type":"Feature"},{"geometry":{"coordinates":[-117.69848,33.46206],"type":"Point"},"properties":{"kind":"stop","name":"Dana Point Harbor Drive adn Island Way","stop_id":"TL-106"},"type":"Feature"},{"geometry":{"coordinates":[-117.71936,33.4767],"type":"Point"},"properties":{"kind":"stop","name":"N1 Ritz Carlton Dr/ Resort","stop_id":"TL-26"},"type":"Feature"},{"geometry":{"coordinates":[-117.71301,33.47002],"type":"Point"},"properties":{"kind":"stop","name":"N2 Selva Road/PCH South","stop_id":"TL-27"},"type":"Feature"},{"geometry":{"coordinates":[-117.70487,33.46548],"type":"Point"},"properties":{"kind":"stop","name":"N3 Del Prado/Ruby Lantern","stop_id":"TL-28"},"type":"Feature"},{"geometry":{"coordinates":[-117.70042,33.46542],"type":"Point"},"properties":{"kind":"stop","name":"S12 Del Prado/Violet Lantern","stop_id":"TL-29"},"type":"Feature"},{"geometry":{"coordinates":[-117.69345,33.46236],"type":"Point"},"properties":{"kind":"stop","name":"S14 Dana Point Harbor Dr & Golden Lantern","stop_id":"TL-31"},"type":"Feature"},{"geometry":{"coordinates":[-117.66834,33.45514],"type":"Point"},"properties":{"kind":"stop","name":"S18 Capistrano Beach Park","stop_id":"TL-34"},"type":"Feature"},{"geometry":{"coordinates":[-117.67266,33.45871],"type":"Point"},"properties":{"kind":"stop","name":"S2 Olamendi's-Coast Highway-Northbound","stop_id":"TL-35"},"type":"Feature"},{"geometry":{"coordinates":[-117.6887,33.46413],"type":"Point"},"properties":{"kind":"stop","name":"N7 Park Lantern / Dana Point Harbor Dr","stop_id":"TL-40"},"type":"Feature"},{"geometry":{"coordinates":[-117.69869,33.46724],"type":"Point"},"properties":{"kind":"stop","name":"S10 La Plaza Park/PCH","stop_id":"TL-45"},"type":"Feature"},{"geometry":{"coordinates":[-117.70238,33.46556],"type":"Point"},"properties":{"kind":"stop","name":"S11 Del Prado/Amber Lantern","stop_id":"TL-46"},"type":"Feature"},{"geometry":{"coordinates":[-117.71448,33.4822],"type":"Point"},"properties":{"kind":"stop","name":"N17 Monarch Beach Resort/Niguel Rd.","stop_id":"TL-50"},"type":"Feature"},{"geometry":{"coordinates":[-117.71676,33.47632],"type":"Point"},"properties":{"kind":"stop","name":"N18 Sea Terrace Park /PCH-Northbound","stop_id":"TL-52"},"type":"Feature"},{"geometry":{"coordinates":[-117.68575,33.46293],"type":"Point"},"properties":{"kind":"stop","name":"Doheny State Beach","stop_id":"TL-54"},"type":"Feature"},{"geometry":{"coordinates":[-117.69438,33.46258],"type":"Point"},"properties":{"kind":"stop","name":"Visitor Center","stop_id":"TL-55"},"type":"Feature"},{"geometry":{"coordinates":[-117.70708,33.46178],"type":"Point"},"properties":{"kind":"stop","name":"Ocean Institute","stop_id":"TL-56"},"type":"Feature"},{"geometry":{"coordinates":[-117.70367,33.46322],"type":"Point"},"properties":{"kind":"stop","name":"Baby Beach","stop_id":"TL-57"},"type":"Feature"},{"geometry":{"coordinates":[-117.69683,33.46221],"type":"Point"},"properties":{"kind":"stop","name":"Island Way","stop_id":"TL-58"},"type":"Feature"},{"geometry":{"coordinates":[-117.69009,33.46278],"type":"Point"},"properties":{"kind":"stop","name":"S15 Dana Point Harbor Drive & Puerto Place","stop_id":"TL-60"},"type":"Feature"},{"geometry":{"coordinates":[-117.68634,33.46469],"type":"Point"},"properties":{"kind":"stop","name":"S16 PCH Pedestrian Bridge","stop_id":"TL-61"},"type":"Feature"},{"geometry":{"coordinates":[-117.67429,33.45926],"type":"Point"},"properties":{"kind":"stop","name":"S17 Coast Highway Southbound","stop_id":"TL-62"},"type":"Feature"},{"geometry":{"coordinates":[-117.67831,33.46557],"type":"Point"},"properties":{"kind":"stop","name":"S3 Doheny Village/Doheny Park Road","stop_id":"TL-65"},"type":"Feature"},{"geometry":{"coordinates":[-117.68655,33.46482],"type":"Point"},"properties":{"kind":"stop","name":"S4 PCH Pedestrian Bridge-Northbound","stop_id":"TL-66"},"type":"Feature"},{"geometry":{"coordinates":[-117.68458,33.46823],"type":"Point"},"properties":{"kind":"stop","name":"S5 Dana Point Community Center","stop_id":"TL-67"},"type":"Feature"},{"geometry":{"coordinates":[-117.68629,33.47599],"type":"Point"},"properties":{"kind":"stop","name":"S6 Stonehill & Del Obispo","stop_id":"TL-68"},"type":"Feature"},{"geometry":{"coordinates":[-117.69785,33.47878],"type":"Point"},"properties":{"kind":"stop","name":"S8 Dana Hills High School/Golden Lantern","stop_id":"TL-69"},"type":"Feature"},{"geometry":{"coordinates":[-117.69641,33.46504],"type":"Point"},"properties":{"kind":"stop","name":"S13 Golden Lantern & Starboard Lantern","stop_id":"TL-76"},"type":"Feature"},{"geometry":{"coordinates":[-117.6964,33.46588],"type":"Point"},"properties":{"kind":"stop","name":"N5 Del Prado/Golden Lantern","stop_id":"TL-77"},"type":"Feature"},{"geometry":{"coordinates":[-117.69014,33.46564],"type":"Point"},"properties":{"kind":"stop","name":"N6 PCH & The Row Shopping Center","stop_id":"TL-78"},"type":"Feature"},{"geometry":{"coordinates":[-117.69377,33.46352],"type":"Point"},"properties":{"kind":"stop","name":"N8 Dana Point Harbor Drive & Golden Lantern","stop_id":"TL-79"},"type":"Feature"},{"geometry":{"coordinates":[-117.69801,33.46752],"type":"Point"},"properties":{"kind":"stop","name":"N9 Golden Lantern & PCH","stop_id":"TL-80"},"type":"Feature"},{"geometry":{"coordinates":[-117.69782,33.47227],"type":"Point"},"properties":{"kind":"stop","name":"N10 Golden Lantern & Selva Road (NB)","stop_id":"TL-81"},"type":"Feature"},{"geometry":{"coordinates":[-117.69755,33.476],"type":"Point"},"properties":{"kind":"stop","name":"N11 Golden Lantern & Stonehill","stop_id":"TL-82"},"type":"Feature"},{"geometry":{"coordinates":[-117.69762,33.47923],"type":"Point"},"properties":{"kind":"stop","name":"N12 Golden Lantern & Acapulco","stop_id":"TL-83"},"type":"Feature"},{"geometry":{"coordinates":[-117.69788,33.48594],"type":"Point"},"properties":{"kind":"stop","name":"N13 Golden Lantern & Dana Woods","stop_id":"TL-84"},"type":"Feature"},{"geometry":{"coordinates":[-117.69777,33.49126],"type":"Point"},"properties":{"kind":"stop","name":"N15 Camino del Avion & Golden Lantern","stop_id":"TL-86"},"type":"Feature"},{"geometry":{"coordinates":[-117.71148,33.48936],"type":"Point"},"properties":{"kind":"stop","name":"N16 Camino del Avion & Niguel Rd","stop_id":"TL-87"},"type":"Feature"},{"geometry":{"coordinates":[-117.69155,33.47639],"type":"Point"},"properties":{"kind":"stop","name":"S7 Stonehill Dr & Selva","stop_id":"TL-89"},"type":"Feature"},{"geometry":{"coordinates":[-117.69786,33.47589],"type":"Point"},"properties":{"kind":"stop","name":"S9 Golden Lantern & Stonehill Dr","stop_id":"TL-90"},"type":"Feature"},{"geometry":{"coordinates":[-117.66551,33.45604],"type":"Point"},"properties":{"kind":"stop","name":"S19 Camino Capistrano/Pines Park","stop_id":"TL-91"},"type":"Feature"},{"geometry":{"coordinates":[-117.65752,33.45611],"type":"Point"},"properties":{"kind":"stop","name":"S1 Mira Costa & Camino de Estrella","stop_id":"TL-92"},"type":"Feature"},{"geometry":{"coordinates":[-117.69797,33.48802],"type":"Point"},"properties":{"kind":"stop","name":"N14 Golden Lantern and Seabrook Dr.","stop_id":"TL-93"},"type":"Feature"},{"geometry":{"coordinates":[-117.7004,33.46549],"type":"Point"},"properties":{"kind":"stop","name":"N4 Del Prado/Amber Lantern/Violet Lantern","stop_id":"TL-94"},"type":"Feature"},{"geometry":{"coordinates":[-117.69435,33.46246],"type":"Point"},"properties":{"kind":"stop","name":"Dana Point Harbor Drive and Golden Lantern","stop_id":"TL-98"},"type":"Feature"},{"geometry":{"coordinates":[-117.69366,33.46263],"type":"Point"},"properties":{"kind":"stop","name":"Dana Point Harbor Drive & Golden Lantern","stop_id":"TL-99"},"type":"Feature"}],"type":"FeatureCollection"}
