{"features":[{"geometry":{"coordinates":[[-118.04029,34.16196],[-118.04494,34.16191],[-118.04494,34.16682],[-118.04818,34.16681],[-118.04829,34.16946],[-118.05226,34.16942],[-118.05238,34.16678],[-118.06811,34.16669],[-118.06804,34.16166],[-118.06466,34.16183],[-118.06467,34.15689],[-118.06797,34.15682],[-118.0679,34.15035],[-118.07491,34.15021]],"type":"LineString"},"properties":{"color":"#00A445","color_name":"green","kind":"route","label":"Gateway Coach","long":"Gateway Coach","route_id":"18904","text_color":"#FFFFFF","type_label":"Bus"},"type":"Feature"},{"geometry":{"coordinates":[-118.04794,34.1669],"type":"Point"},"properties":{"kind":"stop","name":"Grandview & Mountain Trail","stop_id":"2734174"},"type":"Feature"},{"geometry":{"coordinates":[-118.04882,34.16953],"type":"Point"},"properties":{"kind":"stop","name":"Mt Wilson Trail Park","stop_id":"2734175"},"type":"Feature"},{"geometry":{"coordinates":[-118.05235,34.16928],"type":"Point"},"properties":{"kind":"stop","name":"Mira Monte & Baldwin","stop_id":"2734176"},"type":"Feature"},{"geometry":{"coordinates":[-118.05272,34.16684],"type":"Point"},"properties":{"kind":"stop","name":"Baldwin & Grandview","stop_id":"2734177"},"type":"Feature"},{"geometry":{"coordinates":[-118.05962,34.16681],"type":"Point"},"properties":{"kind":"stop","name":"Grandview & Lima","stop_id":"2734178"},"type":"Feature"},{"geometry":{"coordinates":[-118.06443,34.16678],"type":"Point"},"properties":{"kind":"stop","name":"Grandview & Sunnyside","stop_id":"2734179"},"type":"Feature"},{"geometry":{"coordinates":[-118.0677,34.16677],"type":"Point"},"properties":{"kind":"stop","name":"Grandview & Michillinda","stop_id":"2734180"},"type":"Feature"},{"geometry":{"coordinates":[-118.06734,34.1617],"type":"Point"},"properties":{"kind":"stop","name":"Michillinda & SM Blvd","stop_id":"2734181"},"type":"Feature"},{"geometry":{"coordinates":[-118.06475,34.16153],"type":"Point"},"properties":{"kind":"stop","name":"SM Blvd & Sunnyside","stop_id":"2734182"},"type":"Feature"},{"geometry":{"coordinates":[-118.06472,34.15962],"type":"Point"},"properties":{"kind":"stop","name":"Sunnyside & Ramona","stop_id":"2734183"},"type":"Feature"},{"geometry":{"coordinates":[-118.06507,34.15696],"type":"Point"},"properties":{"kind":"stop","name":"Sunnyside & Orange Grove","stop_id":"2734184"},"type":"Feature"},{"geometry":{"coordinates":[-118.07491,34.15029],"type":"Point"},"properties":{"kind":"stop","name":"Ralphs","stop_id":"2734185"},"type":"Feature"},{"geometry":{"coordinates":[-118.04519,34.16692],"type":"Point"},"properties":{"kind":"stop","name":"Canon & Grandview","stop_id":"2734186"},"type":"Feature"},{"geometry":{"coordinates":[-118.04489,34.16446],"type":"Point"},"properties":{"kind":"stop","name":"SM School Upper Campus","stop_id":"2734187"},"type":"Feature"},{"geometry":{"coordinates":[-118.04476,34.16198],"type":"Point"},"properties":{"kind":"stop","name":"SM Blvd & Canon","stop_id":"2734188"},"type":"Feature"},{"geometry":{"coordinates":[-118.04029,34.16192],"type":"Point"},"properties":{"kind":"stop","name":"Recreation Center","stop_id":"2734189"},"type":"Feature"},{"geometry":{"coordinates":[-118.06494,34.16174],"type":"Point"},"properties":{"kind":"stop","name":"SM Blvd & Sunnyside","stop_id":"2734190"},"type":"Feature"},{"geometry":{"coordinates":[-118.06213,34.16176],"type":"Point"},"properties":{"kind":"stop","name":"Sierra Madre Library","stop_id":"2734191"},"type":"Feature"},{"geometry":{"coordinates":[-118.06007,34.16178],"type":"Point"},"properties":{"kind":"stop","name":"Lima & SM Blvd","stop_id":"2734192"},"type":"Feature"},{"geometry":{"coordinates":[-118.05728,34.16179],"type":"Point"},"properties":{"kind":"stop","name":"Memorial Park/Senior Center","stop_id":"2734193"},"type":"Feature"},{"geometry":{"coordinates":[-118.05299,34.16091],"type":"Point"},"properties":{"kind":"stop","name":"Post Office","stop_id":"2734194"},"type":"Feature"},{"geometry":{"coordinates":[-118.05448,34.16014],"type":"Point"},"properties":{"kind":"stop","name":"Senior Housing Project","stop_id":"2734195"},"type":"Feature"},{"geometry":{"coordinates":[-118.05951,34.16064],"type":"Point"},"properties":{"kind":"stop","name":"Lima & Mariposa","stop_id":"2734196"},"type":"Feature"},{"geometry":{"coordinates":[-118.05979,34.1666],"type":"Point"},"properties":{"kind":"stop","name":"Lima & Grandview","stop_id":"2734197"},"type":"Feature"},{"geometry":{"coordinates":[-118.05508,34.16457],"type":"Point"},"properties":{"kind":"stop","name":"Auburn & Highland","stop_id":"2734198"},"type":"Feature"},{"geometry":{"coordinates":[-118.05285,34.1643],"type":"Point"},"properties":{"kind":"stop","name":"Highland & Baldwin","stop_id":"2734199"},"type":"Feature"},{"geometry":{"coordinates":[-118.05211,34.16186],"type":"Point"},"properties":{"kind":"stop","name":"SM Blvd & Baldwin","stop_id":"2734200"},"type":"Feature"},{"geometry":{"coordinates":[-118.04809,34.16215],"type":"Point"},"properties":{"kind":"stop","name":"SM Blvd & Mountain Trail","stop_id":"2734201"},"type":"Feature"},{"geometry":{"coordinates":[-118.04804,34.16431],"type":"Point"},"properties":{"kind":"stop","name":"Highland & Mountain Trail","stop_id":"2734202"},"type":"Feature"},{"geometry":{"coordinates":[-118.04517,34.16432],"type":"Point"},"properties":{"kind":"stop","name":"Highland & Canon","stop_id":"2734203"},"type":"Feature"},{"geometry":{"coordinates":[-118.04041,34.16192],"type":"Point"},"properties":{"kind":"stop","name":"Sierra Vista Park","stop_id":"2734204"},"type":"Feature"}],"type":"FeatureCollection"}
