{"features":[{"geometry":{"coordinates":[[-117.67157,35.62073],[-117.67218,35.62084],[-117.67228,35.62067],[-117.67209,35.62054],[-117.67003,35.6207],[-117.67033,35.60884],[-117.67062,35.60782],[-117.67222,35.6078],[-117.67246,35.60724],[-117.67349,35.60608],[-117.67106,35.60325],[-117.67062,35.60226],[-117.67046,35.60129],[-117.67061,35.59346],[-117.67008,35.57883],[-117.67027,35.56566],[-117.66613,35.56567],[-117.66605,35.56689],[-117.66629,35.5673],[-117.66894,35.56731],[-117.67024,35.56711],[-117.67008,35.57883],[-117.67061,35.59346],[-117.67034,35.60129],[-117.6704,35.60199],[-117.6709,35.60317],[-117.67264,35.60524],[-117.67105,35.60676],[-117.67046,35.60651],[-117.66973,35.6065],[-117.66973,35.60577],[-117.66959,35.60565],[-117.66776,35.60565],[-117.66776,35.60796],[-117.66988,35.60791],[-117.67038,35.60807],[-117.67013,35.60927],[-117.66986,35.61924],[-117.66974,35.63451],[-117.66822,35.63463],[-117.66855,35.63606],[-117.66855,35.63711],[-117.66972,35.63714],[-117.66979,35.65141],[-117.6699,35.65165],[-117.67181,35.65167],[-117.67178,35.65136],[-117.67078,35.65071],[-117.6699,35.64964],[-117.66988,35.64798],[-117.66987,35.64096],[-117.67036,35.64096],[-117.67038,35.64047],[-117.67034,35.64024],[-117.66986,35.64023],[-117.66994,35.62615],[-117.67112,35.62616],[-117.67114,35.62475],[-117.66996,35.62475],[-117.67003,35.6207],[-117.67156,35.62073]],"type":"LineString"},"properties":{"color":"#D120D1","color_name":"pink","kind":"route","label":"Mid-Day Express","long":"Mid-Day Express","route_id":"16808","text_color":"#FFFFFF","type_label":"Bus"},"type":"Feature"},{"geometry":{"coordinates":[[-117.81694,35.64737],[-117.81694,35.64794],[-117.81677,35.64794],[-117.81679,35.64688],[-117.81185,35.64696],[-117.81047,35.64716],[-117.80213,35.65104],[-117.79977,35.65168],[-117.79768,35.65195],[-117.78134,35.65192],[-117.7814,35.65164],[-117.78139,35.65191],[-117.76806,35.65189],[-117.76759,35.65183],[-117.76758,35.6446],[-117.75861,35.64453],[-117.75863,35.65186],[-117.6699,35.65165],[-117.67003,35.6207],[-117.67157,35.62074]],"type":"LineString"},"properties":{"color":"#FF850E","color_name":"orange","kind":"route","label":"L4","long":"Joshua Tree","route_id":"16809","text_color":"#FFFFFF","type_label":"Bus"},"type":"Feature"},{"geometry":{"coordinates":[[-117.67157,35.62073],[-117.67214,35.62086],[-117.67228,35.62067],[-117.67209,35.62054],[-117.6699,35.62069],[-117.66972,35.63686],[-117.6699,35.65165],[-117.67181,35.65167],[-117.67181,35.65147],[-117.67056,35.65051],[-117.6699,35.64964],[-117.66987,35.64096],[-117.67036,35.64096],[-117.67038,35.64047],[-117.67038,35.64023],[-117.66987,35.64023],[-117.66986,35.63714],[-117.67874,35.63716],[-117.67878,35.64621],[-117.68323,35.6462],[-117.68323,35.64442],[-117.68775,35.64443],[-117.6878,35.62981],[-117.6788,35.62981],[-117.67874,35.63703],[-117.66987,35.63701],[-117.66992,35.6298],[-117.6788,35.62981],[-117.67883,35.62251],[-117.67527,35.62253],[-117.67529,35.62409],[-117.67549,35.62481],[-117.66996,35.62475],[-117.67003,35.6207],[-117.67156,35.62073]],"type":"LineString"},"properties":{"color":"#19FD10","color_name":"green","kind":"route","label":"L3","long":"Rattlesnake","route_id":"16810","text_color":"#FFFFFF","type_label":"Bus"},"type":"Feature"},{"geometry":{"coordinates":[[-117.67158,35.62074],[-117.67218,35.62085],[-117.67228,35.62067],[-117.67209,35.62054],[-117.6699,35.62069],[-117.6698,35.62797],[-117.66757,35.62829],[-117.66829,35.62945],[-117.6689,35.62973],[-117.66979,35.6298],[-117.66974,35.63451],[-117.66825,35.63464],[-117.66826,35.63522],[-117.6685,35.63556],[-117.66854,35.63698],[-117.66769,35.63646],[-117.66697,35.63407],[-117.66635,35.63347],[-117.66582,35.63332],[-117.66157,35.63322],[-117.6617,35.63178],[-117.66207,35.63115],[-117.66492,35.62859],[-117.66232,35.62643],[-117.66384,35.62495],[-117.66637,35.62352],[-117.66657,35.62326],[-117.66663,35.62251],[-117.67436,35.62254],[-117.67443,35.61796],[-117.67453,35.61708],[-117.67484,35.61708],[-117.67453,35.61708],[-117.67457,35.61526],[-117.69057,35.61521],[-117.69053,35.61886],[-117.68783,35.61886],[-117.68827,35.60068],[-117.68753,35.60069],[-117.6881,35.60068],[-117.68773,35.6152],[-117.66835,35.61527],[-117.66834,35.61706],[-117.66994,35.61706],[-117.6699,35.62069],[-117.67157,35.62074]],"type":"LineString"},"properties":{"color":"#350BBC","color_name":"blue","kind":"route","label":"L2","long":"Roadrunner","route_id":"16811","text_color":"#FFFFFF","type_label":"Bus"},"type":"Feature"},{"geometry":{"coordinates":[[-117.67156,35.62074],[-117.6722,35.62084],[-117.67228,35.62066],[-117.67209,35.62054],[-117.6699,35.62069],[-117.66985,35.62244],[-117.66103,35.6225],[-117.66106,35.62155],[-117.65799,35.62154],[-117.65801,35.6225],[-117.65221,35.6225],[-117.65236,35.61527],[-117.66563,35.61527],[-117.66573,35.61165],[-117.67024,35.61163],[-117.67029,35.60921],[-117.67062,35.60782],[-117.67223,35.60778],[-117.67225,35.60754],[-117.67348,35.60603],[-117.67106,35.60325],[-117.67062,35.60226],[-117.67046,35.60129],[-117.67061,35.59346],[-117.67008,35.57883],[-117.67027,35.56566],[-117.66613,35.56567],[-117.66612,35.56722],[-117.66782,35.56731]],"type":"LineString"},"properties":{"color":"#FC8F2C","color_name":"orange","kind":"route","label":"L1","long":"Coyote","route_id":"16812","text_color":"#FFFFFF","type_label":"Bus"},"type":"Feature"},{"geometry":{"coordinates":[-117.67478,35.61701],"type":"Point"},"properties":{"kind":"stop","name":"Warner & Wilson","stop_id":"2619613"},"type":"Feature"},{"geometry":{"coordinates":[-117.76728,35.64444],"type":"Point"},"properties":{"kind":"stop","name":"Ward/Strecker","stop_id":"2619614"},"type":"Feature"},{"geometry":{"coordinates":[-117.67075,35.6369],"type":"Point"},"properties":{"kind":"stop","name":"Walgreens","stop_id":"2619615"},"type":"Feature"},{"geometry":{"coordinates":[-117.67863,35.61512],"type":"Point"},"properties":{"kind":"stop","name":"Upjohn / Norma (E)","stop_id":"2619616"},"type":"Feature"},{"geometry":{"coordinates":[-117.65299,35.61532],"type":"Point"},"properties":{"kind":"stop","name":"Upjohn/Gateway","stop_id":"2619617"},"type":"Feature"},{"geometry":{"coordinates":[-117.66187,35.61543],"type":"Point"},"properties":{"kind":"stop","name":"Upjohn Park","stop_id":"2619618"},"type":"Feature"},{"geometry":{"coordinates":[-117.6704,35.64047],"type":"Point"},"properties":{"kind":"stop","name":"Ridgecrest Hospital","stop_id":"2619619"},"type":"Feature"},{"geometry":{"coordinates":[-117.66843,35.63587],"type":"Point"},"properties":{"kind":"stop","name":"Big Lots","stop_id":"2619621"},"type":"Feature"},{"geometry":{"coordinates":[-117.67588,35.62253],"type":"Point"},"properties":{"kind":"stop","name":"Todds Outdoor Supply","stop_id":"2619622"},"type":"Feature"},{"geometry":{"coordinates":[-117.6697,35.6434],"type":"Point"},"properties":{"kind":"stop","name":"Taco Bell","stop_id":"2619623"},"type":"Feature"},{"geometry":{"coordinates":[-117.66768,35.60659],"type":"Point"},"properties":{"kind":"stop","name":"Walmart","stop_id":"2619624"},"type":"Feature"},{"geometry":{"coordinates":[-117.76805,35.65181],"type":"Point"},"properties":{"kind":"stop","name":"Strecker/Inyokern","stop_id":"2619625"},"type":"Feature"},{"geometry":{"coordinates":[-117.78138,35.65163],"type":"Point"},"properties":{"kind":"stop","name":"Sierra Breeze Park","stop_id":"2619626"},"type":"Feature"},{"geometry":{"coordinates":[-117.68818,35.61877],"type":"Point"},"properties":{"kind":"stop","name":"Senior Condos","stop_id":"2619627"},"type":"Feature"},{"geometry":{"coordinates":[-117.67462,35.62143],"type":"Point"},"properties":{"kind":"stop","name":"Senior Center","stop_id":"2619628"},"type":"Feature"},{"geometry":{"coordinates":[-117.6688,35.61519],"type":"Point"},"properties":{"kind":"stop","name":"SCE","stop_id":"2619629"},"type":"Feature"},{"geometry":{"coordinates":[-117.66883,35.6117],"type":"Point"},"properties":{"kind":"stop","name":"Rader / Bowling Alley","stop_id":"2619631"},"type":"Feature"},{"geometry":{"coordinates":[-117.66867,35.62799],"type":"Point"},"properties":{"kind":"stop","name":"Post Office","stop_id":"2619632"},"type":"Feature"},{"geometry":{"coordinates":[-117.67929,35.64625],"type":"Point"},"properties":{"kind":"stop","name":"Pony Expresso","stop_id":"2619633"},"type":"Feature"},{"geometry":{"coordinates":[-117.67039,35.65004],"type":"Point"},"properties":{"kind":"stop","name":"Pizza Factory","stop_id":"2619634"},"type":"Feature"},{"geometry":{"coordinates":[-117.67959,35.61538],"type":"Point"},"properties":{"kind":"stop","name":"Upjohn / Norma (W)","stop_id":"2619635"},"type":"Feature"},{"geometry":{"coordinates":[-117.67863,35.63541],"type":"Point"},"properties":{"kind":"stop","name":"Norma / Howell","stop_id":"2619636"},"type":"Feature"},{"geometry":{"coordinates":[-117.67305,35.60532],"type":"Point"},"properties":{"kind":"stop","name":"Albertsons","stop_id":"2619637"},"type":"Feature"},{"geometry":{"coordinates":[-117.65228,35.62211],"type":"Point"},"properties":{"kind":"stop","name":"Minit Shop","stop_id":"2619638"},"type":"Feature"},{"geometry":{"coordinates":[-117.68287,35.6297],"type":"Point"},"properties":{"kind":"stop","name":"Las Flores / Sierra View","stop_id":"2619639"},"type":"Feature"},{"geometry":{"coordinates":[-117.66269,35.62664],"type":"Point"},"properties":{"kind":"stop","name":"La Mirage","stop_id":"2619640"},"type":"Feature"},{"geometry":{"coordinates":[-117.81369,35.64435],"type":"Point"},"properties":{"kind":"stop","name":"Inyokern Senior Ctr","stop_id":"2619641"},"type":"Feature"},{"geometry":{"coordinates":[-117.81255,35.646],"type":"Point"},"properties":{"kind":"stop","name":"Locust / Broadway","stop_id":"2619642"},"type":"Feature"},{"geometry":{"coordinates":[-117.68707,35.61514],"type":"Point"},"properties":{"kind":"stop","name":"Howard's Mini Mart","stop_id":"2619643"},"type":"Feature"},{"geometry":{"coordinates":[-117.67152,35.62988],"type":"Point"},"properties":{"kind":"stop","name":"Home Depot","stop_id":"2619644"},"type":"Feature"},{"geometry":{"coordinates":[-117.67206,35.60488],"type":"Point"},"properties":{"kind":"stop","name":"High Desert Haven","stop_id":"2619645"},"type":"Feature"},{"geometry":{"coordinates":[-117.67082,35.62481],"type":"Point"},"properties":{"kind":"stop","name":"French / Balsam","stop_id":"2619646"},"type":"Feature"},{"geometry":{"coordinates":[-117.66123,35.62221],"type":"Point"},"properties":{"kind":"stop","name":"Eastridge Market","stop_id":"2619647"},"type":"Feature"},{"geometry":{"coordinates":[-117.66219,35.63314],"type":"Point"},"properties":{"kind":"stop","name":"Drummond / French","stop_id":"2619648"},"type":"Feature"},{"geometry":{"coordinates":[-117.68753,35.60075],"type":"Point"},"properties":{"kind":"stop","name":"Dolphin / Downs","stop_id":"2619649"},"type":"Feature"},{"geometry":{"coordinates":[-117.66749,35.56715],"type":"Point"},"properties":{"kind":"stop","name":"College Main","stop_id":"2619650"},"type":"Feature"},{"geometry":{"coordinates":[-117.67035,35.56598],"type":"Point"},"properties":{"kind":"stop","name":"College Day Care","stop_id":"2619651"},"type":"Feature"},{"geometry":{"coordinates":[-117.81694,35.64736],"type":"Point"},"properties":{"kind":"stop","name":"Inyokern Transfer Hub","stop_id":"2619652"},"type":"Feature"},{"geometry":{"coordinates":[-117.67155,35.62079],"type":"Point"},"properties":{"kind":"stop","name":"City Hall","stop_id":"2619653"},"type":"Feature"},{"geometry":{"coordinates":[-117.66998,35.61209],"type":"Point"},"properties":{"kind":"stop","name":"China Lake / Bowling Alley","stop_id":"2619654"},"type":"Feature"},{"geometry":{"coordinates":[-117.66983,35.61925],"type":"Point"},"properties":{"kind":"stop","name":"Carls Jr","stop_id":"2619655"},"type":"Feature"},{"geometry":{"coordinates":[-117.75845,35.64482],"type":"Point"},"properties":{"kind":"stop","name":"Calvert/Ward","stop_id":"2619656"},"type":"Feature"},{"geometry":{"coordinates":[-117.75858,35.65171],"type":"Point"},"properties":{"kind":"stop","name":"Calvert/Inyokern","stop_id":"2619657"},"type":"Feature"},{"geometry":{"coordinates":[-117.74729,35.65179],"type":"Point"},"properties":{"kind":"stop","name":"Buttermilk Acres","stop_id":"2619658"},"type":"Feature"},{"geometry":{"coordinates":[-117.67511,35.63722],"type":"Point"},"properties":{"kind":"stop","name":"900 Heritage","stop_id":"2619660"},"type":"Feature"},{"geometry":{"coordinates":[-117.68787,35.63565],"type":"Point"},"properties":{"kind":"stop","name":"829 Downs","stop_id":"2619661"},"type":"Feature"}],"type":"FeatureCollection"}
