{"features":[{"geometry":{"coordinates":[[-81.79923,24.56135],[-81.80315,24.5589],[-81.80473,24.56102],[-81.80616,24.56013],[-81.80664,24.5588],[-81.80316,24.55414],[-81.80611,24.55231],[-81.80634,24.5524],[-81.80651,24.55224],[-81.80595,24.55175],[-81.80589,24.5512],[-81.80565,24.55115],[-81.80239,24.55309],[-81.79827,24.54759],[-81.79583,24.54911],[-81.80159,24.55682],[-81.79487,24.56104],[-81.79554,24.56192],[-81.79778,24.56054],[-81.79865,24.56171],[-81.79923,24.56135]],"type":"LineString"},"properties":{"color":"#A500FF","color_name":"purple","kind":"route","label":"DL","long":"Duval Loop","route_id":"2265","text_color":"#000000","type_label":"Bus"},"type":"Feature"},{"geometry":{"coordinates":[[-81.01897,24.73227],[-81.01926,24.73229],[-81.01929,24.73255],[-81.0188,24.7327],[-81.01884,24.73282],[-81.02285,24.73177],[-81.04247,24.72772],[-81.06549,24.7189],[-81.10294,24.70899],[-81.12293,24.70715],[-81.15829,24.70184],[-81.16352,24.7006],[-81.19991,24.69036],[-81.2303,24.68172],[-81.24651,24.67188],[-81.26858,24.66231],[-81.27197,24.66103],[-81.27529,24.66015],[-81.29401,24.65719],[-81.29642,24.65661],[-81.29907,24.65555],[-81.30879,24.65054],[-81.31135,24.64986],[-81.32858,24.64795],[-81.33037,24.64815],[-81.33193,24.64877],[-81.33292,24.64952],[-81.33395,24.65074],[-81.34155,24.66766],[-81.34217,24.66835],[-81.34311,24.66897],[-81.3448,24.66944],[-81.34957,24.66952],[-81.34957,24.66969],[-81.34873,24.66968],[-81.34802,24.66967],[-81.34802,24.66948],[-81.36834,24.66985],[-81.37123,24.66973],[-81.41529,24.66036],[-81.41805,24.65996],[-81.44502,24.66135],[-81.46724,24.66281],[-81.47985,24.66337],[-81.49835,24.66649],[-81.50041,24.66635],[-81.5145,24.6624],[-81.56061,24.6488],[-81.58538,24.63386],[-81.60894,24.61935],[-81.63219,24.60841],[-81.63747,24.60612],[-81.64923,24.60052],[-81.6708,24.59064],[-81.67451,24.58979],[-81.68201,24.58963],[-81.68752,24.58892],[-81.68812,24.58905],[-81.68918,24.58967],[-81.6902,24.58954],[-81.69102,24.58895],[-81.69077,24.58775],[-81.69092,24.58866],[-81.69073,24.58915],[-81.6903,24.58945],[-81.68929,24.58962],[-81.68893,24.58948],[-81.68881,24.58921],[-81.68931,24.58865],[-81.69341,24.58795],[-81.69508,24.58741],[-81.70599,24.58052],[-81.70896,24.57909],[-81.71115,24.57853],[-81.7352,24.57489],[-81.73587,24.57683],[-81.73985,24.57907],[-81.74058,24.58007],[-81.74121,24.58183],[-81.74157,24.58213],[-81.74226,24.58224],[-81.74461,24.58114],[-81.74548,24.58054],[-81.74918,24.57662],[-81.75015,24.57446],[-81.75017,24.5737],[-81.74936,24.57261],[-81.74853,24.57201],[-81.74813,24.57127],[-81.75242,24.57011],[-81.75334,24.57147],[-81.75528,24.57223],[-81.76225,24.57178],[-81.76925,24.56806],[-81.77491,24.56432],[-81.77913,24.56092],[-81.78369,24.55975],[-81.78411,24.56021],[-81.78494,24.5606],[-81.79489,24.56228],[-81.79778,24.56054],[-81.79865,24.56171],[-81.80556,24.55738],[-81.80466,24.55616]],"type":"LineString"},"properties":{"color":"#E55AC2","color_name":"pink","kind":"route","label":"LKS","long":"Lower Keys Shuttle","route_id":"4716","text_color":"#FFFFFF","type_label":"Bus"},"type":"Feature"},{"geometry":{"coordinates":[[-81.74107,24.56884],[-81.73677,24.56851],[-81.73427,24.57114],[-81.73593,24.57246],[-81.73661,24.57275],[-81.7423,24.57281],[-81.74267,24.573],[-81.75238,24.57005],[-81.75253,24.56992],[-81.75165,24.56758],[-81.76476,24.56336],[-81.76637,24.56752],[-81.76801,24.56664],[-81.76935,24.56799],[-81.77491,24.56432],[-81.77894,24.56101],[-81.78695,24.5588],[-81.80038,24.55041],[-81.80172,24.55223],[-81.80397,24.55082],[-81.80245,24.54878]],"type":"LineString"},"properties":{"color":"#00BEFD","color_name":"teal","kind":"route","label":"WFX","long":"Workforce Express","route_id":"50","text_color":"#000000","type_label":"Bus"},"type":"Feature"},{"geometry":{"coordinates":[-81.80473,24.55611],"type":"Point"},"properties":{"kind":"stop","name":"Whitehead & Eaton","stop_id":"2483937"},"type":"Feature"},{"geometry":{"coordinates":[-81.78407,24.56025],"type":"Point"},"properties":{"kind":"stop","name":"Palm Ave & Charter Row","stop_id":"2483939"},"type":"Feature"},{"geometry":{"coordinates":[-81.74374,24.58159],"type":"Point"},"properties":{"kind":"stop","name":"College of the Florida Keys","stop_id":"2483940"},"type":"Feature"},{"geometry":{"coordinates":[-81.03741,24.72889],"type":"Point"},"properties":{"kind":"stop","name":"US1 & 109th Street","stop_id":"2483941"},"type":"Feature"},{"geometry":{"coordinates":[-81.02557,24.73127],"type":"Point"},"properties":{"kind":"stop","name":"US1 & 123rd Street","stop_id":"2483942"},"type":"Feature"},{"geometry":{"coordinates":[-81.0204,24.73243],"type":"Point"},"properties":{"kind":"stop","name":"US1 & Sadowski Causeway","stop_id":"2483943"},"type":"Feature"},{"geometry":{"coordinates":[-81.01898,24.73226],"type":"Point"},"properties":{"kind":"stop","name":"Holiday Inn","stop_id":"2483944"},"type":"Feature"},{"geometry":{"coordinates":[-81.02619,24.73094],"type":"Point"},"properties":{"kind":"stop","name":"US1 & 122nd Street","stop_id":"2483946"},"type":"Feature"},{"geometry":{"coordinates":[-81.03528,24.72911],"type":"Point"},"properties":{"kind":"stop","name":"US1 & 114th Street","stop_id":"2483947"},"type":"Feature"},{"geometry":{"coordinates":[-81.03956,24.72826],"type":"Point"},"properties":{"kind":"stop","name":"Marathon - 106th Street","stop_id":"2483948"},"type":"Feature"},{"geometry":{"coordinates":[-81.04898,24.72508],"type":"Point"},"properties":{"kind":"stop","name":"Marathon - 92nd Street","stop_id":"2483950"},"type":"Feature"},{"geometry":{"coordinates":[-81.06343,24.71956],"type":"Point"},"properties":{"kind":"stop","name":"Marathon - 71th Street","stop_id":"2483951"},"type":"Feature"},{"geometry":{"coordinates":[-81.07033,24.71755],"type":"Point"},"properties":{"kind":"stop","name":"Marathon - 62nd Street","stop_id":"2483952"},"type":"Feature"},{"geometry":{"coordinates":[-81.07406,24.71653],"type":"Point"},"properties":{"kind":"stop","name":"Marathon - Kmart / Publix  - MM50","stop_id":"2483954"},"type":"Feature"},{"geometry":{"coordinates":[-81.08496,24.71365],"type":"Point"},"properties":{"kind":"stop","name":"Marathon - Home Depot","stop_id":"2483955"},"type":"Feature"},{"geometry":{"coordinates":[-81.0915,24.71194],"type":"Point"},"properties":{"kind":"stop","name":"Marathon -  FKAA Office","stop_id":"2483956"},"type":"Feature"},{"geometry":{"coordinates":[-81.78886,24.54936],"type":"Point"},"properties":{"kind":"stop","name":"Flagler Ave & Grinnell Street","stop_id":"2483957"},"type":"Feature"},{"geometry":{"coordinates":[-81.09798,24.7102],"type":"Point"},"properties":{"kind":"stop","name":"Marathon - 29th Street","stop_id":"2483958"},"type":"Feature"},{"geometry":{"coordinates":[-81.79081,24.54956],"type":"Point"},"properties":{"kind":"stop","name":"Reynolds & Washington","stop_id":"2483959"},"type":"Feature"},{"geometry":{"coordinates":[-81.11245,24.70804],"type":"Point"},"properties":{"kind":"stop","name":"Marathon - 11th Street","stop_id":"2483960"},"type":"Feature"},{"geometry":{"coordinates":[-81.69073,24.58792],"type":"Point"},"properties":{"kind":"stop","name":"Boca Chica - NAS","stop_id":"2483961"},"type":"Feature"},{"geometry":{"coordinates":[-81.68071,24.58971],"type":"Point"},"properties":{"kind":"stop","name":"Rockland Key - Video Store","stop_id":"2483962"},"type":"Feature"},{"geometry":{"coordinates":[-81.6704,24.59095],"type":"Point"},"properties":{"kind":"stop","name":"Rockland Key -  Calle Uno","stop_id":"2483963"},"type":"Feature"},{"geometry":{"coordinates":[-81.66164,24.59492],"type":"Point"},"properties":{"kind":"stop","name":"Big Coppitt Key - Bobalus","stop_id":"2483964"},"type":"Feature"},{"geometry":{"coordinates":[-81.65739,24.59683],"type":"Point"},"properties":{"kind":"stop","name":"Big Coppit Key - Opposite of FKAA","stop_id":"2483965"},"type":"Feature"},{"geometry":{"coordinates":[-81.24711,24.67152],"type":"Point"},"properties":{"kind":"stop","name":"Sunshine Key - Opposite Park Entrance","stop_id":"2483966"},"type":"Feature"},{"geometry":{"coordinates":[-81.65224,24.5992],"type":"Point"},"properties":{"kind":"stop","name":"Big Coppit Key - Opposite Geiger Road","stop_id":"2483967"},"type":"Feature"},{"geometry":{"coordinates":[-81.27315,24.66039],"type":"Point"},"properties":{"kind":"stop","name":"Bahia Honda - Past Park Entrance","stop_id":"2483968"},"type":"Feature"},{"geometry":{"coordinates":[-81.60035,24.62467],"type":"Point"},"properties":{"kind":"stop","name":"Opposite Blue Water RV","stop_id":"2483970"},"type":"Feature"},{"geometry":{"coordinates":[-81.59252,24.62952],"type":"Point"},"properties":{"kind":"stop","name":"Baypoint - Opposite Baby's Coffee","stop_id":"2483972"},"type":"Feature"},{"geometry":{"coordinates":[-81.56589,24.64574],"type":"Point"},"properties":{"kind":"stop","name":"Sugarloaf Key - Lower - Sugarloaf Lodge","stop_id":"2483974"},"type":"Feature"},{"geometry":{"coordinates":[-81.80337,24.55432],"type":"Point"},"properties":{"kind":"stop","name":"Whitehead & Southard","stop_id":"2483976"},"type":"Feature"},{"geometry":{"coordinates":[-81.52975,24.65789],"type":"Point"},"properties":{"kind":"stop","name":"Sugarloaf Key - Upper - Prior Crane Blvd","stop_id":"2483977"},"type":"Feature"},{"geometry":{"coordinates":[-81.5222,24.66011],"type":"Point"},"properties":{"kind":"stop","name":"Sugarloaf Key - Upper - Mangrove Mama's","stop_id":"2483980"},"type":"Feature"},{"geometry":{"coordinates":[-81.50556,24.6649],"type":"Point"},"properties":{"kind":"stop","name":"Cudjoe Key - Opposite Sheriff Sub Station","stop_id":"2483981"},"type":"Feature"},{"geometry":{"coordinates":[-81.34812,24.66944],"type":"Point"},"properties":{"kind":"stop","name":"Big Pine Key - Chamber/Industrial Road","stop_id":"2483983"},"type":"Feature"},{"geometry":{"coordinates":[-81.4974,24.66645],"type":"Point"},"properties":{"kind":"stop","name":"Cudjoe Key - Coco's Cantina","stop_id":"2483985"},"type":"Feature"},{"geometry":{"coordinates":[-81.35762,24.66957],"type":"Point"},"properties":{"kind":"stop","name":"Big Pine Key - Auto Store / NAPA  MM30","stop_id":"2483988"},"type":"Feature"},{"geometry":{"coordinates":[-81.73753,24.57357],"type":"Point"},"properties":{"kind":"stop","name":"3rd Street & Laurel Ave","stop_id":"2483989"},"type":"Feature"},{"geometry":{"coordinates":[-81.36618,24.66979],"type":"Point"},"properties":{"kind":"stop","name":"Big Pine Key - Lobstertail Rd","stop_id":"2483991"},"type":"Feature"},{"geometry":{"coordinates":[-81.4775,24.66334],"type":"Point"},"properties":{"kind":"stop","name":"Cudjoe Key - Prior to Cutthroat Road","stop_id":"2483993"},"type":"Feature"},{"geometry":{"coordinates":[-81.45417,24.66199],"type":"Point"},"properties":{"kind":"stop","name":"Summerland - Opposite Mote Lab","stop_id":"2483995"},"type":"Feature"},{"geometry":{"coordinates":[-81.38757,24.66624],"type":"Point"},"properties":{"kind":"stop","name":"Little Torch Key - Dolphin Marina","stop_id":"2483996"},"type":"Feature"},{"geometry":{"coordinates":[-81.44258,24.6613],"type":"Point"},"properties":{"kind":"stop","name":"Summerland - Opposite Dion's","stop_id":"2483997"},"type":"Feature"},{"geometry":{"coordinates":[-81.392,24.6653],"type":"Point"},"properties":{"kind":"stop","name":"Middle Torch Key - Opposite SR4A","stop_id":"2483999"},"type":"Feature"},{"geometry":{"coordinates":[-81.40585,24.66234],"type":"Point"},"properties":{"kind":"stop","name":"Ramrod Key - Past Looe Key Tiki Bar","stop_id":"2484001"},"type":"Feature"},{"geometry":{"coordinates":[-81.41142,24.66114],"type":"Point"},"properties":{"kind":"stop","name":"Ramrod Key - FKAA MM27","stop_id":"2484002"},"type":"Feature"},{"geometry":{"coordinates":[-81.41104,24.66132],"type":"Point"},"properties":{"kind":"stop","name":"Ramrod Key - Prior Coral Ave","stop_id":"2484003"},"type":"Feature"},{"geometry":{"coordinates":[-81.40695,24.66219],"type":"Point"},"properties":{"kind":"stop","name":"Ramrod Key - Opposite Looe Key Tiki","stop_id":"2484004"},"type":"Feature"},{"geometry":{"coordinates":[-81.44365,24.66121],"type":"Point"},"properties":{"kind":"stop","name":"Summerland Key - Before Dion's","stop_id":"2484006"},"type":"Feature"},{"geometry":{"coordinates":[-81.79494,24.54821],"type":"Point"},"properties":{"kind":"stop","name":"South & Simonton","stop_id":"2484007"},"type":"Feature"},{"geometry":{"coordinates":[-81.39238,24.66533],"type":"Point"},"properties":{"kind":"stop","name":"Middle Torch Key - SR4A","stop_id":"2484008"},"type":"Feature"},{"geometry":{"coordinates":[-81.38756,24.66645],"type":"Point"},"properties":{"kind":"stop","name":"Little Torch Key - Barry Ave","stop_id":"2484009"},"type":"Feature"},{"geometry":{"coordinates":[-81.79172,24.55023],"type":"Point"},"properties":{"kind":"stop","name":"South Street & Reynolds","stop_id":"2484011"},"type":"Feature"},{"geometry":{"coordinates":[-81.7712,24.56689],"type":"Point"},"properties":{"kind":"stop","name":"N Roosevelt & Home Depot","stop_id":"2484013"},"type":"Feature"},{"geometry":{"coordinates":[-81.4538,24.66184],"type":"Point"},"properties":{"kind":"stop","name":"Summerland Key -  Mote Marine Lab","stop_id":"2484014"},"type":"Feature"},{"geometry":{"coordinates":[-81.79101,24.54996],"type":"Point"},"properties":{"kind":"stop","name":"Reynolds & Washington","stop_id":"2484016"},"type":"Feature"},{"geometry":{"coordinates":[-81.76119,24.56447],"type":"Point"},"properties":{"kind":"stop","name":"Duck Ave & 16th Street","stop_id":"2484017"},"type":"Feature"},{"geometry":{"coordinates":[-81.36731,24.66987],"type":"Point"},"properties":{"kind":"stop","name":"Big Pine Key - Medical Center","stop_id":"2484018"},"type":"Feature"},{"geometry":{"coordinates":[-81.76589,24.56188],"type":"Point"},"properties":{"kind":"stop","name":"Kennedy & Flagler Ave","stop_id":"2484019"},"type":"Feature"},{"geometry":{"coordinates":[-81.78894,24.54941],"type":"Point"},"properties":{"kind":"stop","name":"Flagler Ave & Grinnell Street","stop_id":"2484022"},"type":"Feature"},{"geometry":{"coordinates":[-81.4778,24.66322],"type":"Point"},"properties":{"kind":"stop","name":"Cudjoe Key - Evie's Subs","stop_id":"2484024"},"type":"Feature"},{"geometry":{"coordinates":[-81.35779,24.66971],"type":"Point"},"properties":{"kind":"stop","name":"Big Pine Key - CVS / MM30","stop_id":"2484027"},"type":"Feature"},{"geometry":{"coordinates":[-81.78381,24.55266],"type":"Point"},"properties":{"kind":"stop","name":"Flagler Ave & Leon Street","stop_id":"2484028"},"type":"Feature"},{"geometry":{"coordinates":[-81.4966,24.66616],"type":"Point"},"properties":{"kind":"stop","name":"Cudjoe Key - Opposite Coco's Cantina","stop_id":"2484029"},"type":"Feature"},{"geometry":{"coordinates":[-81.34864,24.66963],"type":"Point"},"properties":{"kind":"stop","name":"Big Pine Key - Dions","stop_id":"2484031"},"type":"Feature"},{"geometry":{"coordinates":[-81.78032,24.55495],"type":"Point"},"properties":{"kind":"stop","name":"Flagler & Bertha","stop_id":"2484032"},"type":"Feature"},{"geometry":{"coordinates":[-81.77908,24.5541],"type":"Point"},"properties":{"kind":"stop","name":"Bertha Street & Venetia","stop_id":"2484033"},"type":"Feature"},{"geometry":{"coordinates":[-81.50555,24.66473],"type":"Point"},"properties":{"kind":"stop","name":"Cudjoe Key - Sherriff Sub Station","stop_id":"2484034"},"type":"Feature"},{"geometry":{"coordinates":[-81.79153,24.55025],"type":"Point"},"properties":{"kind":"stop","name":"South Street & Reynolds","stop_id":"2484035"},"type":"Feature"},{"geometry":{"coordinates":[-81.77796,24.55261],"type":"Point"},"properties":{"kind":"stop","name":"Bertha Street - Hockey Rink","stop_id":"2484036"},"type":"Feature"},{"geometry":{"coordinates":[-81.79489,24.54816],"type":"Point"},"properties":{"kind":"stop","name":"South & Simonton","stop_id":"2484037"},"type":"Feature"},{"geometry":{"coordinates":[-81.52246,24.6598],"type":"Point"},"properties":{"kind":"stop","name":"Sugarloaf Key - Upper - Opposite Mangrove Mama's","stop_id":"2484038"},"type":"Feature"},{"geometry":{"coordinates":[-81.79319,24.55482],"type":"Point"},"properties":{"kind":"stop","name":"Truman & Grinnell","stop_id":"2484039"},"type":"Feature"},{"geometry":{"coordinates":[-81.79569,24.54885],"type":"Point"},"properties":{"kind":"stop","name":"Simonton & United","stop_id":"2484041"},"type":"Feature"},{"geometry":{"coordinates":[-81.73794,24.5781],"type":"Point"},"properties":{"kind":"stop","name":"Opposite Golf Club Drive","stop_id":"2484042"},"type":"Feature"},{"geometry":{"coordinates":[-81.7952,24.5536],"type":"Point"},"properties":{"kind":"stop","name":"Truman Ave & Windsor Lane","stop_id":"2484043"},"type":"Feature"},{"geometry":{"coordinates":[-81.79811,24.55178],"type":"Point"},"properties":{"kind":"stop","name":"Truman & Simonton","stop_id":"2484047"},"type":"Feature"},{"geometry":{"coordinates":[-81.77244,24.55157],"type":"Point"},"properties":{"kind":"stop","name":"S Roosevelt - Sheraton","stop_id":"2484048"},"type":"Feature"},{"geometry":{"coordinates":[-81.52972,24.65773],"type":"Point"},"properties":{"kind":"stop","name":"Sugarloaf Key - Upper - Past Crane Blvd/School","stop_id":"2484049"},"type":"Feature"},{"geometry":{"coordinates":[-81.80017,24.55025],"type":"Point"},"properties":{"kind":"stop","name":"Whitehead & Truman","stop_id":"2484050"},"type":"Feature"},{"geometry":{"coordinates":[-81.79573,24.55339],"type":"Point"},"properties":{"kind":"stop","name":"Truman Ave & Windsor Lane","stop_id":"2484051"},"type":"Feature"},{"geometry":{"coordinates":[-81.7352,24.57513],"type":"Point"},"properties":{"kind":"stop","name":"College Road & US1","stop_id":"2484052"},"type":"Feature"},{"geometry":{"coordinates":[-81.79382,24.55456],"type":"Point"},"properties":{"kind":"stop","name":"Truman & Grinnell","stop_id":"2484053"},"type":"Feature"},{"geometry":{"coordinates":[-81.76995,24.55214],"type":"Point"},"properties":{"kind":"stop","name":"S Roosevelt - Key West by the Sea","stop_id":"2484054"},"type":"Feature"},{"geometry":{"coordinates":[-81.79939,24.54896],"type":"Point"},"properties":{"kind":"stop","name":"Amelia & Whitehead","stop_id":"2484055"},"type":"Feature"},{"geometry":{"coordinates":[-81.80128,24.54781],"type":"Point"},"properties":{"kind":"stop","name":"Amelia & Emma","stop_id":"2484056"},"type":"Feature"},{"geometry":{"coordinates":[-81.79097,24.55634],"type":"Point"},"properties":{"kind":"stop","name":"Truman & White","stop_id":"2484057"},"type":"Feature"},{"geometry":{"coordinates":[-81.78854,24.55784],"type":"Point"},"properties":{"kind":"stop","name":"Truman & Jose Marti Drive","stop_id":"2484058"},"type":"Feature"},{"geometry":{"coordinates":[-81.80248,24.54876],"type":"Point"},"properties":{"kind":"stop","name":"Emma & Truman","stop_id":"2484059"},"type":"Feature"},{"geometry":{"coordinates":[-81.80396,24.55072],"type":"Point"},"properties":{"kind":"stop","name":"Emma & Petronia","stop_id":"2484060"},"type":"Feature"},{"geometry":{"coordinates":[-81.78515,24.55935],"type":"Point"},"properties":{"kind":"stop","name":"N Roosevelt & George Street","stop_id":"2484061"},"type":"Feature"},{"geometry":{"coordinates":[-81.80199,24.5521],"type":"Point"},"properties":{"kind":"stop","name":"Petronia & Whitehead","stop_id":"2484062"},"type":"Feature"},{"geometry":{"coordinates":[-81.78445,24.55942],"type":"Point"},"properties":{"kind":"stop","name":"N Roosevelt & George Street","stop_id":"2484064"},"type":"Feature"},{"geometry":{"coordinates":[-81.5655,24.64585],"type":"Point"},"properties":{"kind":"stop","name":"Sugarloaf Key - Lower -  Opposite Sugarloaf Lodge","stop_id":"2484065"},"type":"Feature"},{"geometry":{"coordinates":[-81.79948,24.55103],"type":"Point"},"properties":{"kind":"stop","name":"Truman & Duval","stop_id":"2484066"},"type":"Feature"},{"geometry":{"coordinates":[-81.79836,24.55171],"type":"Point"},"properties":{"kind":"stop","name":"Truman & Simonton","stop_id":"2484068"},"type":"Feature"},{"geometry":{"coordinates":[-81.79091,24.55627],"type":"Point"},"properties":{"kind":"stop","name":"Truman & White","stop_id":"2484070"},"type":"Feature"},{"geometry":{"coordinates":[-81.59321,24.62894],"type":"Point"},"properties":{"kind":"stop","name":"Bay Point - Baby's Coffee","stop_id":"2484076"},"type":"Feature"},{"geometry":{"coordinates":[-81.60036,24.62452],"type":"Point"},"properties":{"kind":"stop","name":"Blue Water RV","stop_id":"2484078"},"type":"Feature"},{"geometry":{"coordinates":[-81.73906,24.56864],"type":"Point"},"properties":{"kind":"stop","name":"5th Ave & Shrimp Road (Opposite El Siboney)","stop_id":"2484080"},"type":"Feature"},{"geometry":{"coordinates":[-81.27343,24.66056],"type":"Point"},"properties":{"kind":"stop","name":"Bahia Honda - Opposite Park Entrance","stop_id":"2484081"},"type":"Feature"},{"geometry":{"coordinates":[-81.74107,24.56879],"type":"Point"},"properties":{"kind":"stop","name":"5th Ave & 5th Street","stop_id":"2484082"},"type":"Feature"},{"geometry":{"coordinates":[-81.75183,24.55289],"type":"Point"},"properties":{"kind":"stop","name":"S Roosevelt - Hyatt","stop_id":"2484083"},"type":"Feature"},{"geometry":{"coordinates":[-81.77082,24.56696],"type":"Point"},"properties":{"kind":"stop","name":"N Roosevelt & Key Plaza","stop_id":"2484084"},"type":"Feature"},{"geometry":{"coordinates":[-81.79579,24.56185],"type":"Point"},"properties":{"kind":"stop","name":"Eaton & White","stop_id":"2484085"},"type":"Feature"},{"geometry":{"coordinates":[-81.74898,24.55481],"type":"Point"},"properties":{"kind":"stop","name":"S Roosevelt - Key Ambassador","stop_id":"2484086"},"type":"Feature"},{"geometry":{"coordinates":[-81.2471,24.67167],"type":"Point"},"properties":{"kind":"stop","name":"Sunshine Key - Campground Entrance","stop_id":"2484087"},"type":"Feature"},{"geometry":{"coordinates":[-81.75656,24.57215],"type":"Point"},"properties":{"kind":"stop","name":"N Roosevelt & McDonald's","stop_id":"2484088"},"type":"Feature"},{"geometry":{"coordinates":[-81.76048,24.57188],"type":"Point"},"properties":{"kind":"stop","name":"N Roosevelt & Bayside","stop_id":"2484089"},"type":"Feature"},{"geometry":{"coordinates":[-81.65215,24.59908],"type":"Point"},"properties":{"kind":"stop","name":"Big Coppit Key - Geiger Road","stop_id":"2484090"},"type":"Feature"},{"geometry":{"coordinates":[-81.7645,24.57059],"type":"Point"},"properties":{"kind":"stop","name":"N Roosevelt & Searstown","stop_id":"2484091"},"type":"Feature"},{"geometry":{"coordinates":[-81.65793,24.59643],"type":"Point"},"properties":{"kind":"stop","name":"Big Coppit Key - FKAA Plant MM10","stop_id":"2484092"},"type":"Feature"},{"geometry":{"coordinates":[-81.66134,24.59484],"type":"Point"},"properties":{"kind":"stop","name":"Big Coppit Key - Opposite Bobalus","stop_id":"2484093"},"type":"Feature"},{"geometry":{"coordinates":[-81.67296,24.58982],"type":"Point"},"properties":{"kind":"stop","name":"Rockland Key - Opposite Calle Uno","stop_id":"2484097"},"type":"Feature"},{"geometry":{"coordinates":[-81.74677,24.57917],"type":"Point"},"properties":{"kind":"stop","name":"College Road - Opposite Key West Transit","stop_id":"2484099"},"type":"Feature"},{"geometry":{"coordinates":[-81.74697,24.57913],"type":"Point"},"properties":{"kind":"stop","name":"Key West Transit","stop_id":"2484100"},"type":"Feature"},{"geometry":{"coordinates":[-81.68214,24.58949],"type":"Point"},"properties":{"kind":"stop","name":"Rockland Key - Opposite Video Store","stop_id":"2484102"},"type":"Feature"},{"geometry":{"coordinates":[-81.78107,24.56048],"type":"Point"},"properties":{"kind":"stop","name":"N Roosevelt & 3rd Street (Opposite Owen)","stop_id":"2484103"},"type":"Feature"},{"geometry":{"coordinates":[-81.75431,24.56668],"type":"Point"},"properties":{"kind":"stop","name":"Duck Ave & 19th Street","stop_id":"2484104"},"type":"Feature"},{"geometry":{"coordinates":[-81.68987,24.58821],"type":"Point"},"properties":{"kind":"stop","name":"Boca Chica - NAS","stop_id":"2484105"},"type":"Feature"},{"geometry":{"coordinates":[-81.75929,24.56508],"type":"Point"},"properties":{"kind":"stop","name":"Duck Ave & 17th Street","stop_id":"2484106"},"type":"Feature"},{"geometry":{"coordinates":[-81.77726,24.56246],"type":"Point"},"properties":{"kind":"stop","name":"N Roosevelt & 6th Street (Opposite Taco Bell)","stop_id":"2484107"},"type":"Feature"},{"geometry":{"coordinates":[-81.74935,24.5727],"type":"Point"},"properties":{"kind":"stop","name":"College Road & Botanical Garden","stop_id":"2484108"},"type":"Feature"},{"geometry":{"coordinates":[-81.75008,24.56059],"type":"Point"},"properties":{"kind":"stop","name":"Oceanwalk & Las Salinas","stop_id":"2484109"},"type":"Feature"},{"geometry":{"coordinates":[-81.76442,24.5634],"type":"Point"},"properties":{"kind":"stop","name":"Duck Ave & 14th Street","stop_id":"2484111"},"type":"Feature"},{"geometry":{"coordinates":[-81.76784,24.5663],"type":"Point"},"properties":{"kind":"stop","name":"Kennedy Drive & Northside Drive","stop_id":"2484115"},"type":"Feature"},{"geometry":{"coordinates":[-81.73619,24.57268],"type":"Point"},"properties":{"kind":"stop","name":"Maloney Ave & MacDonald Ave","stop_id":"2484121"},"type":"Feature"},{"geometry":{"coordinates":[-81.73459,24.57146],"type":"Point"},"properties":{"kind":"stop","name":"Maloney & 1st Street","stop_id":"2484123"},"type":"Feature"},{"geometry":{"coordinates":[-81.74993,24.57482],"type":"Point"},"properties":{"kind":"stop","name":"College Road past botanical","stop_id":"2484124"},"type":"Feature"},{"geometry":{"coordinates":[-81.73844,24.57412],"type":"Point"},"properties":{"kind":"stop","name":"US1 & 3rd Street","stop_id":"2484125"},"type":"Feature"},{"geometry":{"coordinates":[-81.1121,24.70823],"type":"Point"},"properties":{"kind":"stop","name":"Marathon - Prior to Turn Key Marina","stop_id":"2484126"},"type":"Feature"},{"geometry":{"coordinates":[-81.73514,24.57009],"type":"Point"},"properties":{"kind":"stop","name":"4th Ave & Front Street","stop_id":"2484127"},"type":"Feature"},{"geometry":{"coordinates":[-81.74416,24.57176],"type":"Point"},"properties":{"kind":"stop","name":"Cross Street & US1","stop_id":"2484128"},"type":"Feature"},{"geometry":{"coordinates":[-81.10633,24.7087],"type":"Point"},"properties":{"kind":"stop","name":"Marathon - Coast Guard Station","stop_id":"2484132"},"type":"Feature"},{"geometry":{"coordinates":[-81.75765,24.57221],"type":"Point"},"properties":{"kind":"stop","name":"N Roosevelt - Opposite Capital Bank","stop_id":"2484133"},"type":"Feature"},{"geometry":{"coordinates":[-81.76717,24.56516],"type":"Point"},"properties":{"kind":"stop","name":"Kennedy Drive & KWHS Stadium","stop_id":"2484134"},"type":"Feature"},{"geometry":{"coordinates":[-81.74395,24.56922],"type":"Point"},"properties":{"kind":"stop","name":"Cross Street & 5th Ave","stop_id":"2484137"},"type":"Feature"},{"geometry":{"coordinates":[-81.75423,24.57191],"type":"Point"},"properties":{"kind":"stop","name":"Key West - Opposite 24 North Hotel","stop_id":"2484140"},"type":"Feature"},{"geometry":{"coordinates":[-81.74715,24.57138],"type":"Point"},"properties":{"kind":"stop","name":"US1 at Hurricane Hole Marina","stop_id":"2484141"},"type":"Feature"},{"geometry":{"coordinates":[-81.74076,24.56887],"type":"Point"},"properties":{"kind":"stop","name":"5th Ave & 5th Street","stop_id":"2484143"},"type":"Feature"},{"geometry":{"coordinates":[-81.09823,24.71033],"type":"Point"},"properties":{"kind":"stop","name":"Marathon - Government Center","stop_id":"2484144"},"type":"Feature"},{"geometry":{"coordinates":[-81.7387,24.56871],"type":"Point"},"properties":{"kind":"stop","name":"5th Ave & Shrimp Road","stop_id":"2484145"},"type":"Feature"},{"geometry":{"coordinates":[-81.76723,24.56315],"type":"Point"},"properties":{"kind":"stop","name":"Senior Citizen Center","stop_id":"2484148"},"type":"Feature"},{"geometry":{"coordinates":[-81.09347,24.71155],"type":"Point"},"properties":{"kind":"stop","name":"Marathon - FHP & School","stop_id":"2484150"},"type":"Feature"},{"geometry":{"coordinates":[-81.7352,24.57016],"type":"Point"},"properties":{"kind":"stop","name":"4th Ave & Front Street","stop_id":"2484152"},"type":"Feature"},{"geometry":{"coordinates":[-81.75186,24.56825],"type":"Point"},"properties":{"kind":"stop","name":"S Roosevelt & VA Clinic","stop_id":"2484155"},"type":"Feature"},{"geometry":{"coordinates":[-81.76702,24.56449],"type":"Point"},"properties":{"kind":"stop","name":"Kennedy Drive &  Depoo Medical Center","stop_id":"2484156"},"type":"Feature"},{"geometry":{"coordinates":[-81.75126,24.56681],"type":"Point"},"properties":{"kind":"stop","name":"Coconut Mallory","stop_id":"2484158"},"type":"Feature"},{"geometry":{"coordinates":[-81.74407,24.56903],"type":"Point"},"properties":{"kind":"stop","name":"Cross Street & 5th Ave","stop_id":"2484159"},"type":"Feature"},{"geometry":{"coordinates":[-81.73453,24.57128],"type":"Point"},"properties":{"kind":"stop","name":"Maloney Ave & 2nd Ave","stop_id":"2484160"},"type":"Feature"},{"geometry":{"coordinates":[-81.08697,24.7133],"type":"Point"},"properties":{"kind":"stop","name":"Marathon - 41st Street","stop_id":"2484162"},"type":"Feature"},{"geometry":{"coordinates":[-81.74424,24.57169],"type":"Point"},"properties":{"kind":"stop","name":"Cross Street & US1","stop_id":"2484164"},"type":"Feature"},{"geometry":{"coordinates":[-81.73631,24.57258],"type":"Point"},"properties":{"kind":"stop","name":"Maloney Ave & 2nd Street","stop_id":"2484165"},"type":"Feature"},{"geometry":{"coordinates":[-81.78051,24.55468],"type":"Point"},"properties":{"kind":"stop","name":"Flagler & Josephine","stop_id":"2484167"},"type":"Feature"},{"geometry":{"coordinates":[-81.76451,24.5635],"type":"Point"},"properties":{"kind":"stop","name":"Duck Ave & 14th Street","stop_id":"2484169"},"type":"Feature"},{"geometry":{"coordinates":[-81.76082,24.5647],"type":"Point"},"properties":{"kind":"stop","name":"Duck Ave & 16th Street","stop_id":"2484170"},"type":"Feature"},{"geometry":{"coordinates":[-81.74932,24.5542],"type":"Point"},"properties":{"kind":"stop","name":"S Roosevelt - Opposite Key Ambassador","stop_id":"2484171"},"type":"Feature"},{"geometry":{"coordinates":[-81.75846,24.56547],"type":"Point"},"properties":{"kind":"stop","name":"Duck Ave & 17th Street","stop_id":"2484174"},"type":"Feature"},{"geometry":{"coordinates":[-81.79738,24.5513],"type":"Point"},"properties":{"kind":"stop","name":"Simonton & Virginia","stop_id":"2484175"},"type":"Feature"},{"geometry":{"coordinates":[-81.79644,24.55001],"type":"Point"},"properties":{"kind":"stop","name":"Simonton & Catherine","stop_id":"2484176"},"type":"Feature"},{"geometry":{"coordinates":[-81.07595,24.71632],"type":"Point"},"properties":{"kind":"stop","name":"US1 & 52nd Street","stop_id":"2484177"},"type":"Feature"},{"geometry":{"coordinates":[-81.7558,24.56632],"type":"Point"},"properties":{"kind":"stop","name":"Duck Ave & 19th Street","stop_id":"2484178"},"type":"Feature"},{"geometry":{"coordinates":[-81.75162,24.55277],"type":"Point"},"properties":{"kind":"stop","name":"S Roosevelt - Opposite Hyatt","stop_id":"2484179"},"type":"Feature"},{"geometry":{"coordinates":[-81.77122,24.56458],"type":"Point"},"properties":{"kind":"stop","name":"Overseas Market","stop_id":"2484181"},"type":"Feature"},{"geometry":{"coordinates":[-81.07104,24.71757],"type":"Point"},"properties":{"kind":"stop","name":"Marathon - BB&T","stop_id":"2484182"},"type":"Feature"},{"geometry":{"coordinates":[-81.06573,24.71897],"type":"Point"},"properties":{"kind":"stop","name":"Marathon - Reef Club","stop_id":"2484183"},"type":"Feature"},{"geometry":{"coordinates":[-81.75205,24.56845],"type":"Point"},"properties":{"kind":"stop","name":"South Roosevelt & Fairfield Inn","stop_id":"2484184"},"type":"Feature"},{"geometry":{"coordinates":[-81.77791,24.5524],"type":"Point"},"properties":{"kind":"stop","name":"Bertha Street & Atlantic Blvd","stop_id":"2484186"},"type":"Feature"},{"geometry":{"coordinates":[-81.7556,24.55255],"type":"Point"},"properties":{"kind":"stop","name":"Key West International Airport","stop_id":"2484187"},"type":"Feature"},{"geometry":{"coordinates":[-81.74983,24.57311],"type":"Point"},"properties":{"kind":"stop","name":"College Road - Opposite Botanical Garden","stop_id":"2484188"},"type":"Feature"},{"geometry":{"coordinates":[-81.05042,24.72479],"type":"Point"},"properties":{"kind":"stop","name":"Marathon - Airport","stop_id":"2484189"},"type":"Feature"},{"geometry":{"coordinates":[-81.78322,24.55292],"type":"Point"},"properties":{"kind":"stop","name":"Flagler & Thompson Street","stop_id":"2484192"},"type":"Feature"},{"geometry":{"coordinates":[-81.7502,24.57448],"type":"Point"},"properties":{"kind":"stop","name":"College Road Prior to Botanical Garden","stop_id":"2484193"},"type":"Feature"},{"geometry":{"coordinates":[-81.77557,24.56364],"type":"Point"},"properties":{"kind":"stop","name":"N Roosevelt & 8th Street","stop_id":"2484194"},"type":"Feature"},{"geometry":{"coordinates":[-81.7774,24.56212],"type":"Point"},"properties":{"kind":"stop","name":"N Roosevelt & 6th Street","stop_id":"2484198"},"type":"Feature"},{"geometry":{"coordinates":[-81.80496,24.55782],"type":"Point"},"properties":{"kind":"stop","name":"Caroline & Duval","stop_id":"2484199"},"type":"Feature"},{"geometry":{"coordinates":[-81.80331,24.55885],"type":"Point"},"properties":{"kind":"stop","name":"Caroline & Simonton","stop_id":"2484203"},"type":"Feature"},{"geometry":{"coordinates":[-81.77955,24.56069],"type":"Point"},"properties":{"kind":"stop","name":"N Roosevelt & 4th Street","stop_id":"2484206"},"type":"Feature"},{"geometry":{"coordinates":[-81.79842,24.54772],"type":"Point"},"properties":{"kind":"stop","name":"Whitehead & United","stop_id":"2484208"},"type":"Feature"},{"geometry":{"coordinates":[-81.79993,24.54973],"type":"Point"},"properties":{"kind":"stop","name":"Whitehead & Julia Street","stop_id":"2484209"},"type":"Feature"},{"geometry":{"coordinates":[-81.80127,24.56015],"type":"Point"},"properties":{"kind":"stop","name":"Caroline & William","stop_id":"2484211"},"type":"Feature"},{"geometry":{"coordinates":[-81.78118,24.56025],"type":"Point"},"properties":{"kind":"stop","name":"N Roosevelt & 3rd Street","stop_id":"2484212"},"type":"Feature"},{"geometry":{"coordinates":[-81.77158,24.55164],"type":"Point"},"properties":{"kind":"stop","name":"S Roosevelt - Opposite Sheraton","stop_id":"2484217"},"type":"Feature"},{"geometry":{"coordinates":[-81.77477,24.55081],"type":"Point"},"properties":{"kind":"stop","name":"S Roosevelt - La Brisa","stop_id":"2484219"},"type":"Feature"},{"geometry":{"coordinates":[-81.79927,24.5614],"type":"Point"},"properties":{"kind":"stop","name":"Caroline & Grinnell","stop_id":"2484220"},"type":"Feature"},{"geometry":{"coordinates":[-81.74282,24.58122],"type":"Point"},"properties":{"kind":"stop","name":"Lower Keys Medical Center","stop_id":"2484221"},"type":"Feature"},{"geometry":{"coordinates":[-81.79059,24.56161],"type":"Point"},"properties":{"kind":"stop","name":"Palm Ave - DoT","stop_id":"2484222"},"type":"Feature"},{"geometry":{"coordinates":[-81.77513,24.55087],"type":"Point"},"properties":{"kind":"stop","name":"La Brisa","stop_id":"2505060"},"type":"Feature"},{"geometry":{"coordinates":[-81.76272,24.57154],"type":"Point"},"properties":{"kind":"stop","name":"N Roosevelt & Toppino Drive","stop_id":"2505061"},"type":"Feature"},{"geometry":{"coordinates":[-81.80052,24.55745],"type":"Point"},"properties":{"kind":"stop","name":"Fleming & Elizabeth St.","stop_id":"2526338"},"type":"Feature"},{"geometry":{"coordinates":[-81.80345,24.5594],"type":"Point"},"properties":{"kind":"stop","name":"Simonton & Dey St.","stop_id":"2526339"},"type":"Feature"},{"geometry":{"coordinates":[-81.80625,24.55819],"type":"Point"},"properties":{"kind":"stop","name":"Whitehead & Greene St.","stop_id":"2526340"},"type":"Feature"},{"geometry":{"coordinates":[-81.80603,24.55168],"type":"Point"},"properties":{"kind":"stop","name":"Truman Waterfront Park- Water Park Area","stop_id":"2526341"},"type":"Feature"},{"geometry":{"coordinates":[-81.79724,24.54816],"type":"Point"},"properties":{"kind":"stop","name":"United & Duval St.","stop_id":"2526342"},"type":"Feature"},{"geometry":{"coordinates":[-81.79696,24.5597],"type":"Point"},"properties":{"kind":"stop","name":"Grinnell & Fleming St.","stop_id":"2526343"},"type":"Feature"},{"geometry":{"coordinates":[-81.80164,24.55202],"type":"Point"},"properties":{"kind":"stop","name":"Whitehead & Petronia St.","stop_id":"2526345"},"type":"Feature"},{"geometry":{"coordinates":[-81.7991,24.55356],"type":"Point"},"properties":{"kind":"stop","name":"Simonton & Petronia St.","stop_id":"2526346"},"type":"Feature"},{"geometry":{"coordinates":[-81.80059,24.55562],"type":"Point"},"properties":{"kind":"stop","name":"Simonton & Southard St.","stop_id":"2526347"},"type":"Feature"},{"geometry":{"coordinates":[-81.76547,24.57025],"type":"Point"},"properties":{"kind":"stop","name":"North Roosevelt & Searstown","stop_id":"2618166"},"type":"Feature"},{"geometry":{"coordinates":[-81.10514,24.70866],"type":"Point"},"properties":{"kind":"stop","name":"US1 & 20th Street","stop_id":"4149114"},"type":"Feature"},{"geometry":{"coordinates":[-81.74061,24.57278],"type":"Point"},"properties":{"kind":"stop","name":"MacDonald Ave & 5th Street","stop_id":"4149115"},"type":"Feature"},{"geometry":{"coordinates":[-81.76537,24.56506],"type":"Point"},"properties":{"kind":"stop","name":"14th Street & Stadium Apartments Office","stop_id":"4211610"},"type":"Feature"},{"geometry":{"coordinates":[-81.76548,24.56497],"type":"Point"},"properties":{"kind":"stop","name":"14th & Rex Weech Field","stop_id":"4211612"},"type":"Feature"}],"type":"FeatureCollection"}
