{"features":[{"geometry":{"coordinates":[[-84.55899,38.21148],[-84.55965,38.2116],[-84.55956,38.21258],[-84.55785,38.21245],[-84.5578,38.21299],[-84.55236,38.21264],[-84.5521,38.21476],[-84.55404,38.21493],[-84.55398,38.21626],[-84.55501,38.21632],[-84.55341,38.21732],[-84.55264,38.21831],[-84.5535,38.22071],[-84.55967,38.21939],[-84.56294,38.21828],[-84.56018,38.21504],[-84.55956,38.21255],[-84.56089,38.19873],[-84.56178,38.199],[-84.56215,38.19803],[-84.56245,38.19795],[-84.56267,38.19735],[-84.56177,38.19714],[-84.56192,38.19668],[-84.56515,38.19736],[-84.5644,38.19988],[-84.56089,38.19873],[-84.56139,38.19548],[-84.56175,38.19547],[-84.56182,38.19506],[-84.56207,38.195],[-84.56213,38.19473],[-84.56154,38.19467],[-84.56189,38.19256],[-84.56312,38.19266],[-84.56326,38.19187],[-84.56346,38.19164],[-84.56334,38.19159],[-84.56322,38.19187],[-84.56311,38.19266],[-84.55284,38.19197],[-84.55263,38.19498],[-84.55321,38.19486],[-84.55309,38.19444],[-84.55258,38.19445],[-84.55284,38.19197],[-84.55963,38.1924],[-84.56003,38.1898],[-84.56225,38.19002],[-84.56261,38.18717],[-84.56225,38.18574],[-84.56478,38.18495],[-84.56501,38.18411],[-84.56527,38.18382],[-84.56735,38.18449],[-84.56695,38.18515],[-84.56702,38.18592],[-84.5691,38.1859]],"type":"LineString"},"properties":{"color":"#E5CA02","color_name":"yellow","kind":"route","label":"1","long":"Georgetown Route 1","route_id":"74504","text_color":"#FFFFFF","type_label":"Bus"},"type":"Feature"},{"geometry":{"coordinates":[[-84.50847,38.26851],[-84.50893,38.26879],[-84.50936,38.26948],[-84.51,38.26952],[-84.51016,38.26942],[-84.5101,38.26907],[-84.512,38.26825],[-84.5126,38.26705],[-84.51567,38.26769],[-84.51736,38.26745],[-84.51818,38.26696],[-84.51935,38.26565],[-84.51975,38.26502],[-84.52014,38.26366],[-84.52555,38.26483],[-84.52776,38.26575],[-84.52872,38.26572],[-84.52657,38.24976],[-84.52667,38.24744],[-84.52733,38.24563],[-84.53335,38.23587],[-84.53421,38.23422],[-84.53588,38.23012],[-84.53639,38.22989],[-84.53648,38.23033],[-84.53788,38.23057],[-84.53831,38.2295],[-84.53741,38.22924],[-84.53687,38.22963],[-84.53664,38.22958],[-84.53653,38.22987],[-84.53619,38.22976],[-84.5361,38.22952],[-84.5405,38.22151],[-84.54088,38.22052],[-84.54193,38.22094],[-84.54266,38.22198],[-84.54265,38.22296],[-84.54176,38.22481],[-84.54194,38.2257],[-84.54604,38.22992],[-84.54452,38.23096],[-84.54423,38.23183],[-84.54389,38.23177],[-84.54359,38.23209],[-84.54253,38.23189],[-84.54258,38.23154],[-84.54289,38.23139],[-84.54423,38.23183],[-84.54452,38.23096],[-84.54604,38.22992],[-84.5423,38.22617],[-84.54183,38.22546],[-84.54187,38.22445],[-84.54268,38.22284],[-84.54254,38.22165],[-84.54342,38.22151],[-84.54473,38.22224],[-84.54387,38.22359],[-84.54467,38.22397],[-84.5452,38.22397],[-84.54562,38.22274],[-84.54342,38.22151],[-84.54254,38.22165],[-84.54193,38.22094],[-84.54088,38.22052],[-84.54105,38.21843],[-84.5403,38.2146],[-84.5438,38.21357],[-84.54542,38.21289],[-84.54968,38.20938],[-84.55979,38.20994],[-84.55963,38.21159],[-84.55899,38.21148]],"type":"LineString"},"properties":{"color":"#00BEFD","color_name":"teal","kind":"route","label":"2","long":"Georgetown Route 2","route_id":"74505","text_color":"#000000","type_label":"Bus"},"type":"Feature"},{"geometry":{"coordinates":[[-84.77136,37.61527],[-84.7704,37.61558],[-84.77073,37.61607],[-84.77092,37.61737],[-84.77135,37.61781],[-84.77146,37.61827],[-84.77125,37.6183],[-84.77128,37.61885],[-84.77214,37.61883],[-84.77213,37.61848],[-84.77458,37.61846],[-84.77479,37.62842],[-84.77618,37.62832],[-84.77617,37.62796],[-84.77566,37.62799],[-84.77568,37.62842],[-84.76403,37.62854],[-84.76401,37.62804],[-84.76419,37.62753],[-84.76611,37.6271],[-84.76623,37.6265],[-84.76649,37.62651],[-84.7673,37.6266],[-84.76735,37.62851],[-84.77479,37.62842],[-84.77488,37.63135],[-84.77385,37.63158],[-84.77294,37.6323],[-84.77218,37.63322],[-84.77184,37.63405],[-84.77158,37.63714],[-84.77327,37.63731],[-84.77256,37.64469],[-84.77232,37.64468],[-84.77228,37.64497],[-84.77209,37.64496]],"type":"LineString"},"properties":{"color":"#0088D1","color_name":"teal","kind":"route","label":"1","long":"Danville Route 1","route_id":"76425","text_color":"#FFFFFF","type_label":"Bus"},"type":"Feature"},{"geometry":{"coordinates":[[-84.77209,37.64491],[-84.77187,37.6449],[-84.77189,37.64464],[-84.77256,37.64469],[-84.7723,37.64734],[-84.77391,37.64745],[-84.77404,37.64592],[-84.7686,37.64557],[-84.76862,37.64523],[-84.76793,37.6452],[-84.76791,37.64554],[-84.76661,37.64546],[-84.76661,37.64438],[-84.76454,37.64267],[-84.75999,37.63799],[-84.75685,37.63617],[-84.75796,37.63508],[-84.7579,37.63497],[-84.75685,37.63617],[-84.75994,37.63795],[-84.7632,37.6413],[-84.76299,37.64411],[-84.75999,37.64393],[-84.75992,37.64514],[-84.7555,37.64469],[-84.75393,37.64486],[-84.7519,37.64376],[-84.7502,37.64383],[-84.74826,37.64828],[-84.74803,37.64957],[-84.749,37.64994],[-84.75194,37.65196],[-84.7513,37.65354],[-84.75298,37.65401],[-84.75372,37.65465],[-84.75155,37.65599],[-84.75174,37.65615],[-84.75147,37.65641],[-84.75221,37.65683],[-84.75266,37.65638]],"type":"LineString"},"properties":{"color":"#008D47","color_name":"green","kind":"route","label":"2","long":"Danville Route 2","route_id":"76426","text_color":"#FFFFFF","type_label":"Bus"},"type":"Feature"},{"geometry":{"coordinates":[[-84.80434,37.64706],[-84.80432,37.64776],[-84.80509,37.64778],[-84.80506,37.65103],[-84.80348,37.65109],[-84.80334,37.65183],[-84.80401,37.65307],[-84.8032,37.65421],[-84.80272,37.65458],[-84.80162,37.65375],[-84.8026,37.65257],[-84.80312,37.65139],[-84.80318,37.64856],[-84.79228,37.64766],[-84.7923,37.64873],[-84.79097,37.64903],[-84.79021,37.649],[-84.79025,37.64821],[-84.78979,37.64819],[-84.78987,37.64722],[-84.78852,37.64601],[-84.78791,37.64573],[-84.78689,37.64566],[-84.78232,37.64635],[-84.78268,37.6497],[-84.78478,37.64975],[-84.78491,37.65203],[-84.78566,37.65209],[-84.78581,37.65265],[-84.78679,37.65254],[-84.7869,37.65207],[-84.78677,37.65196],[-84.78491,37.65203],[-84.78478,37.64975],[-84.77914,37.64944],[-84.77876,37.65254],[-84.77895,37.65255],[-84.77914,37.64944],[-84.78268,37.6497],[-84.78232,37.64635],[-84.77874,37.64623],[-84.77884,37.64509],[-84.77233,37.64468],[-84.7723,37.64498],[-84.77211,37.64497]],"type":"LineString"},"properties":{"color":"#DA7130","color_name":"orange","kind":"route","label":"3","long":"Danville Route 3","route_id":"76427","text_color":"#FFFFFF","type_label":"Bus"},"type":"Feature"},{"geometry":{"coordinates":[[-84.56247,37.89985],[-84.56229,37.90034],[-84.5633,37.9006],[-84.56402,37.89929],[-84.56486,37.8995],[-84.56448,37.90037],[-84.56527,37.90059],[-84.5649,37.90137],[-84.56449,37.90131],[-84.56427,37.90172],[-84.56441,37.90204],[-84.56542,37.90215],[-84.56695,37.89867],[-84.56627,37.89776],[-84.56396,37.89683],[-84.56347,37.89643],[-84.5632,37.89576],[-84.56338,37.89397],[-84.56492,37.89374],[-84.56712,37.89432],[-84.56912,37.88968],[-84.56686,37.88902],[-84.56795,37.88791],[-84.56838,37.88682],[-84.57013,37.88726],[-84.57053,37.88633],[-84.57283,37.8869],[-84.57334,37.88346],[-84.57398,37.88172],[-84.57224,37.88128]],"type":"LineString"},"properties":{"color":"#009849","color_name":"green","kind":"route","label":"1","long":"Nicholasville 1","route_id":"77000","text_color":"#FFFFFF","type_label":"Bus"},"type":"Feature"},{"geometry":{"coordinates":[[-84.57226,37.88122],[-84.5719,37.88119],[-84.57271,37.87924],[-84.57343,37.87942],[-84.57449,37.87647],[-84.57788,37.87715],[-84.57839,37.8753],[-84.575,37.87507],[-84.57546,37.8739],[-84.57443,37.87373],[-84.5749,37.8728],[-84.57582,37.87299],[-84.57716,37.86983],[-84.57819,37.87005],[-84.57881,37.86839],[-84.57848,37.86832],[-84.57862,37.86789],[-84.57927,37.86733],[-84.57985,37.86598],[-84.5803,37.8661],[-84.58074,37.86505],[-84.58038,37.86494],[-84.58023,37.86469],[-84.57937,37.86449],[-84.57921,37.8649],[-84.57756,37.86455],[-84.57228,37.86436],[-84.57174,37.8638],[-84.56937,37.86362],[-84.56918,37.86598],[-84.56523,37.86529],[-84.56503,37.86892],[-84.5684,37.86912],[-84.57015,37.86941],[-84.57111,37.86718],[-84.57181,37.86731],[-84.57206,37.86715],[-84.57223,37.86662],[-84.57221,37.86433],[-84.57756,37.86455],[-84.57921,37.8649],[-84.5788,37.86588],[-84.5798,37.86612],[-84.57985,37.86598],[-84.5803,37.8661],[-84.58069,37.86516]],"type":"LineString"},"properties":{"color":"#027DC4","color_name":"teal","kind":"route","label":"2","long":"Nicholasville 2","route_id":"77001","text_color":"#FFFFFF","type_label":"Bus"},"type":"Feature"},{"geometry":{"coordinates":[[-84.57226,37.88122],[-84.5719,37.88119],[-84.57271,37.87924],[-84.57656,37.88025],[-84.57726,37.87862],[-84.57938,37.87917],[-84.58231,37.87936],[-84.58253,37.8788],[-84.58658,37.87888],[-84.58687,37.87835],[-84.58979,37.87936],[-84.59033,37.87844],[-84.5912,37.87859],[-84.5943,37.87743],[-84.59404,37.87653],[-84.59374,37.87629],[-84.5906,37.87668],[-84.58821,37.87593],[-84.59081,37.87115],[-84.59258,37.87152],[-84.59389,37.87112],[-84.59453,37.87113],[-84.59709,37.87224],[-84.59867,37.87263],[-84.59865,37.87293],[-84.59827,37.87293],[-84.5983,37.87254],[-84.59709,37.87224],[-84.59453,37.87113],[-84.59234,37.8715],[-84.57979,37.8686],[-84.58029,37.86748],[-84.58136,37.8664],[-84.58106,37.86617],[-84.58099,37.86632],[-84.58133,37.86644],[-84.58029,37.86748],[-84.57979,37.8686],[-84.59234,37.8715],[-84.59453,37.87113],[-84.59709,37.87224],[-84.59867,37.87263],[-84.59865,37.87293],[-84.59845,37.87293]],"type":"LineString"},"properties":{"color":"#E77826","color_name":"orange","kind":"route","label":"3","long":"Nicholasville 3","route_id":"77002","text_color":"#FFFFFF","type_label":"Bus"},"type":"Feature"},{"geometry":{"coordinates":[[-84.479,38.07249],[-84.47935,38.0722],[-84.48187,38.07286],[-84.48266,38.07292],[-84.4827,38.07277],[-84.49534,38.07465],[-84.4964,38.07508],[-84.49651,38.07551],[-84.4963,38.07582],[-84.49576,38.07597],[-84.49531,38.07582],[-84.49511,38.07552],[-84.49515,38.07493],[-84.49959,38.06428],[-84.50183,38.05785],[-84.5023,38.05714],[-84.50435,38.05565],[-84.50583,38.05421],[-84.50138,38.05027],[-84.50099,38.04982],[-84.50106,38.0489],[-84.50086,38.04846],[-84.49808,38.0458],[-84.49764,38.04508],[-84.49402,38.04191],[-84.49463,38.04145],[-84.49969,38.04595],[-84.50607,38.04145],[-84.50977,38.03074],[-84.50927,38.0307],[-84.50893,38.03098],[-84.50903,38.03138],[-84.50947,38.03156],[-84.50979,38.03068],[-84.52029,38.00089],[-84.52249,37.99376],[-84.5265,37.98535],[-84.53183,37.97179],[-84.53404,37.96798],[-84.53563,37.96321],[-84.53877,37.95686],[-84.53493,37.95547],[-84.53455,37.95542],[-84.53418,37.95631],[-84.53338,37.95603],[-84.53355,37.95582],[-84.53449,37.95581],[-84.53458,37.9551],[-84.53435,37.955],[-84.53418,37.95412],[-84.53263,37.95428],[-84.53209,37.95408],[-84.53187,37.95456],[-84.53191,37.95501],[-84.53349,37.95484],[-84.53438,37.95504],[-84.53458,37.9551],[-84.53452,37.95558],[-84.53877,37.95686],[-84.54459,37.94517],[-84.54774,37.93809],[-84.54854,37.93558],[-84.54969,37.92851],[-84.55003,37.92748],[-84.55133,37.92564],[-84.55396,37.92353],[-84.555,37.92229],[-84.55661,37.91781],[-84.56226,37.90533],[-84.56309,37.90428],[-84.56431,37.90349],[-84.56393,37.90288],[-84.56382,37.90219],[-84.56448,37.90037],[-84.56364,37.90001],[-84.5633,37.9006],[-84.56229,37.90034],[-84.56314,37.8984],[-84.56277,37.8983],[-84.56298,37.89777],[-84.56526,37.89858],[-84.57261,37.88138],[-84.5719,37.88119],[-84.57154,37.88211],[-84.57224,37.88229],[-84.57403,37.87796],[-84.57571,37.87326],[-84.58387,37.8535],[-84.58434,37.85279],[-84.58497,37.85229],[-84.58721,37.8517],[-84.58543,37.84497],[-84.58506,37.84272],[-84.58507,37.83944],[-84.58579,37.83601],[-84.58671,37.83371],[-84.58784,37.83169],[-84.59587,37.82108],[-84.5976,37.81788],[-84.6031,37.79745],[-84.60598,37.78889],[-84.61654,37.76476],[-84.61696,37.76227],[-84.61669,37.75755],[-84.61679,37.75601],[-84.61736,37.75405],[-84.61845,37.75208],[-84.61958,37.7508],[-84.62098,37.74963],[-84.62803,37.74479],[-84.63013,37.74283],[-84.63184,37.7408],[-84.64287,37.72335],[-84.64584,37.71471],[-84.64718,37.71256],[-84.64829,37.71145],[-84.6494,37.71067],[-84.66348,37.70219],[-84.66527,37.70039],[-84.66612,37.69829],[-84.66605,37.69552],[-84.66556,37.69321],[-84.66406,37.6912],[-84.67742,37.68608],[-84.67835,37.68558],[-84.67902,37.68496],[-84.6795,37.68416],[-84.68043,37.68042],[-84.68085,37.67951],[-84.68196,37.67844],[-84.68505,37.67613],[-84.68638,37.67542],[-84.68804,37.67497],[-84.69793,37.67431],[-84.70784,37.67202],[-84.71433,37.67154],[-84.71683,37.67111],[-84.72052,37.6698],[-84.72231,37.66878],[-84.72472,37.66702],[-84.72689,37.66621],[-84.72838,37.66607],[-84.73604,37.66635],[-84.74301,37.66446],[-84.74292,37.66344],[-84.74353,37.66232],[-84.75063,37.65678],[-84.75302,37.65512],[-84.75942,37.65189],[-84.76384,37.64861],[-84.76455,37.64848],[-84.77376,37.64905],[-84.77415,37.64479],[-84.772,37.64465],[-84.77196,37.64507],[-84.77231,37.6451],[-84.77235,37.64467],[-84.77884,37.64509],[-84.77879,37.64561]],"type":"LineString"},"properties":{"color":"#10288E","color_name":"blue","kind":"route","label":"Regional","long":"Danville-Nicholasville-Lexington Regional","route_id":"77003","text_color":"#FFFFFF","type_label":"Bus"},"type":"Feature"},{"geometry":{"coordinates":[-84.479,38.07249],"type":"Point"},"properties":{"kind":"stop","name":"Greyhound Bus Stop New Circle Rd","stop_id":"2320909"},"type":"Feature"},{"geometry":{"coordinates":[-84.5527,38.2183],"type":"Point"},"properties":{"kind":"stop","name":"N Hamilton St at Poplar St","stop_id":"2444422"},"type":"Feature"},{"geometry":{"coordinates":[-84.5617,38.1976],"type":"Point"},"properties":{"kind":"stop","name":"Indian Acres Shopping Center 120 Hiawatha Trail","stop_id":"2444427"},"type":"Feature"},{"geometry":{"coordinates":[-84.5622,38.195],"type":"Point"},"properties":{"kind":"stop","name":"Dollar Stores 857 S Broadway","stop_id":"2444428"},"type":"Feature"},{"geometry":{"coordinates":[-84.5635,38.1915],"type":"Point"},"properties":{"kind":"stop","name":"Scott County Library","stop_id":"2444429"},"type":"Feature"},{"geometry":{"coordinates":[-84.5527,38.1949],"type":"Point"},"properties":{"kind":"stop","name":"Scoggins Pk Dr & Housing Authority","stop_id":"2444431"},"type":"Feature"},{"geometry":{"coordinates":[-84.5545,38.2204],"type":"Point"},"properties":{"kind":"stop","name":"Payne Ave & Northern Hts Dr","stop_id":"2444433"},"type":"Feature"},{"geometry":{"coordinates":[-84.5691,38.1859],"type":"Point"},"properties":{"kind":"stop","name":"Kroger 106 Marketplace Circle","stop_id":"2444438"},"type":"Feature"},{"geometry":{"coordinates":[-84.5434,38.2321],"type":"Point"},"properties":{"kind":"stop","name":"The Pavilion 104 Pavilion Dr","stop_id":"2444443"},"type":"Feature"},{"geometry":{"coordinates":[-84.5381,38.2302],"type":"Point"},"properties":{"kind":"stop","name":"Walmart 112 Osborne Way","stop_id":"2444445"},"type":"Feature"},{"geometry":{"coordinates":[-84.5616,38.1867],"type":"Point"},"properties":{"kind":"stop","name":"Georgetown Community Hospital","stop_id":"2444446"},"type":"Feature"},{"geometry":{"coordinates":[-84.55988,38.19037],"type":"Point"},"properties":{"kind":"stop","name":"Washington Square NB","stop_id":"4149417"},"type":"Feature"},{"geometry":{"coordinates":[-84.56263,38.19765],"type":"Point"},"properties":{"kind":"stop","name":"Indian Acres Shopping Center","stop_id":"4149418"},"type":"Feature"},{"geometry":{"coordinates":[-84.56016,38.20456],"type":"Point"},"properties":{"kind":"stop","name":"S. Broadway & Clayton Ave, NB","stop_id":"4149419"},"type":"Feature"},{"geometry":{"coordinates":[-84.55797,38.21969],"type":"Point"},"properties":{"kind":"stop","name":"Payne Ave & Chestnut St, EB","stop_id":"4149420"},"type":"Feature"},{"geometry":{"coordinates":[-84.55411,38.2154],"type":"Point"},"properties":{"kind":"stop","name":"Teddy Ave & Lynn St, SB","stop_id":"4149421"},"type":"Feature"},{"geometry":{"coordinates":[-84.55411,38.2128],"type":"Point"},"properties":{"kind":"stop","name":"Bourbon St & Penn Alley, WB","stop_id":"4149422"},"type":"Feature"},{"geometry":{"coordinates":[-84.55899,38.21148],"type":"Point"},"properties":{"kind":"stop","name":"Washington & Court St, EB","stop_id":"4149423"},"type":"Feature"},{"geometry":{"coordinates":[-84.55411,38.21268],"type":"Point"},"properties":{"kind":"stop","name":"Bourbon St & Penn Alley, EB","stop_id":"4149424"},"type":"Feature"},{"geometry":{"coordinates":[-84.55402,38.21515],"type":"Point"},"properties":{"kind":"stop","name":"Teddy Ave & Lynn St, NB","stop_id":"4149425"},"type":"Feature"},{"geometry":{"coordinates":[-84.55267,38.21853],"type":"Point"},"properties":{"kind":"stop","name":"Poplar St & Hamilton St, NB","stop_id":"4149426"},"type":"Feature"},{"geometry":{"coordinates":[-84.55377,38.22071],"type":"Point"},"properties":{"kind":"stop","name":"Payne Ave & Poplar St, WB","stop_id":"4149427"},"type":"Feature"},{"geometry":{"coordinates":[-84.55803,38.21975],"type":"Point"},"properties":{"kind":"stop","name":"Payne Ave & Chestnut St, WB","stop_id":"4149428"},"type":"Feature"},{"geometry":{"coordinates":[-84.56005,38.20844],"type":"Point"},"properties":{"kind":"stop","name":"S. Broadway & College St, SB","stop_id":"4149429"},"type":"Feature"},{"geometry":{"coordinates":[-84.56001,38.19023],"type":"Point"},"properties":{"kind":"stop","name":"Washington Square Center, SB","stop_id":"4149430"},"type":"Feature"},{"geometry":{"coordinates":[-84.55083,38.21091],"type":"Point"},"properties":{"kind":"stop","name":"Washington St & Cherry Tree Place Apts, EB","stop_id":"4149431"},"type":"Feature"},{"geometry":{"coordinates":[-84.54462,38.22229],"type":"Point"},"properties":{"kind":"stop","name":"Meyers Dr & Degaris Mill Rd, SB","stop_id":"4149432"},"type":"Feature"},{"geometry":{"coordinates":[-84.51228,38.26738],"type":"Point"},"properties":{"kind":"stop","name":"Technology Ct & Corporate Blvd, NB","stop_id":"4149433"},"type":"Feature"},{"geometry":{"coordinates":[-84.50847,38.26851],"type":"Point"},"properties":{"kind":"stop","name":"Bluegrass Community College","stop_id":"4149434"},"type":"Feature"},{"geometry":{"coordinates":[-84.51736,38.26761],"type":"Point"},"properties":{"kind":"stop","name":"Corporate Blvd & Endeavor Dr, WB","stop_id":"4149435"},"type":"Feature"},{"geometry":{"coordinates":[-84.55676,38.20986],"type":"Point"},"properties":{"kind":"stop","name":"E. Main & Mulberry St, WB","stop_id":"4149437"},"type":"Feature"},{"geometry":{"coordinates":[-84.7718,37.61891],"type":"Point"},"properties":{"kind":"stop","name":"Danville Manor Shopping Center","stop_id":"4212293"},"type":"Feature"},{"geometry":{"coordinates":[-84.77451,37.62264],"type":"Point"},"properties":{"kind":"stop","name":"Hustonville Rd & Aaron Rents","stop_id":"4212294"},"type":"Feature"},{"geometry":{"coordinates":[-84.77628,37.62807],"type":"Point"},"properties":{"kind":"stop","name":"Southland Plaza","stop_id":"4212295"},"type":"Feature"},{"geometry":{"coordinates":[-84.76408,37.62848],"type":"Point"},"properties":{"kind":"stop","name":"Baughman Ave & Vail Dr","stop_id":"4212296"},"type":"Feature"},{"geometry":{"coordinates":[-84.76732,37.62845],"type":"Point"},"properties":{"kind":"stop","name":"Baughman Ave & Aspen Dr","stop_id":"4212297"},"type":"Feature"},{"geometry":{"coordinates":[-84.77159,37.63586],"type":"Point"},"properties":{"kind":"stop","name":"S. 2nd St & J E Woods Dr","stop_id":"4212298"},"type":"Feature"},{"geometry":{"coordinates":[-84.77313,37.63778],"type":"Point"},"properties":{"kind":"stop","name":"S. 3rd St & McGrath St","stop_id":"4212299"},"type":"Feature"},{"geometry":{"coordinates":[-84.77288,37.64047],"type":"Point"},"properties":{"kind":"stop","name":"S. 3rd St & Jacob St","stop_id":"4212300"},"type":"Feature"},{"geometry":{"coordinates":[-84.77459,37.64094],"type":"Point"},"properties":{"kind":"stop","name":"S. 4th St & Russell St","stop_id":"4212302"},"type":"Feature"},{"geometry":{"coordinates":[-84.77489,37.63773],"type":"Point"},"properties":{"kind":"stop","name":"S. 4th St & Fryes Ln","stop_id":"4212303"},"type":"Feature"},{"geometry":{"coordinates":[-84.77178,37.63571],"type":"Point"},"properties":{"kind":"stop","name":"S. 2nd St & J E Woods Dr,","stop_id":"4212304"},"type":"Feature"},{"geometry":{"coordinates":[-84.77617,37.63015],"type":"Point"},"properties":{"kind":"stop","name":"Aldi","stop_id":"4212305"},"type":"Feature"},{"geometry":{"coordinates":[-84.77472,37.6216],"type":"Point"},"properties":{"kind":"stop","name":"Hustonville Rd & O'Reilly Auto","stop_id":"4212306"},"type":"Feature"},{"geometry":{"coordinates":[-84.768,37.64518],"type":"Point"},"properties":{"kind":"stop","name":"Post Office","stop_id":"4212307"},"type":"Feature"},{"geometry":{"coordinates":[-84.76384,37.6418],"type":"Point"},"properties":{"kind":"stop","name":"Stanford Ave & Alta Ave","stop_id":"4212308"},"type":"Feature"},{"geometry":{"coordinates":[-84.7601,37.64392],"type":"Point"},"properties":{"kind":"stop","name":"E. Walnut St & Bruce Ct","stop_id":"4212309"},"type":"Feature"},{"geometry":{"coordinates":[-84.74892,37.64644],"type":"Point"},"properties":{"kind":"stop","name":"Hill-N-Dale St & Burckley Dr","stop_id":"4212310"},"type":"Feature"},{"geometry":{"coordinates":[-84.7491,37.64645],"type":"Point"},"properties":{"kind":"stop","name":"Hill-N-Dale St & Burckley Dr","stop_id":"4212311"},"type":"Feature"},{"geometry":{"coordinates":[-84.76024,37.64399],"type":"Point"},"properties":{"kind":"stop","name":"E. Walnut St & Bruce Ct","stop_id":"4212312"},"type":"Feature"},{"geometry":{"coordinates":[-84.7636,37.64189],"type":"Point"},"properties":{"kind":"stop","name":"Stanford Ave & Alta Ave","stop_id":"4212313"},"type":"Feature"},{"geometry":{"coordinates":[-84.7686,37.64591],"type":"Point"},"properties":{"kind":"stop","name":"Dollar General","stop_id":"4212314"},"type":"Feature"},{"geometry":{"coordinates":[-84.77862,37.64515],"type":"Point"},"properties":{"kind":"stop","name":"Walnut St & College St","stop_id":"4212315"},"type":"Feature"},{"geometry":{"coordinates":[-84.78561,37.65212],"type":"Point"},"properties":{"kind":"stop","name":"Crescent Dr and Harding St","stop_id":"4212316"},"type":"Feature"},{"geometry":{"coordinates":[-84.79026,37.64861],"type":"Point"},"properties":{"kind":"stop","name":"Morning Pointe Senior Living","stop_id":"4212317"},"type":"Feature"},{"geometry":{"coordinates":[-84.80434,37.64706],"type":"Point"},"properties":{"kind":"stop","name":"Big Lots","stop_id":"4212318"},"type":"Feature"},{"geometry":{"coordinates":[-84.80497,37.651],"type":"Point"},"properties":{"kind":"stop","name":"Vendor's Village","stop_id":"4212319"},"type":"Feature"},{"geometry":{"coordinates":[-84.8029,37.65442],"type":"Point"},"properties":{"kind":"stop","name":"Ben Ali Dr & Citation Dr","stop_id":"4212320"},"type":"Feature"},{"geometry":{"coordinates":[-84.77891,37.64527],"type":"Point"},"properties":{"kind":"stop","name":"Walnut St & College St","stop_id":"4212321"},"type":"Feature"},{"geometry":{"coordinates":[-84.56609,37.90061],"type":"Point"},"properties":{"kind":"stop","name":"Bypass Plaza (Heritage Credit Union)","stop_id":"4245761"},"type":"Feature"},{"geometry":{"coordinates":[-84.56665,37.89807],"type":"Point"},"properties":{"kind":"stop","name":"Imperial Way & Bret Ln","stop_id":"4245762"},"type":"Feature"},{"geometry":{"coordinates":[-84.56462,37.89701],"type":"Point"},"properties":{"kind":"stop","name":"Peachtree Rd & Lemon Dr","stop_id":"4245763"},"type":"Feature"},{"geometry":{"coordinates":[-84.56333,37.8951],"type":"Point"},"properties":{"kind":"stop","name":"Peachtree Rd & Grapevine Ct","stop_id":"4245764"},"type":"Feature"},{"geometry":{"coordinates":[-84.56596,37.89411],"type":"Point"},"properties":{"kind":"stop","name":"Orchard Dr & Blueberry Ln","stop_id":"4245765"},"type":"Feature"},{"geometry":{"coordinates":[-84.56829,37.88941],"type":"Point"},"properties":{"kind":"stop","name":"Duncan St & Lakeview Dr","stop_id":"4245766"},"type":"Feature"},{"geometry":{"coordinates":[-84.56814,37.88768],"type":"Point"},"properties":{"kind":"stop","name":"Lakeview Dr & Nave Pl","stop_id":"4245767"},"type":"Feature"},{"geometry":{"coordinates":[-84.57085,37.88649],"type":"Point"},"properties":{"kind":"stop","name":"Stratton Ave & Main","stop_id":"4245768"},"type":"Feature"},{"geometry":{"coordinates":[-84.57226,37.88122],"type":"Point"},"properties":{"kind":"stop","name":"Downtown Transfer Stop","stop_id":"4245769"},"type":"Feature"},{"geometry":{"coordinates":[-84.57178,37.88286],"type":"Point"},"properties":{"kind":"stop","name":"N Main & CVS","stop_id":"4245770"},"type":"Feature"},{"geometry":{"coordinates":[-84.56951,37.88591],"type":"Point"},"properties":{"kind":"stop","name":"N. Main & Ross St","stop_id":"4245771"},"type":"Feature"},{"geometry":{"coordinates":[-84.56802,37.88764],"type":"Point"},"properties":{"kind":"stop","name":"Lakeview Dr & Nave Pl","stop_id":"4245772"},"type":"Feature"},{"geometry":{"coordinates":[-84.56825,37.8895],"type":"Point"},"properties":{"kind":"stop","name":"Duncan St & Lakeview Dr","stop_id":"4245773"},"type":"Feature"},{"geometry":{"coordinates":[-84.5665,37.89406],"type":"Point"},"properties":{"kind":"stop","name":"Orchard Dr & Blueberry Ln","stop_id":"4245774"},"type":"Feature"},{"geometry":{"coordinates":[-84.56318,37.89515],"type":"Point"},"properties":{"kind":"stop","name":"Peachtree Rd & Grapevine Ct","stop_id":"4245775"},"type":"Feature"},{"geometry":{"coordinates":[-84.56352,37.8971],"type":"Point"},"properties":{"kind":"stop","name":"Peachtree Rd & Lemon Dr","stop_id":"4245776"},"type":"Feature"},{"geometry":{"coordinates":[-84.57265,37.87953],"type":"Point"},"properties":{"kind":"stop","name":"York & Chestnut","stop_id":"4245779"},"type":"Feature"},{"geometry":{"coordinates":[-84.57523,37.8751],"type":"Point"},"properties":{"kind":"stop","name":"S. Main & Family Dollar","stop_id":"4245780"},"type":"Feature"},{"geometry":{"coordinates":[-84.57834,37.86986],"type":"Point"},"properties":{"kind":"stop","name":"Main & Edgewood Plaza","stop_id":"4245781"},"type":"Feature"},{"geometry":{"coordinates":[-84.57946,37.86707],"type":"Point"},"properties":{"kind":"stop","name":"S. Main & Walgreens","stop_id":"4245782"},"type":"Feature"},{"geometry":{"coordinates":[-84.5722,37.86421],"type":"Point"},"properties":{"kind":"stop","name":"Longview Dr & Lynwood","stop_id":"4245783"},"type":"Feature"},{"geometry":{"coordinates":[-84.56516,37.86611],"type":"Point"},"properties":{"kind":"stop","name":"Miles Rd & Beechwood Dr","stop_id":"4245784"},"type":"Feature"},{"geometry":{"coordinates":[-84.56498,37.86861],"type":"Point"},"properties":{"kind":"stop","name":"Miles Rd & Willams","stop_id":"4245785"},"type":"Feature"},{"geometry":{"coordinates":[-84.57103,37.86755],"type":"Point"},"properties":{"kind":"stop","name":"Nelson Pk Dr & Lynnwood","stop_id":"4245786"},"type":"Feature"},{"geometry":{"coordinates":[-84.57228,37.86456],"type":"Point"},"properties":{"kind":"stop","name":"Lynwood Dr & Longview","stop_id":"4245787"},"type":"Feature"},{"geometry":{"coordinates":[-84.57746,37.86885],"type":"Point"},"properties":{"kind":"stop","name":"S Main & Edgewood","stop_id":"4245788"},"type":"Feature"},{"geometry":{"coordinates":[-84.57428,37.87971],"type":"Point"},"properties":{"kind":"stop","name":"Chestnut & 1st","stop_id":"4245790"},"type":"Feature"},{"geometry":{"coordinates":[-84.57963,37.87923],"type":"Point"},"properties":{"kind":"stop","name":"Broadway & 5th St","stop_id":"4245791"},"type":"Feature"},{"geometry":{"coordinates":[-84.58239,37.8793],"type":"Point"},"properties":{"kind":"stop","name":"Cypress St & Broadway","stop_id":"4245792"},"type":"Feature"},{"geometry":{"coordinates":[-84.59318,37.87793],"type":"Point"},"properties":{"kind":"stop","name":"Wichita Dr & Hickory Hill Rd","stop_id":"4245793"},"type":"Feature"},{"geometry":{"coordinates":[-84.58838,37.87592],"type":"Point"},"properties":{"kind":"stop","name":"Hickory Hill & Shun Rd","stop_id":"4245794"},"type":"Feature"},{"geometry":{"coordinates":[-84.59071,37.87158],"type":"Point"},"properties":{"kind":"stop","name":"Shun Rd & Edgewood","stop_id":"4245795"},"type":"Feature"},{"geometry":{"coordinates":[-84.59845,37.87301],"type":"Point"},"properties":{"kind":"stop","name":"Save-A-Lot","stop_id":"4245796"},"type":"Feature"},{"geometry":{"coordinates":[-84.58107,37.86692],"type":"Point"},"properties":{"kind":"stop","name":"Southview Dr & Rebel","stop_id":"4245797"},"type":"Feature"},{"geometry":{"coordinates":[-84.58583,37.87004],"type":"Point"},"properties":{"kind":"stop","name":"Edgewood Dr & Bellechase Ln","stop_id":"4245799"},"type":"Feature"},{"geometry":{"coordinates":[-84.57449,37.87965],"type":"Point"},"properties":{"kind":"stop","name":"Chestnut & 1st","stop_id":"4245804"},"type":"Feature"},{"geometry":{"coordinates":[-84.58227,37.87925],"type":"Point"},"properties":{"kind":"stop","name":"Cypress St & Broadway","stop_id":"4245805"},"type":"Feature"},{"geometry":{"coordinates":[-84.58871,37.87618],"type":"Point"},"properties":{"kind":"stop","name":"Hickory Hill & Shun Rd","stop_id":"4245806"},"type":"Feature"},{"geometry":{"coordinates":[-84.59054,37.87159],"type":"Point"},"properties":{"kind":"stop","name":"Shun Rd & Edgewood","stop_id":"4245807"},"type":"Feature"},{"geometry":{"coordinates":[-84.58983,37.87923],"type":"Point"},"properties":{"kind":"stop","name":"Witchita & Auburn","stop_id":"4245809"},"type":"Feature"},{"geometry":{"coordinates":[-84.50013,38.06239],"type":"Point"},"properties":{"kind":"stop","name":"BCTC - Northbound","stop_id":"4245810"},"type":"Feature"},{"geometry":{"coordinates":[-84.50074,38.06126],"type":"Point"},"properties":{"kind":"stop","name":"BCTC - Southbound","stop_id":"4245811"},"type":"Feature"},{"geometry":{"coordinates":[-84.50894,38.03098],"type":"Point"},"properties":{"kind":"stop","name":"UK Chandler Hospital Pavilion A","stop_id":"4245812"},"type":"Feature"},{"geometry":{"coordinates":[-84.53382,37.95618],"type":"Point"},"properties":{"kind":"stop","name":"Brannon Crossing (Goodwill)","stop_id":"4245813"},"type":"Feature"},{"geometry":{"coordinates":[-84.53284,37.9542],"type":"Point"},"properties":{"kind":"stop","name":"Brannon Crossing (Hobby Lobby)","stop_id":"4245814"},"type":"Feature"},{"geometry":{"coordinates":[-84.59311,37.87782],"type":"Point"},"properties":{"kind":"stop","name":"Wichita Dr & Hickory Hill Rd","stop_id":"845087"},"type":"Feature"},{"geometry":{"coordinates":[-84.56913,37.86587],"type":"Point"},"properties":{"kind":"stop","name":"Birch Dr & Beechwood","stop_id":"845088"},"type":"Feature"},{"geometry":{"coordinates":[-84.58582,37.86991],"type":"Point"},"properties":{"kind":"stop","name":"Edgewood Dr & Bellechase Ln","stop_id":"845093"},"type":"Feature"},{"geometry":{"coordinates":[-84.77337,37.64751],"type":"Point"},"properties":{"kind":"stop","name":"Boyle County Public Library","stop_id":"845102"},"type":"Feature"},{"geometry":{"coordinates":[-84.77209,37.64491],"type":"Point"},"properties":{"kind":"stop","name":"Danville Downtown Transfer Stop","stop_id":"845103"},"type":"Feature"},{"geometry":{"coordinates":[-84.77888,37.64561],"type":"Point"},"properties":{"kind":"stop","name":"Centre College","stop_id":"845104"},"type":"Feature"},{"geometry":{"coordinates":[-84.56449,37.90134],"type":"Point"},"properties":{"kind":"stop","name":"Goodwill","stop_id":"845108"},"type":"Feature"},{"geometry":{"coordinates":[-84.57563,37.87298],"type":"Point"},"properties":{"kind":"stop","name":"Jessamine County Library","stop_id":"845111"},"type":"Feature"},{"geometry":{"coordinates":[-84.78316,37.61797],"type":"Point"},"properties":{"kind":"stop","name":"Kroger","stop_id":"845115"},"type":"Feature"},{"geometry":{"coordinates":[-84.58079,37.86519],"type":"Point"},"properties":{"kind":"stop","name":"Kroger Plaza","stop_id":"845116"},"type":"Feature"},{"geometry":{"coordinates":[-84.49589,38.0434],"type":"Point"},"properties":{"kind":"stop","name":"LexTran Transit Center","stop_id":"845118"},"type":"Feature"},{"geometry":{"coordinates":[-84.7574,37.6356],"type":"Point"},"properties":{"kind":"stop","name":"McClure Dr & Stanford Dr (Village Apts)","stop_id":"845119"},"type":"Feature"},{"geometry":{"coordinates":[-84.75276,37.65639],"type":"Point"},"properties":{"kind":"stop","name":"Save A Lot","stop_id":"845120"},"type":"Feature"},{"geometry":{"coordinates":[-84.77892,37.65244],"type":"Point"},"properties":{"kind":"stop","name":"Holladay Dr & High St","stop_id":"845121"},"type":"Feature"},{"geometry":{"coordinates":[-84.57434,37.87555],"type":"Point"},"properties":{"kind":"stop","name":"US Post Office","stop_id":"845123"},"type":"Feature"},{"geometry":{"coordinates":[-84.77136,37.61527],"type":"Point"},"properties":{"kind":"stop","name":"Walmart","stop_id":"845124"},"type":"Feature"},{"geometry":{"coordinates":[-84.56247,37.89985],"type":"Point"},"properties":{"kind":"stop","name":"WalMart (Nicholasville)","stop_id":"845125"},"type":"Feature"},{"geometry":{"coordinates":[-84.59,37.87926],"type":"Point"},"properties":{"kind":"stop","name":"Wichita & Auburn","stop_id":"845127"},"type":"Feature"}],"type":"FeatureCollection"}
