{"features":[{"geometry":{"coordinates":[[-118.3117,34.18104],[-118.31203,34.17799],[-118.31244,34.17751],[-118.32959,34.16109],[-118.32826,34.15827],[-118.33503,34.15594],[-118.33925,34.15219],[-118.33983,34.15294],[-118.34306,34.15195],[-118.34557,34.15242],[-118.34608,34.15228],[-118.36137,34.15221],[-118.36154,34.15207],[-118.36155,34.14358],[-118.36172,34.14332],[-118.36114,34.14204],[-118.3611,34.14134],[-118.36223,34.13927],[-118.36238,34.13918],[-118.36343,34.13957],[-118.36384,34.13917],[-118.36329,34.13859],[-118.36285,34.13844],[-118.3628,34.13859],[-118.36358,34.13942],[-118.36211,34.13909],[-118.36093,34.14114],[-118.36091,34.14205],[-118.36141,34.14307],[-118.36144,34.14351],[-118.36141,34.15208],[-118.34552,34.15228],[-118.3436,34.15183],[-118.34294,34.15188],[-118.33994,34.15285],[-118.33938,34.1521],[-118.33904,34.15203],[-118.33501,34.15589],[-118.32811,34.15824],[-118.32944,34.16116],[-118.31444,34.17531],[-118.31182,34.17785],[-118.31191,34.178]],"type":"LineString"},"properties":{"color":"#FF47C8","color_name":"pink","kind":"route","label":"P","long":"P - Pink Route","route_id":"3162","text_color":"#FFFFFF","type_label":"Bus"},"type":"Feature"},{"geometry":{"coordinates":[[-118.3753,34.16891],[-118.37602,34.16891],[-118.37605,34.16874],[-118.37431,34.16869],[-118.37426,34.16814],[-118.37034,34.16817],[-118.37018,34.17211],[-118.3579,34.17212],[-118.33805,34.17877],[-118.33837,34.17969],[-118.33838,34.18063],[-118.3382,34.19011],[-118.338,34.19184],[-118.34455,34.19207],[-118.34451,34.19563],[-118.34897,34.19569],[-118.34907,34.19359],[-118.35126,34.19361],[-118.35169,34.19357],[-118.3517,34.19335],[-118.35144,34.19326],[-118.35129,34.19357],[-118.3508,34.19359],[-118.34896,34.19343],[-118.34942,34.17503],[-118.35793,34.17225],[-118.37035,34.17215],[-118.37049,34.16824],[-118.37419,34.16821],[-118.37427,34.16891],[-118.3753,34.16891]],"type":"LineString"},"properties":{"color":"#FF6905","color_name":"orange","kind":"route","label":"O","long":"O - North Hollywood to Airport","route_id":"3163","text_color":"#FFFFFF","type_label":"Bus"},"type":"Feature"},{"geometry":{"coordinates":[-118.3117,34.18104],"type":"Point"},"properties":{"kind":"stop","name":"Metrolink Station","stop_id":"3067453"},"type":"Feature"},{"geometry":{"coordinates":[-118.34218,34.19202],"type":"Point"},"properties":{"kind":"stop","name":"Empire and Niagara","stop_id":"3067456"},"type":"Feature"},{"geometry":{"coordinates":[-118.34437,34.19205],"type":"Point"},"properties":{"kind":"stop","name":"Empire & Ontario","stop_id":"3067457"},"type":"Feature"},{"geometry":{"coordinates":[-118.34482,34.19569],"type":"Point"},"properties":{"kind":"stop","name":"Ontario & Thornton","stop_id":"3067458"},"type":"Feature"},{"geometry":{"coordinates":[-118.31423,34.1758],"type":"Point"},"properties":{"kind":"stop","name":"Olive & Lake SB","stop_id":"3068080"},"type":"Feature"},{"geometry":{"coordinates":[-118.31621,34.17393],"type":"Point"},"properties":{"kind":"stop","name":"Olive & Victory SB","stop_id":"3068081"},"type":"Feature"},{"geometry":{"coordinates":[-118.32,34.17033],"type":"Point"},"properties":{"kind":"stop","name":"Olive & Joslyn Center","stop_id":"3068082"},"type":"Feature"},{"geometry":{"coordinates":[-118.32266,34.16785],"type":"Point"},"properties":{"kind":"stop","name":"Olive & Verdugo","stop_id":"3068083"},"type":"Feature"},{"geometry":{"coordinates":[-118.32619,34.16448],"type":"Point"},"properties":{"kind":"stop","name":"Olive & Keystone SB","stop_id":"3068085"},"type":"Feature"},{"geometry":{"coordinates":[-118.32949,34.16074],"type":"Point"},"properties":{"kind":"stop","name":"Buena Vista & Olive SB","stop_id":"3068086"},"type":"Feature"},{"geometry":{"coordinates":[-118.32838,34.1585],"type":"Point"},"properties":{"kind":"stop","name":"Buena Vista & Alameda SB","stop_id":"3068087"},"type":"Feature"},{"geometry":{"coordinates":[-118.33263,34.15681],"type":"Point"},"properties":{"kind":"stop","name":"Alameda & Bob Hope SB","stop_id":"3068088"},"type":"Feature"},{"geometry":{"coordinates":[-118.3367,34.1545],"type":"Point"},"properties":{"kind":"stop","name":"Olive & Cailfornia","stop_id":"3068089"},"type":"Feature"},{"geometry":{"coordinates":[-118.33908,34.1523],"type":"Point"},"properties":{"kind":"stop","name":"Olive & Hollywood Way","stop_id":"3068092"},"type":"Feature"},{"geometry":{"coordinates":[-118.32815,34.15851],"type":"Point"},"properties":{"kind":"stop","name":"Buena Vista & Alameda NB","stop_id":"3068099"},"type":"Feature"},{"geometry":{"coordinates":[-118.32936,34.161],"type":"Point"},"properties":{"kind":"stop","name":"Buena Vista & Olive NB","stop_id":"3068100"},"type":"Feature"},{"geometry":{"coordinates":[-118.32634,34.16407],"type":"Point"},"properties":{"kind":"stop","name":"Olive & Keystone NB","stop_id":"3068101"},"type":"Feature"},{"geometry":{"coordinates":[-118.32271,34.16751],"type":"Point"},"properties":{"kind":"stop","name":"Olive & Verdugo NB","stop_id":"3068103"},"type":"Feature"},{"geometry":{"coordinates":[-118.31946,34.17059],"type":"Point"},"properties":{"kind":"stop","name":"Olive & Virginia","stop_id":"3068104"},"type":"Feature"},{"geometry":{"coordinates":[-118.31601,34.17383],"type":"Point"},"properties":{"kind":"stop","name":"Olive & Victory NB","stop_id":"3068105"},"type":"Feature"},{"geometry":{"coordinates":[-118.31444,34.17531],"type":"Point"},"properties":{"kind":"stop","name":"Olive & Lake NB","stop_id":"3068106"},"type":"Feature"},{"geometry":{"coordinates":[-118.3753,34.16891],"type":"Point"},"properties":{"kind":"stop","name":"NoHo Station","stop_id":"3068903"},"type":"Feature"},{"geometry":{"coordinates":[-118.35678,34.17242],"type":"Point"},"properties":{"kind":"stop","name":"Burbank & Whitehall","stop_id":"3068904"},"type":"Feature"},{"geometry":{"coordinates":[-118.35362,34.17349],"type":"Point"},"properties":{"kind":"stop","name":"Burbank & Pass","stop_id":"3068905"},"type":"Feature"},{"geometry":{"coordinates":[-118.34438,34.17659],"type":"Point"},"properties":{"kind":"stop","name":"Burbank & Fairview","stop_id":"3068906"},"type":"Feature"},{"geometry":{"coordinates":[-118.34082,34.17777],"type":"Point"},"properties":{"kind":"stop","name":"Burbank & Florence","stop_id":"3068907"},"type":"Feature"},{"geometry":{"coordinates":[-118.33809,34.17906],"type":"Point"},"properties":{"kind":"stop","name":"Burbank & Buena Vista","stop_id":"3068908"},"type":"Feature"},{"geometry":{"coordinates":[-118.33826,34.18435],"type":"Point"},"properties":{"kind":"stop","name":"Buena Vista & Victory","stop_id":"3068909"},"type":"Feature"},{"geometry":{"coordinates":[-118.3382,34.18806],"type":"Point"},"properties":{"kind":"stop","name":"Buena Vista & Pacific","stop_id":"3068910"},"type":"Feature"},{"geometry":{"coordinates":[-118.33848,34.19197],"type":"Point"},"properties":{"kind":"stop","name":"Empire & Buena Vista","stop_id":"3068911"},"type":"Feature"},{"geometry":{"coordinates":[-118.3513,34.19349],"type":"Point"},"properties":{"kind":"stop","name":"Hollywood Burbank Airport RITC","stop_id":"3068912"},"type":"Feature"},{"geometry":{"coordinates":[-118.34914,34.18993],"type":"Point"},"properties":{"kind":"stop","name":"Hollywood & Valhalla","stop_id":"3068913"},"type":"Feature"},{"geometry":{"coordinates":[-118.34919,34.18855],"type":"Point"},"properties":{"kind":"stop","name":"Hollywood & Pacific","stop_id":"3068914"},"type":"Feature"},{"geometry":{"coordinates":[-118.34924,34.18501],"type":"Point"},"properties":{"kind":"stop","name":"Hollywood & Victory","stop_id":"3068915"},"type":"Feature"},{"geometry":{"coordinates":[-118.34932,34.18127],"type":"Point"},"properties":{"kind":"stop","name":"Hollywood & Jeffries","stop_id":"3068916"},"type":"Feature"},{"geometry":{"coordinates":[-118.34944,34.17527],"type":"Point"},"properties":{"kind":"stop","name":"Hollywood & Burbank","stop_id":"3068917"},"type":"Feature"},{"geometry":{"coordinates":[-118.35398,34.17355],"type":"Point"},"properties":{"kind":"stop","name":"Burbank & Maple","stop_id":"3068918"},"type":"Feature"},{"geometry":{"coordinates":[-118.35757,34.17235],"type":"Point"},"properties":{"kind":"stop","name":"Burbank & Clybourn","stop_id":"3068919"},"type":"Feature"},{"geometry":{"coordinates":[-118.34964,34.1748],"type":"Point"},"properties":{"kind":"stop","name":"Burbank & Hollywood","stop_id":"3145709"},"type":"Feature"},{"geometry":{"coordinates":[-118.34434,34.15214],"type":"Point"},"properties":{"kind":"stop","name":"Riverside & Pass","stop_id":"5625330"},"type":"Feature"},{"geometry":{"coordinates":[-118.35103,34.15232],"type":"Point"},"properties":{"kind":"stop","name":"Riverside & Mariota","stop_id":"5625331"},"type":"Feature"},{"geometry":{"coordinates":[-118.36329,34.13859],"type":"Point"},"properties":{"kind":"stop","name":"Universal Redline Station","stop_id":"5625332"},"type":"Feature"},{"geometry":{"coordinates":[-118.35031,34.15213],"type":"Point"},"properties":{"kind":"stop","name":"Riverside & Mariota","stop_id":"5625333"},"type":"Feature"},{"geometry":{"coordinates":[-118.34416,34.15191],"type":"Point"},"properties":{"kind":"stop","name":"Riverside & Pass","stop_id":"5625334"},"type":"Feature"},{"geometry":{"coordinates":[-118.33904,34.15203],"type":"Point"},"properties":{"kind":"stop","name":"Hollywood & Olive EB","stop_id":"5625335"},"type":"Feature"},{"geometry":{"coordinates":[-118.33631,34.15461],"type":"Point"},"properties":{"kind":"stop","name":"Olive & California EB","stop_id":"5625336"},"type":"Feature"},{"geometry":{"coordinates":[-118.33249,34.15668],"type":"Point"},"properties":{"kind":"stop","name":"Alameda & Bob Hope EB","stop_id":"5625513"},"type":"Feature"}],"type":"FeatureCollection"}
