{"features":[{"geometry":{"coordinates":[[-83.74435,42.26436],[-83.74422,42.26443],[-83.74541,42.26645],[-83.74634,42.2665],[-83.74648,42.26736],[-83.74712,42.26796],[-83.74746,42.26801],[-83.7475,42.26944],[-83.74058,42.26971],[-83.74073,42.27627],[-83.74061,42.27627],[-83.74073,42.27627],[-83.74078,42.27858],[-83.73619,42.27856],[-83.73434,42.27741],[-83.7333,42.27743],[-83.73345,42.28078],[-83.73374,42.28123],[-83.73353,42.28147],[-83.73355,42.28229],[-83.73131,42.28231],[-83.73111,42.28135],[-83.72676,42.28145],[-83.72619,42.28191],[-83.72613,42.28233],[-83.72778,42.28496],[-83.72865,42.28532],[-83.73146,42.28543],[-83.73191,42.28566],[-83.73247,42.28644],[-83.72916,42.28685],[-83.71902,42.28735],[-83.71895,42.28788],[-83.71932,42.28935],[-83.71896,42.28994],[-83.71815,42.29023],[-83.71375,42.29021],[-83.71246,42.29043],[-83.71206,42.29076],[-83.71196,42.29116],[-83.71274,42.29233],[-83.7125,42.29398],[-83.70965,42.29406],[-83.70877,42.29454],[-83.70788,42.29539],[-83.70697,42.29568],[-83.7049,42.29535],[-83.70492,42.2943],[-83.70552,42.29289],[-83.70554,42.2923],[-83.70449,42.29041],[-83.70371,42.28781],[-83.70661,42.28774],[-83.70648,42.2888],[-83.70623,42.28923]],"type":"LineString"},"properties":{"color":"#882E72","color_name":"purple","kind":"route","label":"CN","long":"Commuter North","route_id":"CN","text_color":"#000000","type_label":"Bus"},"type":"Feature"},{"geometry":{"coordinates":[[-83.70623,42.28923],[-83.70598,42.28983],[-83.70501,42.28984],[-83.70497,42.2887],[-83.7047,42.2878],[-83.71144,42.28756],[-83.71209,42.28722],[-83.71254,42.2875],[-83.713,42.28751],[-83.71302,42.29039],[-83.71882,42.29036],[-83.71953,42.29009],[-83.71986,42.28953],[-83.71916,42.28733],[-83.72958,42.28703],[-83.73252,42.28653],[-83.73211,42.28585],[-83.73152,42.28545],[-83.73091,42.28527],[-83.72864,42.28534],[-83.72777,42.28499],[-83.72613,42.28233],[-83.72619,42.28191],[-83.72676,42.28145],[-83.7311,42.28144],[-83.73098,42.28237],[-83.73122,42.2825],[-83.73357,42.2823],[-83.73353,42.28151],[-83.73373,42.28135],[-83.73721,42.28128],[-83.7371,42.27856],[-83.73593,42.27849],[-83.73455,42.2775],[-83.73468,42.2773],[-83.73458,42.27377],[-83.73579,42.27378],[-83.73581,42.27499],[-83.7407,42.27492],[-83.74058,42.2697],[-83.74751,42.26944],[-83.74747,42.26802],[-83.74712,42.26796],[-83.74648,42.26736],[-83.74635,42.26648],[-83.74539,42.26646],[-83.74455,42.26497],[-83.7449,42.26438],[-83.74435,42.26436]],"type":"LineString"},"properties":{"color":"#1965B0","color_name":"teal","kind":"route","label":"CS","long":"Commuter South","route_id":"CS","text_color":"#FFFFFF","type_label":"Bus"},"type":"Feature"},{"geometry":{"coordinates":[[-83.73091,42.28527],[-83.72864,42.28534],[-83.72773,42.28496],[-83.72732,42.28439],[-83.72718,42.28405],[-83.72731,42.28402],[-83.72609,42.28224],[-83.72624,42.28183],[-83.72676,42.28145],[-83.7311,42.28144],[-83.73098,42.28237],[-83.73122,42.2825],[-83.73357,42.2823],[-83.73353,42.28151],[-83.73378,42.28134],[-83.7409,42.28119],[-83.74605,42.28138],[-83.74653,42.27174],[-83.74759,42.2717],[-83.74755,42.26852],[-83.74747,42.26802],[-83.74712,42.26796],[-83.74643,42.26728],[-83.74635,42.26648],[-83.74539,42.26646],[-83.74455,42.26497],[-83.7449,42.26438],[-83.74435,42.26436]],"type":"LineString"},"properties":{"color":"#777777","color_name":"gray","kind":"route","label":"CSX","long":"Crisler Express","route_id":"CSX","text_color":"#000000","type_label":"Bus"},"type":"Feature"},{"geometry":{"coordinates":[[-83.731,42.2818],[-83.7311,42.2825],[-83.73133,42.28241],[-83.7311,42.28136],[-83.72676,42.28145],[-83.72624,42.28183],[-83.72609,42.28224],[-83.72777,42.28499],[-83.72864,42.28534],[-83.73133,42.28539],[-83.73195,42.2857],[-83.73247,42.28644],[-83.72956,42.28681],[-83.72454,42.28712],[-83.713,42.28751],[-83.71301,42.29029],[-83.71223,42.29058],[-83.71195,42.29108],[-83.71272,42.29233],[-83.71251,42.29398],[-83.70965,42.29406],[-83.7074,42.2956],[-83.70646,42.29569],[-83.70489,42.29534],[-83.70487,42.29451],[-83.70551,42.2929],[-83.70551,42.29217],[-83.70449,42.29043],[-83.7037,42.28781],[-83.70661,42.28775],[-83.70649,42.28876],[-83.70623,42.28923]],"type":"LineString"},"properties":{"color":"#DC050C","color_name":"red","kind":"route","label":"MX","long":"Med Express","route_id":"MX","text_color":"#000000","type_label":"Bus"},"type":"Feature"},{"geometry":{"coordinates":[[-83.67399,42.30819],[-83.67396,42.30855],[-83.67638,42.30775],[-83.67609,42.3072],[-83.67694,42.30704],[-83.67699,42.30839],[-83.6776,42.3098],[-83.67681,42.31029],[-83.67634,42.31023],[-83.67626,42.31072],[-83.67675,42.31074],[-83.67681,42.31029],[-83.67785,42.31026],[-83.67838,42.3111],[-83.68023,42.31302],[-83.6814,42.31262],[-83.68231,42.3126],[-83.68336,42.31296],[-83.68387,42.31342],[-83.68415,42.31411],[-83.68328,42.31475],[-83.68326,42.31594],[-83.68354,42.31604],[-83.68462,42.31562],[-83.68465,42.31612],[-83.68439,42.31668],[-83.68335,42.3172],[-83.68341,42.32133],[-83.68369,42.32219],[-83.68468,42.32295],[-83.68431,42.32332],[-83.68339,42.32358],[-83.68264,42.32265],[-83.68163,42.32213],[-83.6822,42.32114],[-83.68204,42.31787],[-83.68043,42.31735],[-83.67909,42.31738],[-83.67953,42.31665],[-83.68053,42.31567],[-83.68077,42.31467],[-83.68016,42.31289],[-83.67838,42.3111],[-83.67759,42.30933],[-83.68912,42.30605],[-83.68895,42.30563],[-83.6881,42.30584],[-83.68852,42.30597],[-83.68877,42.30579],[-83.68892,42.3061],[-83.6929,42.30502],[-83.69305,42.30564],[-83.69262,42.30691],[-83.69279,42.30837],[-83.6958,42.30828],[-83.69626,42.30775],[-83.69627,42.30695],[-83.69652,42.30695],[-83.69648,42.30573],[-83.69623,42.30573],[-83.69626,42.30775],[-83.69592,42.30816],[-83.69534,42.30833],[-83.69279,42.30837],[-83.69263,42.30676],[-83.69306,42.30557],[-83.6927,42.3045],[-83.69261,42.30057],[-83.69309,42.30058],[-83.69316,42.30015],[-83.69308,42.29993],[-83.6926,42.29994],[-83.69255,42.29779],[-83.69891,42.298],[-83.70131,42.29732],[-83.70148,42.29701],[-83.70347,42.29697],[-83.70378,42.2973],[-83.70448,42.29749],[-83.70425,42.29841],[-83.70426,42.30109],[-83.70718,42.30113],[-83.70707,42.30068],[-83.70644,42.30071],[-83.70641,42.30112],[-83.70479,42.30112],[-83.70483,42.29844],[-83.70523,42.29791],[-83.70576,42.29762],[-83.70649,42.29743],[-83.70807,42.29743],[-83.70794,42.29672],[-83.70655,42.2961],[-83.70664,42.29569],[-83.70774,42.29547],[-83.70877,42.29454],[-83.70965,42.29406],[-83.7125,42.29398],[-83.71274,42.29233],[-83.71207,42.29145],[-83.71196,42.29102],[-83.71246,42.29043],[-83.71302,42.29039],[-83.71306,42.28854],[-83.71301,42.2875],[-83.71212,42.2872],[-83.71239,42.28696],[-83.71397,42.28646],[-83.71343,42.28645],[-83.71212,42.2872],[-83.71254,42.2875],[-83.71374,42.28754],[-83.72958,42.28702],[-83.73254,42.28653],[-83.7321,42.28585],[-83.73146,42.28543],[-83.73091,42.28527],[-83.72865,42.28532],[-83.72785,42.28501],[-83.7274,42.28458],[-83.72717,42.28406],[-83.72731,42.28402],[-83.72717,42.28406],[-83.72609,42.28223],[-83.72624,42.28183],[-83.72676,42.28145],[-83.7311,42.28144],[-83.73105,42.28248],[-83.73355,42.28229],[-83.73344,42.28269]],"type":"LineString"},"properties":{"color":"#4EB265","color_name":"gray","kind":"route","label":"NES","long":"North-East Shuttle","route_id":"NES","text_color":"#000000","type_label":"Bus"},"type":"Feature"},{"geometry":{"coordinates":[[-83.73508,42.27818],[-83.73592,42.27864],[-83.73708,42.27868],[-83.7372,42.28129],[-83.73448,42.28134],[-83.73381,42.28112],[-83.73356,42.28137],[-83.73358,42.28269],[-83.73344,42.28269],[-83.73358,42.28269],[-83.73368,42.28314],[-83.73565,42.28316],[-83.73573,42.28437],[-83.73531,42.28507],[-83.7347,42.28553],[-83.73283,42.28638],[-83.72956,42.28682],[-83.71902,42.28735],[-83.71895,42.28788],[-83.71931,42.28943],[-83.71907,42.28985],[-83.7184,42.29018],[-83.71924,42.29486],[-83.71409,42.29516],[-83.71504,42.29623],[-83.71514,42.29723],[-83.71452,42.29811],[-83.71225,42.2978],[-83.71235,42.2988],[-83.71269,42.29955],[-83.71236,42.29991],[-83.71242,42.30021],[-83.7127,42.30022],[-83.71267,42.3011],[-83.7124,42.30159],[-83.71191,42.30188],[-83.71041,42.30193],[-83.70979,42.30165],[-83.70933,42.30117],[-83.70919,42.29932],[-83.70981,42.29785],[-83.70967,42.29733],[-83.70931,42.29694],[-83.70934,42.29642],[-83.70794,42.29617],[-83.7074,42.2956],[-83.70647,42.29567],[-83.70401,42.29515],[-83.70027,42.29509],[-83.70027,42.2934],[-83.69995,42.29308],[-83.69933,42.29311],[-83.6991,42.29327],[-83.69909,42.29356],[-83.69958,42.29403],[-83.70003,42.29413]],"type":"LineString"},"properties":{"color":"#EE8026","color_name":"orange","kind":"route","label":"NW","long":"Northwood","route_id":"NW","text_color":"#000000","type_label":"Bus"},"type":"Feature"},{"geometry":{"coordinates":[[-83.73843,42.28352],[-83.73865,42.28489],[-83.74107,42.28485],[-83.74093,42.2821],[-83.73177,42.28236],[-83.73122,42.28226],[-83.7311,42.28136],[-83.72676,42.28145],[-83.72619,42.28191],[-83.72613,42.28233],[-83.72777,42.28499],[-83.72864,42.28534],[-83.73152,42.28545],[-83.73211,42.28585],[-83.73287,42.28717],[-83.73352,42.28776],[-83.73381,42.28791],[-83.73422,42.28746],[-83.73615,42.28825],[-83.73596,42.28848]],"type":"LineString"},"properties":{"color":"#CAACCB","color_name":"white","kind":"route","label":"WS","long":"Wall Street-NIB","route_id":"WS","text_color":"#000000","type_label":"Bus"},"type":"Feature"},{"geometry":{"coordinates":[[-83.731,42.2818],[-83.7311,42.2825],[-83.73133,42.28241],[-83.7311,42.28136],[-83.72801,42.28135],[-83.72676,42.28145],[-83.72639,42.28169],[-83.72609,42.28224],[-83.72751,42.28472],[-83.72864,42.28534],[-83.73091,42.28533],[-83.73161,42.28549],[-83.73211,42.28585],[-83.73287,42.28717],[-83.73352,42.28776],[-83.73381,42.28791],[-83.73422,42.28746],[-83.73615,42.28825],[-83.73596,42.28848]],"type":"LineString"},"properties":{"color":"#D9CCE3","color_name":"white","kind":"route","label":"WX","long":"Wall Street Express","route_id":"WX","text_color":"#000000","type_label":"Bus"},"type":"Feature"},{"geometry":{"coordinates":[-83.74061,42.27515],"type":"Point"},"properties":{"kind":"stop","name":"Michigan Union  S. State","stop_id":"195"},"type":"Feature"},{"geometry":{"coordinates":[-83.74014,42.27499],"type":"Point"},"properties":{"kind":"stop","name":"Michigan Union  S. Univ","stop_id":"196"},"type":"Feature"},{"geometry":{"coordinates":[-83.73759,42.27505],"type":"Point"},"properties":{"kind":"stop","name":"Shapiro Library","stop_id":"197"},"type":"Feature"},{"geometry":{"coordinates":[-83.73553,42.27379],"type":"Point"},"properties":{"kind":"stop","name":"East Quad  Willard","stop_id":"198"},"type":"Feature"},{"geometry":{"coordinates":[-83.73463,42.27311],"type":"Point"},"properties":{"kind":"stop","name":"East Quad  Church","stop_id":"199"},"type":"Feature"},{"geometry":{"coordinates":[-83.73186,42.27213],"type":"Point"},"properties":{"kind":"stop","name":"Henderson House","stop_id":"200"},"type":"Feature"},{"geometry":{"coordinates":[-83.72603,42.27468],"type":"Point"},"properties":{"kind":"stop","name":"Oxford Housing","stop_id":"201"},"type":"Feature"},{"geometry":{"coordinates":[-83.72946,42.27508],"type":"Point"},"properties":{"kind":"stop","name":"Angell Elementary School","stop_id":"202"},"type":"Feature"},{"geometry":{"coordinates":[-83.73873,42.27849],"type":"Point"},"properties":{"kind":"stop","name":"School of Kinesiology Building","stop_id":"203"},"type":"Feature"},{"geometry":{"coordinates":[-83.73709,42.28085],"type":"Point"},"properties":{"kind":"stop","name":"Power Center","stop_id":"204"},"type":"Feature"},{"geometry":{"coordinates":[-83.73727,42.28063],"type":"Point"},"properties":{"kind":"stop","name":"Rackham Bldg","stop_id":"205"},"type":"Feature"},{"geometry":{"coordinates":[-83.73494,42.27768],"type":"Point"},"properties":{"kind":"stop","name":"Central Campus Transit Center: Chemistry","stop_id":"206"},"type":"Feature"},{"geometry":{"coordinates":[-83.73508,42.27818],"type":"Point"},"properties":{"kind":"stop","name":"Central Campus Transit Center: Ruthven Museum","stop_id":"207"},"type":"Feature"},{"geometry":{"coordinates":[-83.69316,42.30015],"type":"Point"},"properties":{"kind":"stop","name":"Green Rd Park & Ride Inbound","stop_id":"208"},"type":"Feature"},{"geometry":{"coordinates":[-83.69326,42.30032],"type":"Point"},"properties":{"kind":"stop","name":"Green Rd Park & Ride Outbound","stop_id":"209"},"type":"Feature"},{"geometry":{"coordinates":[-83.6958,42.30828],"type":"Point"},"properties":{"kind":"stop","name":"Michigan House","stop_id":"210"},"type":"Feature"},{"geometry":{"coordinates":[-83.69654,42.30631],"type":"Point"},"properties":{"kind":"stop","name":"2101 Commonwealth","stop_id":"211"},"type":"Feature"},{"geometry":{"coordinates":[-83.67554,42.30791],"type":"Point"},"properties":{"kind":"stop","name":"Rachel Upjohn Building","stop_id":"212"},"type":"Feature"},{"geometry":{"coordinates":[-83.67399,42.30819],"type":"Point"},"properties":{"kind":"stop","name":"East Ann Arbor Health & Geriatrics Center","stop_id":"213"},"type":"Feature"},{"geometry":{"coordinates":[-83.67626,42.31072],"type":"Point"},"properties":{"kind":"stop","name":"Arbor Lakes","stop_id":"214"},"type":"Feature"},{"geometry":{"coordinates":[-83.68323,42.31489],"type":"Point"},"properties":{"kind":"stop","name":"Domino's Farms Lobby A","stop_id":"215"},"type":"Feature"},{"geometry":{"coordinates":[-83.68326,42.31594],"type":"Point"},"properties":{"kind":"stop","name":"Domino's Farms Lobby C","stop_id":"216"},"type":"Feature"},{"geometry":{"coordinates":[-83.6822,42.32114],"type":"Point"},"properties":{"kind":"stop","name":"Domino's Farms Lobby M","stop_id":"217"},"type":"Feature"},{"geometry":{"coordinates":[-83.6821,42.31814],"type":"Point"},"properties":{"kind":"stop","name":"Domino's Farms Lobby H","stop_id":"218"},"type":"Feature"},{"geometry":{"coordinates":[-83.68852,42.30597],"type":"Point"},"properties":{"kind":"stop","name":"Plymouth Park-and-Ride","stop_id":"219"},"type":"Feature"},{"geometry":{"coordinates":[-83.73094,42.27792],"type":"Point"},"properties":{"kind":"stop","name":"Stockwell Hall Outbound","stop_id":"220"},"type":"Feature"},{"geometry":{"coordinates":[-83.7311,42.27849],"type":"Point"},"properties":{"kind":"stop","name":"Stockwell Hall Inbound","stop_id":"221"},"type":"Feature"},{"geometry":{"coordinates":[-83.731,42.2818],"type":"Point"},"properties":{"kind":"stop","name":"Cardiovascular Center","stop_id":"222"},"type":"Feature"},{"geometry":{"coordinates":[-83.73123,42.282],"type":"Point"},"properties":{"kind":"stop","name":"Lloyd/Observatory","stop_id":"223"},"type":"Feature"},{"geometry":{"coordinates":[-83.73328,42.28224],"type":"Point"},"properties":{"kind":"stop","name":"Couzens Hall","stop_id":"224"},"type":"Feature"},{"geometry":{"coordinates":[-83.73364,42.28198],"type":"Point"},"properties":{"kind":"stop","name":"Biomedical Science Research Bldg","stop_id":"225"},"type":"Feature"},{"geometry":{"coordinates":[-83.73551,42.28338],"type":"Point"},"properties":{"kind":"stop","name":"Glen/Catherine Outbound","stop_id":"226"},"type":"Feature"},{"geometry":{"coordinates":[-83.73578,42.28335],"type":"Point"},"properties":{"kind":"stop","name":"Glen/Catherine Inbound","stop_id":"227"},"type":"Feature"},{"geometry":{"coordinates":[-83.73843,42.28352],"type":"Point"},"properties":{"kind":"stop","name":"North Ingalls Bldg","stop_id":"228"},"type":"Feature"},{"geometry":{"coordinates":[-83.73469,42.28496],"type":"Point"},"properties":{"kind":"stop","name":"Medical Science Research Bldg II","stop_id":"229"},"type":"Feature"},{"geometry":{"coordinates":[-83.72801,42.28135],"type":"Point"},"properties":{"kind":"stop","name":"Markley Hall","stop_id":"230"},"type":"Feature"},{"geometry":{"coordinates":[-83.72898,42.28151],"type":"Point"},"properties":{"kind":"stop","name":"Mott Hospital","stop_id":"231"},"type":"Feature"},{"geometry":{"coordinates":[-83.72692,42.28375],"type":"Point"},"properties":{"kind":"stop","name":"Taubman Outbound","stop_id":"232"},"type":"Feature"},{"geometry":{"coordinates":[-83.72731,42.28402],"type":"Point"},"properties":{"kind":"stop","name":"Taubman Inbound","stop_id":"233"},"type":"Feature"},{"geometry":{"coordinates":[-83.73091,42.28527],"type":"Point"},"properties":{"kind":"stop","name":"Cancer Center Inbound","stop_id":"234"},"type":"Feature"},{"geometry":{"coordinates":[-83.73016,42.28544],"type":"Point"},"properties":{"kind":"stop","name":"Cancer Center Outbound","stop_id":"235"},"type":"Feature"},{"geometry":{"coordinates":[-83.73413,42.28758],"type":"Point"},"properties":{"kind":"stop","name":"Maiden Lane","stop_id":"236"},"type":"Feature"},{"geometry":{"coordinates":[-83.73534,42.28354],"type":"Point"},"properties":{"kind":"stop","name":"W Medical Ctr Dr at Catherine","stop_id":"237"},"type":"Feature"},{"geometry":{"coordinates":[-83.73596,42.28848],"type":"Point"},"properties":{"kind":"stop","name":"Wall St Structure","stop_id":"238"},"type":"Feature"},{"geometry":{"coordinates":[-83.71397,42.28646],"type":"Point"},"properties":{"kind":"stop","name":"VA Hospital Circle Drive","stop_id":"239"},"type":"Feature"},{"geometry":{"coordinates":[-83.72333,42.28711],"type":"Point"},"properties":{"kind":"stop","name":"Fuller Rd at Mitchell Field  Lot M-75","stop_id":"240"},"type":"Feature"},{"geometry":{"coordinates":[-83.71254,42.2875],"type":"Point"},"properties":{"kind":"stop","name":"VA Hospital  Fuller Rd","stop_id":"241"},"type":"Feature"},{"geometry":{"coordinates":[-83.71306,42.28854],"type":"Point"},"properties":{"kind":"stop","name":"Biomedical Engineering Bldg","stop_id":"242"},"type":"Feature"},{"geometry":{"coordinates":[-83.71291,42.28851],"type":"Point"},"properties":{"kind":"stop","name":"Ford Presidential Library","stop_id":"243"},"type":"Feature"},{"geometry":{"coordinates":[-83.7142,42.29045],"type":"Point"},"properties":{"kind":"stop","name":"Cooley Lab Inbound","stop_id":"244"},"type":"Feature"},{"geometry":{"coordinates":[-83.71375,42.29021],"type":"Point"},"properties":{"kind":"stop","name":"Cooley Lab Outbound","stop_id":"245"},"type":"Feature"},{"geometry":{"coordinates":[-83.71264,42.29348],"type":"Point"},"properties":{"kind":"stop","name":"FXB Inbound","stop_id":"246"},"type":"Feature"},{"geometry":{"coordinates":[-83.71252,42.29357],"type":"Point"},"properties":{"kind":"stop","name":"FXB Outbound","stop_id":"247"},"type":"Feature"},{"geometry":{"coordinates":[-83.72071,42.2946],"type":"Point"},"properties":{"kind":"stop","name":"Bursley Hall Inbound","stop_id":"248"},"type":"Feature"},{"geometry":{"coordinates":[-83.72136,42.2947],"type":"Point"},"properties":{"kind":"stop","name":"Bursley Hall Outbound","stop_id":"249"},"type":"Feature"},{"geometry":{"coordinates":[-83.72416,42.29412],"type":"Point"},"properties":{"kind":"stop","name":"Baits II Inbound","stop_id":"250"},"type":"Feature"},{"geometry":{"coordinates":[-83.72412,42.29427],"type":"Point"},"properties":{"kind":"stop","name":"Baits II Outbound","stop_id":"251"},"type":"Feature"},{"geometry":{"coordinates":[-83.72324,42.29159],"type":"Point"},"properties":{"kind":"stop","name":"Baits I","stop_id":"252"},"type":"Feature"},{"geometry":{"coordinates":[-83.71996,42.29693],"type":"Point"},"properties":{"kind":"stop","name":"Murfin/Northwood III","stop_id":"253"},"type":"Feature"},{"geometry":{"coordinates":[-83.71793,42.29494],"type":"Point"},"properties":{"kind":"stop","name":"Northwood III Inbound","stop_id":"254"},"type":"Feature"},{"geometry":{"coordinates":[-83.71792,42.29487],"type":"Point"},"properties":{"kind":"stop","name":"Northwood III Outbound","stop_id":"255"},"type":"Feature"},{"geometry":{"coordinates":[-83.71517,42.29506],"type":"Point"},"properties":{"kind":"stop","name":"Northwood I Inbound","stop_id":"256"},"type":"Feature"},{"geometry":{"coordinates":[-83.715,42.29499],"type":"Point"},"properties":{"kind":"stop","name":"Northwood I Outbound","stop_id":"257"},"type":"Feature"},{"geometry":{"coordinates":[-83.71521,42.29651],"type":"Point"},"properties":{"kind":"stop","name":"Cram Circle Inbound","stop_id":"258"},"type":"Feature"},{"geometry":{"coordinates":[-83.71513,42.29656],"type":"Point"},"properties":{"kind":"stop","name":"Cram Circle Outbound","stop_id":"259"},"type":"Feature"},{"geometry":{"coordinates":[-83.71271,42.29784],"type":"Point"},"properties":{"kind":"stop","name":"Northwood II Inbound","stop_id":"260"},"type":"Feature"},{"geometry":{"coordinates":[-83.71271,42.29777],"type":"Point"},"properties":{"kind":"stop","name":"Northwood II Outbound","stop_id":"261"},"type":"Feature"},{"geometry":{"coordinates":[-83.71248,42.29984],"type":"Point"},"properties":{"kind":"stop","name":"Fire Station Inbound","stop_id":"262"},"type":"Feature"},{"geometry":{"coordinates":[-83.71236,42.29991],"type":"Point"},"properties":{"kind":"stop","name":"Fire Station Outbound","stop_id":"263"},"type":"Feature"},{"geometry":{"coordinates":[-83.70961,42.30144],"type":"Point"},"properties":{"kind":"stop","name":"Plymouth Rd Crosswalk","stop_id":"264"},"type":"Feature"},{"geometry":{"coordinates":[-83.70955,42.29868],"type":"Point"},"properties":{"kind":"stop","name":"Northwood IV","stop_id":"265"},"type":"Feature"},{"geometry":{"coordinates":[-83.70967,42.29733],"type":"Point"},"properties":{"kind":"stop","name":"Northwood Community Center","stop_id":"266"},"type":"Feature"},{"geometry":{"coordinates":[-83.70721,42.29568],"type":"Point"},"properties":{"kind":"stop","name":"Hayward/Hubbard  Hubbard Inbound","stop_id":"267"},"type":"Feature"},{"geometry":{"coordinates":[-83.70769,42.29588],"type":"Point"},"properties":{"kind":"stop","name":"Hayward/Hubbard  Hubbard Outbound","stop_id":"268"},"type":"Feature"},{"geometry":{"coordinates":[-83.70534,42.2955],"type":"Point"},"properties":{"kind":"stop","name":"Huron/Hubbard  Hubbard Inbound","stop_id":"269"},"type":"Feature"},{"geometry":{"coordinates":[-83.70768,42.29543],"type":"Point"},"properties":{"kind":"stop","name":"Hayward/Hubbard  Hayward Outbound","stop_id":"270"},"type":"Feature"},{"geometry":{"coordinates":[-83.70305,42.29513],"type":"Point"},"properties":{"kind":"stop","name":"NCAC  Hubbard Inbound","stop_id":"271"},"type":"Feature"},{"geometry":{"coordinates":[-83.70492,42.2952],"type":"Point"},"properties":{"kind":"stop","name":"Huron/Hubbard  Huron Outbound","stop_id":"272"},"type":"Feature"},{"geometry":{"coordinates":[-83.70037,42.29457],"type":"Point"},"properties":{"kind":"stop","name":"Northwood V (1)","stop_id":"273"},"type":"Feature"},{"geometry":{"coordinates":[-83.6991,42.29327],"type":"Point"},"properties":{"kind":"stop","name":"Northwood V (2)","stop_id":"274"},"type":"Feature"},{"geometry":{"coordinates":[-83.70003,42.29413],"type":"Point"},"properties":{"kind":"stop","name":"Northwood V (3)","stop_id":"275"},"type":"Feature"},{"geometry":{"coordinates":[-83.70401,42.29515],"type":"Point"},"properties":{"kind":"stop","name":"NCAC%% Hubbard Outbound","stop_id":"276"},"type":"Feature"},{"geometry":{"coordinates":[-83.70457,42.30079],"type":"Point"},"properties":{"kind":"stop","name":"NCRC  SB Huron Pkwy","stop_id":"277"},"type":"Feature"},{"geometry":{"coordinates":[-83.70417,42.30043],"type":"Point"},"properties":{"kind":"stop","name":"NCRC  NB Huron Pkwy","stop_id":"278"},"type":"Feature"},{"geometry":{"coordinates":[-83.70248,42.29694],"type":"Point"},"properties":{"kind":"stop","name":"NCAC  Inbound","stop_id":"279"},"type":"Feature"},{"geometry":{"coordinates":[-83.70239,42.29687],"type":"Point"},"properties":{"kind":"stop","name":"NCAC  Outbound","stop_id":"280"},"type":"Feature"},{"geometry":{"coordinates":[-83.69735,42.29786],"type":"Point"},"properties":{"kind":"stop","name":"North Campus Facilities Services Bldg  Outbound","stop_id":"281"},"type":"Feature"},{"geometry":{"coordinates":[-83.69737,42.29795],"type":"Point"},"properties":{"kind":"stop","name":"North Campus Facilities Services Bldg  Inbound","stop_id":"282"},"type":"Feature"},{"geometry":{"coordinates":[-83.70567,42.30106],"type":"Point"},"properties":{"kind":"stop","name":"NCRC","stop_id":"283"},"type":"Feature"},{"geometry":{"coordinates":[-83.70712,42.29748],"type":"Point"},"properties":{"kind":"stop","name":"NCRC South","stop_id":"284"},"type":"Feature"},{"geometry":{"coordinates":[-83.72224,42.28728],"type":"Point"},"properties":{"kind":"stop","name":"Fuller Rd at Lot NC-78  Mitchell Field (1)","stop_id":"285"},"type":"Feature"},{"geometry":{"coordinates":[-83.72271,42.28728],"type":"Point"},"properties":{"kind":"stop","name":"Fuller Rd at Lot NC-78  Mitchell Field (2)","stop_id":"286"},"type":"Feature"},{"geometry":{"coordinates":[-83.72297,42.28728],"type":"Point"},"properties":{"kind":"stop","name":"Fuller Rd at Lot NC-78  Mitchell Field (3)","stop_id":"287"},"type":"Feature"},{"geometry":{"coordinates":[-83.70623,42.28923],"type":"Point"},"properties":{"kind":"stop","name":"Glazier Way  Lot NC-51  West","stop_id":"288"},"type":"Feature"},{"geometry":{"coordinates":[-83.70511,42.28981],"type":"Point"},"properties":{"kind":"stop","name":"Glazier Way  Lot NC-51  North","stop_id":"289"},"type":"Feature"},{"geometry":{"coordinates":[-83.69735,42.29788],"type":"Point"},"properties":{"kind":"stop","name":"North Campus Facilities Services Bldg  Outbound","stop_id":"29"},"type":"Feature"},{"geometry":{"coordinates":[-83.70497,42.2887],"type":"Point"},"properties":{"kind":"stop","name":"Glazier Way  Lot NC-51  East","stop_id":"290"},"type":"Feature"},{"geometry":{"coordinates":[-83.71842,42.29082],"type":"Point"},"properties":{"kind":"stop","name":"Pierpont Commons  Murfin Outbound","stop_id":"291"},"type":"Feature"},{"geometry":{"coordinates":[-83.71914,42.29034],"type":"Point"},"properties":{"kind":"stop","name":"Pierpont Commons  Murfin Inbound","stop_id":"292"},"type":"Feature"},{"geometry":{"coordinates":[-83.71673,42.29021],"type":"Point"},"properties":{"kind":"stop","name":"Art & Architecture","stop_id":"293"},"type":"Feature"},{"geometry":{"coordinates":[-83.71815,42.29042],"type":"Point"},"properties":{"kind":"stop","name":"Pierpont Commons  Bonisteel Inbound","stop_id":"294"},"type":"Feature"},{"geometry":{"coordinates":[-83.74435,42.26436],"type":"Point"},"properties":{"kind":"stop","name":"Crisler Center/Lot SC-7","stop_id":"295"},"type":"Feature"},{"geometry":{"coordinates":[-83.74513,42.26583],"type":"Point"},"properties":{"kind":"stop","name":"Crisler Center Lot SC-5","stop_id":"296"},"type":"Feature"},{"geometry":{"coordinates":[-83.74509,42.26601],"type":"Point"},"properties":{"kind":"stop","name":"Transportation Gate","stop_id":"297"},"type":"Feature"},{"geometry":{"coordinates":[-83.74731,42.26807],"type":"Point"},"properties":{"kind":"stop","name":"Facilities Services Building","stop_id":"298"},"type":"Feature"},{"geometry":{"coordinates":[-83.74755,42.26852],"type":"Point"},"properties":{"kind":"stop","name":"Institute for Continuing Legal Education","stop_id":"299"},"type":"Feature"},{"geometry":{"coordinates":[-83.74743,42.26928],"type":"Point"},"properties":{"kind":"stop","name":"Greene/Hoover","stop_id":"300"},"type":"Feature"},{"geometry":{"coordinates":[-83.74337,42.26959],"type":"Point"},"properties":{"kind":"stop","name":"Intramural Building Outbound","stop_id":"301"},"type":"Feature"},{"geometry":{"coordinates":[-83.74214,42.26972],"type":"Point"},"properties":{"kind":"stop","name":"Intramural Building Inbound","stop_id":"302"},"type":"Feature"},{"geometry":{"coordinates":[-83.74064,42.2735],"type":"Point"},"properties":{"kind":"stop","name":"Law Quad","stop_id":"303"},"type":"Feature"},{"geometry":{"coordinates":[-83.74073,42.27305],"type":"Point"},"properties":{"kind":"stop","name":"South Quad","stop_id":"304"},"type":"Feature"},{"geometry":{"coordinates":[-83.73344,42.28269],"type":"Point"},"properties":{"kind":"stop","name":"Zina Pitcher","stop_id":"306"},"type":"Feature"}],"type":"FeatureCollection"}
