{"features":[{"geometry":{"coordinates":[[-87.71407,43.75035],[-87.71404,43.75088],[-87.71462,43.75088],[-87.71462,43.74983],[-87.72294,43.74981],[-87.72282,43.75845],[-87.72298,43.76014],[-87.72263,43.76157],[-87.72298,43.76281],[-87.72469,43.76499],[-87.72455,43.76546],[-87.7245,43.77442],[-87.72475,43.77577],[-87.72336,43.77576],[-87.72334,43.77708],[-87.72486,43.77709],[-87.72493,43.77888],[-87.7252,43.78032],[-87.72678,43.78298],[-87.73476,43.78298],[-87.73453,43.77399],[-87.73895,43.77401],[-87.73897,43.76842],[-87.722,43.76842],[-87.72204,43.76168],[-87.72129,43.76075],[-87.72136,43.75856],[-87.71627,43.75854],[-87.71623,43.75133],[-87.71587,43.75088],[-87.71406,43.75088],[-87.71407,43.75035]],"type":"LineString"},"properties":{"color":"#6BAD56","color_name":"gray","kind":"route","label":"3 North","long":"3 North","route_id":"1151","text_color":"#FFFFFF","type_label":"Bus"},"type":"Feature"},{"geometry":{"coordinates":[[-87.71408,43.75033],[-87.71407,43.74979],[-87.71462,43.74978],[-87.71449,43.74903],[-87.71413,43.74876],[-87.71326,43.74854],[-87.71295,43.74809],[-87.71295,43.74403],[-87.71338,43.74326],[-87.71268,43.74319],[-87.7122,43.7437],[-87.71121,43.74398],[-87.71008,43.74488],[-87.70971,43.7447],[-87.70837,43.74467],[-87.7083,43.74554],[-87.70705,43.74661],[-87.70722,43.74767],[-87.70897,43.74726],[-87.71019,43.74474],[-87.71248,43.74357],[-87.71334,43.74357],[-87.71387,43.74325],[-87.72793,43.74321],[-87.72799,43.73993],[-87.73308,43.73993],[-87.7391,43.73837],[-87.74185,43.73707],[-87.74522,43.73606],[-87.74763,43.73466],[-87.74865,43.73384],[-87.74874,43.73215],[-87.75705,43.73199],[-87.75746,43.73213],[-87.75768,43.73354],[-87.75717,43.73684],[-87.75272,43.73692],[-87.75302,43.73798],[-87.7536,43.73868],[-87.75446,43.73914],[-87.75493,43.73913],[-87.75455,43.73979],[-87.75395,43.74004],[-87.75186,43.74016],[-87.74879,43.73959],[-87.74772,43.73835],[-87.74891,43.73751],[-87.74958,43.73613],[-87.74962,43.73398],[-87.75082,43.73213],[-87.73685,43.73212],[-87.73685,43.73568],[-87.72479,43.73578],[-87.7246,43.73598],[-87.72387,43.73738],[-87.72293,43.74027],[-87.72295,43.74982],[-87.71459,43.74977],[-87.71461,43.75089],[-87.714,43.75088],[-87.71403,43.75034]],"type":"LineString"},"properties":{"color":"#6BAD56","color_name":"gray","kind":"route","label":"3 South","long":"3 South","route_id":"1152","text_color":"#FFFFFF","type_label":"Bus"},"type":"Feature"},{"geometry":{"coordinates":[[-87.71408,43.75038],[-87.71407,43.75089],[-87.71294,43.75088],[-87.71294,43.76838],[-87.722,43.76842],[-87.72202,43.78293],[-87.71625,43.78287],[-87.71626,43.7738],[-87.70694,43.77376],[-87.70606,43.77333],[-87.70465,43.7711],[-87.70459,43.76069],[-87.70626,43.76071],[-87.70628,43.75524],[-87.70483,43.75524],[-87.70461,43.75429],[-87.70406,43.75331],[-87.70404,43.75171],[-87.70423,43.75061],[-87.70473,43.74975],[-87.70962,43.74976],[-87.70961,43.75086],[-87.71408,43.75087],[-87.71407,43.75035]],"type":"LineString"},"properties":{"color":"#5D80AD","color_name":"gray","kind":"route","label":"5 North","long":"5 North","route_id":"1153","text_color":"#FFFFFF","type_label":"Bus"},"type":"Feature"},{"geometry":{"coordinates":[[-87.71407,43.75033],[-87.71407,43.74979],[-87.71862,43.74981],[-87.71748,43.74849],[-87.7162,43.74513],[-87.71627,43.7432],[-87.71795,43.7432],[-87.71795,43.73992],[-87.7196,43.73993],[-87.71956,43.73763],[-87.72018,43.73708],[-87.72038,43.73203],[-87.72623,43.73208],[-87.72621,43.72795],[-87.72916,43.72797],[-87.72926,43.71945],[-87.73762,43.71958],[-87.74062,43.71298],[-87.73285,43.71291],[-87.73181,43.71279],[-87.73151,43.71258],[-87.73005,43.71263],[-87.72962,43.7133],[-87.73409,43.71426],[-87.73768,43.71479],[-87.73952,43.71479],[-87.73361,43.72762],[-87.72712,43.73286],[-87.72482,43.73554],[-87.72298,43.73978],[-87.71795,43.73992],[-87.71795,43.7432],[-87.71627,43.7432],[-87.7162,43.74513],[-87.71748,43.74849],[-87.7186,43.74979],[-87.71408,43.7498],[-87.71407,43.75034]],"type":"LineString"},"properties":{"color":"#5D80AD","color_name":"gray","kind":"route","label":"5 South","long":"5 South","route_id":"1154","text_color":"#FFFFFF","type_label":"Bus"},"type":"Feature"},{"geometry":{"coordinates":[[-87.71407,43.75036],[-87.71406,43.75088],[-87.7146,43.75087],[-87.71461,43.76072],[-87.72957,43.76077],[-87.73068,43.76113],[-87.7371,43.76113],[-87.73712,43.75802],[-87.73966,43.75805],[-87.73959,43.76026],[-87.73932,43.76114],[-87.74956,43.76113],[-87.74952,43.76976],[-87.74958,43.77056],[-87.75012,43.77192],[-87.74723,43.77197],[-87.74456,43.77245],[-87.74465,43.76477],[-87.7386,43.7648],[-87.73534,43.76431],[-87.72632,43.76431],[-87.72631,43.76076],[-87.71461,43.76072],[-87.71461,43.75088],[-87.71406,43.75088],[-87.71407,43.75035]],"type":"LineString"},"properties":{"color":"#8E349B","color_name":"purple","kind":"route","label":"7 North","long":"7 North","route_id":"1155","text_color":"#FFFFFF","type_label":"Bus"},"type":"Feature"},{"geometry":{"coordinates":[[-87.71408,43.75033],[-87.71407,43.74979],[-87.71462,43.74978],[-87.71449,43.74903],[-87.71413,43.74876],[-87.71326,43.74854],[-87.71295,43.74809],[-87.71296,43.74403],[-87.71343,43.74343],[-87.71296,43.74285],[-87.713,43.72297],[-87.71983,43.72307],[-87.71983,43.71764],[-87.72017,43.71536],[-87.72061,43.70293],[-87.72113,43.70272],[-87.72063,43.70267],[-87.72065,43.70188],[-87.73999,43.70213],[-87.74512,43.70244],[-87.74201,43.70951],[-87.74185,43.7095],[-87.74201,43.70951],[-87.74032,43.71301],[-87.73769,43.71934],[-87.71983,43.71946],[-87.71963,43.73201],[-87.71296,43.7319],[-87.71295,43.74301],[-87.71246,43.74341],[-87.71283,43.74367],[-87.71295,43.74403],[-87.71294,43.74978],[-87.71407,43.74978],[-87.71407,43.75033]],"type":"LineString"},"properties":{"color":"#8E349B","color_name":"purple","kind":"route","label":"7 South","long":"7 South","route_id":"1156","text_color":"#FFFFFF","type_label":"Bus"},"type":"Feature"},{"geometry":{"coordinates":[[-87.71407,43.75034],[-87.71408,43.75089],[-87.71585,43.75091],[-87.71628,43.75295],[-87.71627,43.75636],[-87.73967,43.7565],[-87.73966,43.7573],[-87.74134,43.75666],[-87.74752,43.75671],[-87.75223,43.75833],[-87.75591,43.75984],[-87.75608,43.7597],[-87.75038,43.75769],[-87.75088,43.75476],[-87.75151,43.75489],[-87.7516,43.75471],[-87.75126,43.75454],[-87.74779,43.74959],[-87.74599,43.75041],[-87.74768,43.75173],[-87.7491,43.75162],[-87.74904,43.75205],[-87.74851,43.75217],[-87.74833,43.75238],[-87.74357,43.75285],[-87.73243,43.75596],[-87.73251,43.75635],[-87.72302,43.75634],[-87.72295,43.74982],[-87.71459,43.74977],[-87.71461,43.75089],[-87.714,43.75088],[-87.71403,43.75034]],"type":"LineString"},"properties":{"color":"#F6DC00","color_name":"yellow","kind":"route","label":"10 North","long":"10 North","route_id":"1157","text_color":"#000000","type_label":"Bus"},"type":"Feature"},{"geometry":{"coordinates":[[-87.71407,43.75035],[-87.71404,43.75088],[-87.71462,43.75088],[-87.71462,43.74983],[-87.72295,43.74982],[-87.72293,43.74035],[-87.72439,43.73659],[-87.7274,43.73277],[-87.73368,43.72766],[-87.73552,43.72401],[-87.73725,43.72425],[-87.7384,43.72302],[-87.73937,43.72189],[-87.7379,43.72144],[-87.73817,43.72073],[-87.73895,43.72031],[-87.74007,43.72025],[-87.74023,43.71952],[-87.74195,43.7191],[-87.74461,43.71778],[-87.75305,43.7176],[-87.75298,43.71487],[-87.75344,43.71446],[-87.75352,43.71403],[-87.75521,43.71403],[-87.75544,43.71408],[-87.75539,43.71457],[-87.75522,43.7148],[-87.75518,43.71593],[-87.75477,43.71699],[-87.75438,43.71676],[-87.75296,43.71672],[-87.75303,43.7176],[-87.74898,43.7176],[-87.74896,43.72115],[-87.75449,43.72115],[-87.75659,43.72139],[-87.75489,43.72686],[-87.75449,43.72761],[-87.75174,43.73057],[-87.7495,43.7338],[-87.74931,43.73629],[-87.7491,43.7369],[-87.74806,43.73789],[-87.74592,43.73885],[-87.74496,43.74003],[-87.74389,43.74244],[-87.74372,43.74384],[-87.74402,43.74538],[-87.74261,43.74566],[-87.74106,43.74567],[-87.73938,43.74649],[-87.72462,43.74652],[-87.72462,43.74936],[-87.72406,43.74981],[-87.71459,43.74977],[-87.71461,43.75089],[-87.714,43.75088],[-87.71403,43.75034]],"type":"LineString"},"properties":{"color":"#F6DC00","color_name":"yellow","kind":"route","label":"10 South","long":"10 South","route_id":"1158","text_color":"#000000","type_label":"Bus"},"type":"Feature"},{"geometry":{"coordinates":[[-87.714,43.75034],[-87.71401,43.75088],[-87.71293,43.75088],[-87.71295,43.74979],[-87.72293,43.7498],[-87.72293,43.74035],[-87.72439,43.73659],[-87.72487,43.73578],[-87.72757,43.73251],[-87.73382,43.72748],[-87.73763,43.7195],[-87.74125,43.71932],[-87.74222,43.71897],[-87.7439,43.71801],[-87.74518,43.71768],[-87.75785,43.71769],[-87.75934,43.71522],[-87.75827,43.71491],[-87.75712,43.71487],[-87.75701,43.71411],[-87.7555,43.71414],[-87.75525,43.71595],[-87.75487,43.71702],[-87.75515,43.71733],[-87.75737,43.71741],[-87.75797,43.71671],[-87.75804,43.71625],[-87.7584,43.71633],[-87.75768,43.71767],[-87.75811,43.71771],[-87.76641,43.71779],[-87.76643,43.71585],[-87.76218,43.71598],[-87.76288,43.71778],[-87.79751,43.71779],[-87.80837,43.71743],[-87.81585,43.71757],[-87.81622,43.71799],[-87.81639,43.71943],[-87.81539,43.72297],[-87.81184,43.72293],[-87.81176,43.72512],[-87.81266,43.72669],[-87.81057,43.72732],[-87.80995,43.72626],[-87.811,43.72594],[-87.81161,43.72701],[-87.81057,43.72732],[-87.80893,43.7245],[-87.80988,43.72472],[-87.81057,43.7252],[-87.81161,43.72701],[-87.81057,43.72732],[-87.81115,43.7284],[-87.81221,43.72807],[-87.81162,43.72701],[-87.81266,43.72669],[-87.81324,43.72769],[-87.81115,43.72839],[-87.81145,43.72884],[-87.81249,43.72854],[-87.81399,43.7311],[-87.81396,43.7313],[-87.8161,43.73184],[-87.81672,43.73153],[-87.82115,43.73157],[-87.82386,43.7322],[-87.82387,43.73432],[-87.82518,43.73413],[-87.82501,43.73348],[-87.82256,43.73379],[-87.81866,43.73381],[-87.81958,43.73462],[-87.81991,43.73534],[-87.81983,43.74404],[-87.81754,43.74401],[-87.81563,43.74348],[-87.80904,43.74332],[-87.80855,43.743],[-87.80815,43.74206],[-87.80767,43.74149],[-87.80706,43.74108],[-87.80616,43.74081],[-87.80374,43.74092],[-87.8013,43.74176],[-87.80012,43.74183],[-87.80013,43.73478],[-87.80353,43.73331],[-87.80443,43.73242],[-87.80705,43.72909],[-87.80209,43.729],[-87.7966,43.72979],[-87.78782,43.73204],[-87.78957,43.73611],[-87.78963,43.73727],[-87.78891,43.73806],[-87.78702,43.73887],[-87.78006,43.73884],[-87.78,43.74237],[-87.77985,43.74238],[-87.78,43.74237],[-87.77998,43.7435],[-87.78191,43.7426],[-87.78241,43.74289],[-87.7824,43.74369],[-87.78165,43.7435],[-87.78082,43.74382],[-87.78044,43.74427],[-87.78033,43.74482],[-87.78073,43.7456],[-87.77982,43.74574],[-87.77979,43.75249],[-87.77939,43.75278],[-87.77671,43.7532],[-87.7685,43.75347],[-87.75566,43.75595],[-87.75255,43.75633],[-87.71295,43.75631],[-87.71294,43.74979],[-87.71398,43.74979],[-87.714,43.75034]],"type":"LineString"},"properties":{"color":"#E75A11","color_name":"orange","kind":"route","label":"20","long":"Kohler / Sheboygan Falls","route_id":"3565","text_color":"#000000","type_label":"Bus"},"type":"Feature"},{"geometry":{"coordinates":[-87.81092,43.72591],"type":"Point"},"properties":{"kind":"stop","name":"Cedar St & Buffalo St","stop_id":"2335582"},"type":"Feature"},{"geometry":{"coordinates":[-87.80984,43.72624],"type":"Point"},"properties":{"kind":"stop","name":"Cedar St & Broadway St","stop_id":"2335583"},"type":"Feature"},{"geometry":{"coordinates":[-87.81107,43.72596],"type":"Point"},"properties":{"kind":"stop","name":"Buffalo St & Cedar St","stop_id":"2335584"},"type":"Feature"},{"geometry":{"coordinates":[-87.81045,43.72731],"type":"Point"},"properties":{"kind":"stop","name":"Broadway St & Elm St","stop_id":"2335585"},"type":"Feature"},{"geometry":{"coordinates":[-87.81173,43.72704],"type":"Point"},"properties":{"kind":"stop","name":"Buffalo St & Elm St","stop_id":"2335586"},"type":"Feature"},{"geometry":{"coordinates":[-87.81156,43.72709],"type":"Point"},"properties":{"kind":"stop","name":"Buffalo St & Elm St","stop_id":"2335587"},"type":"Feature"},{"geometry":{"coordinates":[-87.81232,43.7281],"type":"Point"},"properties":{"kind":"stop","name":"Buffalo St & Pine St","stop_id":"2335588"},"type":"Feature"},{"geometry":{"coordinates":[-87.81214,43.72806],"type":"Point"},"properties":{"kind":"stop","name":"Buffalo St & Pine St","stop_id":"2335589"},"type":"Feature"},{"geometry":{"coordinates":[-87.70321,43.74821],"type":"Point"},"properties":{"kind":"stop","name":"South Pier","stop_id":"2526391"},"type":"Feature"},{"geometry":{"coordinates":[-87.75542,43.73207],"type":"Point"},"properties":{"kind":"stop","name":"Aurora Medical Center Sheboygan County, Kohler, WI, USA","stop_id":"3878413"},"type":"Feature"},{"geometry":{"coordinates":[-87.75446,43.7391],"type":"Point"},"properties":{"kind":"stop","name":"Bookworm Gardens, Sheboygan, WI, USA","stop_id":"4210814"},"type":"Feature"},{"geometry":{"coordinates":[-87.75505,43.74313],"type":"Point"},"properties":{"kind":"stop","name":"Art Preserve, Sheboygan, WI, USA","stop_id":"4210817"},"type":"Feature"},{"geometry":{"coordinates":[-87.74223,43.73993],"type":"Point"},"properties":{"kind":"stop","name":"Golf 365","stop_id":"4210818"},"type":"Feature"},{"geometry":{"coordinates":[-87.73078,43.77367],"type":"Point"},"properties":{"kind":"stop","name":"3 Sheep's Brewing","stop_id":"4210819"},"type":"Feature"},{"geometry":{"coordinates":[-87.73005,43.71263],"type":"Point"},"properties":{"kind":"stop","name":"Camelot Blvd & S 18 St","stop_id":"4230468"},"type":"Feature"},{"geometry":{"coordinates":[-87.71407,43.75035],"type":"Point"},"properties":{"kind":"stop","name":"Downtown Transit Center","stop_id":"760141"},"type":"Feature"},{"geometry":{"coordinates":[-87.71585,43.75091],"type":"Point"},"properties":{"kind":"stop","name":"Center Ave. & N. Water St.","stop_id":"760142"},"type":"Feature"},{"geometry":{"coordinates":[-87.71616,43.75187],"type":"Point"},"properties":{"kind":"stop","name":"N. 10th & New York Ave.","stop_id":"760143"},"type":"Feature"},{"geometry":{"coordinates":[-87.71616,43.75295],"type":"Point"},"properties":{"kind":"stop","name":"N. 10th & Wisconsin Ave.","stop_id":"760144"},"type":"Feature"},{"geometry":{"coordinates":[-87.71616,43.75407],"type":"Point"},"properties":{"kind":"stop","name":"N. 10th & Niagara Ave.","stop_id":"760145"},"type":"Feature"},{"geometry":{"coordinates":[-87.72282,43.75082],"type":"Point"},"properties":{"kind":"stop","name":"N. 14th & Center Ave","stop_id":"760146"},"type":"Feature"},{"geometry":{"coordinates":[-87.72287,43.75304],"type":"Point"},"properties":{"kind":"stop","name":"N. 14th & Wisconsin Ave.","stop_id":"760147"},"type":"Feature"},{"geometry":{"coordinates":[-87.72288,43.75445],"type":"Point"},"properties":{"kind":"stop","name":"LTC","stop_id":"760148"},"type":"Feature"},{"geometry":{"coordinates":[-87.72288,43.75742],"type":"Point"},"properties":{"kind":"stop","name":"N. 14th & St Clair Ave.","stop_id":"760149"},"type":"Feature"},{"geometry":{"coordinates":[-87.72282,43.75845],"type":"Point"},"properties":{"kind":"stop","name":"N. 14th St. & Michigan Ave.","stop_id":"760150"},"type":"Feature"},{"geometry":{"coordinates":[-87.71948,43.75864],"type":"Point"},"properties":{"kind":"stop","name":"Michigan Ave. & N. 12th St.","stop_id":"760151"},"type":"Feature"},{"geometry":{"coordinates":[-87.72116,43.75864],"type":"Point"},"properties":{"kind":"stop","name":"N. 13th St. & Michigan Ave.","stop_id":"760152"},"type":"Feature"},{"geometry":{"coordinates":[-87.72277,43.75864],"type":"Point"},"properties":{"kind":"stop","name":"Michigan Ave. & N. 14th St.","stop_id":"760153"},"type":"Feature"},{"geometry":{"coordinates":[-87.72283,43.75953],"type":"Point"},"properties":{"kind":"stop","name":"N. 14th St. & Huron Ave.","stop_id":"760154"},"type":"Feature"},{"geometry":{"coordinates":[-87.72283,43.76061],"type":"Point"},"properties":{"kind":"stop","name":"N. 14th St. & Superior Ave.","stop_id":"760155"},"type":"Feature"},{"geometry":{"coordinates":[-87.72253,43.76158],"type":"Point"},"properties":{"kind":"stop","name":"N. 14th St. & Mehrtens Ave.","stop_id":"760156"},"type":"Feature"},{"geometry":{"coordinates":[-87.72374,43.76397],"type":"Point"},"properties":{"kind":"stop","name":"Calumet Dr. & Winter Ct.","stop_id":"760157"},"type":"Feature"},{"geometry":{"coordinates":[-87.72432,43.76473],"type":"Point"},"properties":{"kind":"stop","name":"Calumet Dr. & Lincoln Ave.","stop_id":"760158"},"type":"Feature"},{"geometry":{"coordinates":[-87.72442,43.76549],"type":"Point"},"properties":{"kind":"stop","name":"N. 15th St. & Marie Ct.","stop_id":"760159"},"type":"Feature"},{"geometry":{"coordinates":[-87.72442,43.76616],"type":"Point"},"properties":{"kind":"stop","name":"N. 15th St. & Bluff Ave.","stop_id":"760160"},"type":"Feature"},{"geometry":{"coordinates":[-87.72441,43.76688],"type":"Point"},"properties":{"kind":"stop","name":"N. 15th St. & Carl Ave.","stop_id":"760161"},"type":"Feature"},{"geometry":{"coordinates":[-87.72441,43.7676],"type":"Point"},"properties":{"kind":"stop","name":"N. 15th St. & Heermann Ct.","stop_id":"760162"},"type":"Feature"},{"geometry":{"coordinates":[-87.72441,43.76834],"type":"Point"},"properties":{"kind":"stop","name":"N. 15th St. & Geele Ave.","stop_id":"760163"},"type":"Feature"},{"geometry":{"coordinates":[-87.7244,43.76926],"type":"Point"},"properties":{"kind":"stop","name":"N. 15th St. & Logan Ave.","stop_id":"760164"},"type":"Feature"},{"geometry":{"coordinates":[-87.7244,43.76992],"type":"Point"},"properties":{"kind":"stop","name":"N. 15th St. & Lenz Ct.","stop_id":"760165"},"type":"Feature"},{"geometry":{"coordinates":[-87.72441,43.77075],"type":"Point"},"properties":{"kind":"stop","name":"N. 15th St. & Annie Ct.","stop_id":"760166"},"type":"Feature"},{"geometry":{"coordinates":[-87.7244,43.7717],"type":"Point"},"properties":{"kind":"stop","name":"N. 15th St. & Martin Ave.","stop_id":"760167"},"type":"Feature"},{"geometry":{"coordinates":[-87.7244,43.77243],"type":"Point"},"properties":{"kind":"stop","name":"N. 15th St. & Division Ave.","stop_id":"760168"},"type":"Feature"},{"geometry":{"coordinates":[-87.72439,43.77291],"type":"Point"},"properties":{"kind":"stop","name":"N. 15th St. & Main Ave.","stop_id":"760169"},"type":"Feature"},{"geometry":{"coordinates":[-87.72439,43.77373],"type":"Point"},"properties":{"kind":"stop","name":"N. 15th St. & North Ave.","stop_id":"760170"},"type":"Feature"},{"geometry":{"coordinates":[-87.72454,43.77513],"type":"Point"},"properties":{"kind":"stop","name":"N. 15th St. & School Ave.","stop_id":"760171"},"type":"Feature"},{"geometry":{"coordinates":[-87.72332,43.77605],"type":"Point"},"properties":{"kind":"stop","name":"Piggly Wiggly","stop_id":"760172"},"type":"Feature"},{"geometry":{"coordinates":[-87.72472,43.77719],"type":"Point"},"properties":{"kind":"stop","name":"N. 15th St. & Mayflower Ave.","stop_id":"760173"},"type":"Feature"},{"geometry":{"coordinates":[-87.72481,43.77795],"type":"Point"},"properties":{"kind":"stop","name":"N. 15th St. & Grand Ave.","stop_id":"760174"},"type":"Feature"},{"geometry":{"coordinates":[-87.72485,43.77888],"type":"Point"},"properties":{"kind":"stop","name":"N. 15th St. & Columbus Ave.","stop_id":"760175"},"type":"Feature"},{"geometry":{"coordinates":[-87.72494,43.77976],"type":"Point"},"properties":{"kind":"stop","name":"N. 15th St. & Pershing Ave.","stop_id":"760176"},"type":"Feature"},{"geometry":{"coordinates":[-87.7253,43.78073],"type":"Point"},"properties":{"kind":"stop","name":"N. 15th St. & Mac Arthur Ave.","stop_id":"760177"},"type":"Feature"},{"geometry":{"coordinates":[-87.72663,43.78287],"type":"Point"},"properties":{"kind":"stop","name":"N. 15th St. & Eisner Ave.","stop_id":"760178"},"type":"Feature"},{"geometry":{"coordinates":[-87.72806,43.78304],"type":"Point"},"properties":{"kind":"stop","name":"Eisner Ave. & N. 17th St.","stop_id":"760179"},"type":"Feature"},{"geometry":{"coordinates":[-87.72961,43.78303],"type":"Point"},"properties":{"kind":"stop","name":"Eisner Ave. & Hubert Ct.","stop_id":"760180"},"type":"Feature"},{"geometry":{"coordinates":[-87.73075,43.78303],"type":"Point"},"properties":{"kind":"stop","name":"Eisner Ave. & N. 19th St.","stop_id":"760181"},"type":"Feature"},{"geometry":{"coordinates":[-87.73199,43.78303],"type":"Point"},"properties":{"kind":"stop","name":"Eisner Ave. & N. 20th St.","stop_id":"760182"},"type":"Feature"},{"geometry":{"coordinates":[-87.7346,43.78304],"type":"Point"},"properties":{"kind":"stop","name":"Eisner Ave. & N. 21st St.","stop_id":"760183"},"type":"Feature"},{"geometry":{"coordinates":[-87.73479,43.78027],"type":"Point"},"properties":{"kind":"stop","name":"N. 21st St. & Pershing Ave.","stop_id":"760184"},"type":"Feature"},{"geometry":{"coordinates":[-87.73468,43.77721],"type":"Point"},"properties":{"kind":"stop","name":"N. 21st St. & Mayflower Ave.","stop_id":"760185"},"type":"Feature"},{"geometry":{"coordinates":[-87.73465,43.77541],"type":"Point"},"properties":{"kind":"stop","name":"N. 21st St. & Milz Ct.","stop_id":"760186"},"type":"Feature"},{"geometry":{"coordinates":[-87.73465,43.77486],"type":"Point"},"properties":{"kind":"stop","name":"N. 21st St. & Schetter Ave.","stop_id":"760187"},"type":"Feature"},{"geometry":{"coordinates":[-87.73465,43.77412],"type":"Point"},"properties":{"kind":"stop","name":"N. 21st St. & North Ave.","stop_id":"760188"},"type":"Feature"},{"geometry":{"coordinates":[-87.7376,43.77404],"type":"Point"},"properties":{"kind":"stop","name":"Walgreens (North Ave)","stop_id":"760189"},"type":"Feature"},{"geometry":{"coordinates":[-87.73907,43.77302],"type":"Point"},"properties":{"kind":"stop","name":"N. 25th St. & Main Ave.","stop_id":"760190"},"type":"Feature"},{"geometry":{"coordinates":[-87.7391,43.76993],"type":"Point"},"properties":{"kind":"stop","name":"N. 25th St. & Cooper Ave.","stop_id":"760191"},"type":"Feature"},{"geometry":{"coordinates":[-87.73911,43.76853],"type":"Point"},"properties":{"kind":"stop","name":"N. 25th & Geele Ave.","stop_id":"760192"},"type":"Feature"},{"geometry":{"coordinates":[-87.73783,43.76835],"type":"Point"},"properties":{"kind":"stop","name":"Geele Ave. & N. 24th St.","stop_id":"760193"},"type":"Feature"},{"geometry":{"coordinates":[-87.73656,43.76834],"type":"Point"},"properties":{"kind":"stop","name":"Geele Ave. & N. 23rd St.","stop_id":"760194"},"type":"Feature"},{"geometry":{"coordinates":[-87.7353,43.76835],"type":"Point"},"properties":{"kind":"stop","name":"Geele Ave. & N. 22nd St.","stop_id":"760195"},"type":"Feature"},{"geometry":{"coordinates":[-87.73402,43.76835],"type":"Point"},"properties":{"kind":"stop","name":"Geele Ave. & N. 21st St.","stop_id":"760196"},"type":"Feature"},{"geometry":{"coordinates":[-87.73278,43.76836],"type":"Point"},"properties":{"kind":"stop","name":"Geele Ave. & N. 20th St.","stop_id":"760197"},"type":"Feature"},{"geometry":{"coordinates":[-87.7316,43.76835],"type":"Point"},"properties":{"kind":"stop","name":"Geele Ave. & N. 19th St.","stop_id":"760198"},"type":"Feature"},{"geometry":{"coordinates":[-87.73043,43.76836],"type":"Point"},"properties":{"kind":"stop","name":"Geele Ave. & N. 18th St.","stop_id":"760199"},"type":"Feature"},{"geometry":{"coordinates":[-87.72848,43.76835],"type":"Point"},"properties":{"kind":"stop","name":"Geele Ave. & Calumet Dr.","stop_id":"760200"},"type":"Feature"},{"geometry":{"coordinates":[-87.72467,43.76835],"type":"Point"},"properties":{"kind":"stop","name":"Geele Ave. & N. 15th St.","stop_id":"760201"},"type":"Feature"},{"geometry":{"coordinates":[-87.7222,43.76835],"type":"Point"},"properties":{"kind":"stop","name":"Geele Ave. & N. 13th St.","stop_id":"760202"},"type":"Feature"},{"geometry":{"coordinates":[-87.72212,43.76775],"type":"Point"},"properties":{"kind":"stop","name":"N. 13th St. & Heermann Ct.","stop_id":"760203"},"type":"Feature"},{"geometry":{"coordinates":[-87.72213,43.76704],"type":"Point"},"properties":{"kind":"stop","name":"N. 13th St. & Carl Ave.","stop_id":"760204"},"type":"Feature"},{"geometry":{"coordinates":[-87.72215,43.76631],"type":"Point"},"properties":{"kind":"stop","name":"N. 13th St. & Bluff Ave.","stop_id":"760205"},"type":"Feature"},{"geometry":{"coordinates":[-87.72212,43.76563],"type":"Point"},"properties":{"kind":"stop","name":"N. 13th St. & Marie Ct.","stop_id":"760206"},"type":"Feature"},{"geometry":{"coordinates":[-87.72213,43.7649],"type":"Point"},"properties":{"kind":"stop","name":"N. 13th St. & Lincoln Ave.","stop_id":"760207"},"type":"Feature"},{"geometry":{"coordinates":[-87.72214,43.76409],"type":"Point"},"properties":{"kind":"stop","name":"N. 13th St. & Winter Ct.","stop_id":"760208"},"type":"Feature"},{"geometry":{"coordinates":[-87.72216,43.76177],"type":"Point"},"properties":{"kind":"stop","name":"N. 13th St. & Mehrtens Ave.","stop_id":"760209"},"type":"Feature"},{"geometry":{"coordinates":[-87.72151,43.76089],"type":"Point"},"properties":{"kind":"stop","name":"N. 13th St. & Superior Ave.","stop_id":"760210"},"type":"Feature"},{"geometry":{"coordinates":[-87.72143,43.75974],"type":"Point"},"properties":{"kind":"stop","name":"N. 13th St. & Huron Ave.","stop_id":"760211"},"type":"Feature"},{"geometry":{"coordinates":[-87.72144,43.75869],"type":"Point"},"properties":{"kind":"stop","name":"N. 13th St. & Michigan Ave.","stop_id":"760212"},"type":"Feature"},{"geometry":{"coordinates":[-87.71981,43.75846],"type":"Point"},"properties":{"kind":"stop","name":"Michigan Ave. & N. 12th St.","stop_id":"760213"},"type":"Feature"},{"geometry":{"coordinates":[-87.71812,43.75846],"type":"Point"},"properties":{"kind":"stop","name":"Michigan Ave. & N. 11th St.","stop_id":"760214"},"type":"Feature"},{"geometry":{"coordinates":[-87.71647,43.75845],"type":"Point"},"properties":{"kind":"stop","name":"Michigan Ave. & N. 10th St.","stop_id":"760215"},"type":"Feature"},{"geometry":{"coordinates":[-87.7164,43.75754],"type":"Point"},"properties":{"kind":"stop","name":"N. 10th St. & St. Clair Ave.","stop_id":"760216"},"type":"Feature"},{"geometry":{"coordinates":[-87.71642,43.75647],"type":"Point"},"properties":{"kind":"stop","name":"N. 10th St. & Erie Ave.","stop_id":"760217"},"type":"Feature"},{"geometry":{"coordinates":[-87.7164,43.75537],"type":"Point"},"properties":{"kind":"stop","name":"N. 10th St. & Ontario Ave.","stop_id":"760218"},"type":"Feature"},{"geometry":{"coordinates":[-87.71641,43.75427],"type":"Point"},"properties":{"kind":"stop","name":"N. 10th St. & Niagara Ave.","stop_id":"760219"},"type":"Feature"},{"geometry":{"coordinates":[-87.71639,43.7532],"type":"Point"},"properties":{"kind":"stop","name":"N. 10th St. & Wisconsin Ave.","stop_id":"760220"},"type":"Feature"},{"geometry":{"coordinates":[-87.7164,43.7521],"type":"Point"},"properties":{"kind":"stop","name":"N. 10th St. & New York Ave.","stop_id":"760221"},"type":"Feature"},{"geometry":{"coordinates":[-87.71606,43.751],"type":"Point"},"properties":{"kind":"stop","name":"N. Water St. & Center Ave.","stop_id":"760222"},"type":"Feature"},{"geometry":{"coordinates":[-87.71481,43.75082],"type":"Point"},"properties":{"kind":"stop","name":"Center Ave. & N. 9th St.","stop_id":"760223"},"type":"Feature"},{"geometry":{"coordinates":[-87.71546,43.74988],"type":"Point"},"properties":{"kind":"stop","name":"Pennsylvania Ave. & N. Water St.","stop_id":"760224"},"type":"Feature"},{"geometry":{"coordinates":[-87.71849,43.74988],"type":"Point"},"properties":{"kind":"stop","name":"Pennsylvania Ave. & N. Commerce St.","stop_id":"760225"},"type":"Feature"},{"geometry":{"coordinates":[-87.72113,43.74988],"type":"Point"},"properties":{"kind":"stop","name":"Pennsylvania Ave. & N 13th St.","stop_id":"760226"},"type":"Feature"},{"geometry":{"coordinates":[-87.72272,43.74989],"type":"Point"},"properties":{"kind":"stop","name":"Pennsylvania Ave. & N. 14th St.","stop_id":"760227"},"type":"Feature"},{"geometry":{"coordinates":[-87.72309,43.74883],"type":"Point"},"properties":{"kind":"stop","name":"S. 14th St. & Jefferson Ave.","stop_id":"760228"},"type":"Feature"},{"geometry":{"coordinates":[-87.72308,43.74773],"type":"Point"},"properties":{"kind":"stop","name":"S. 14th St. & Virginia Ave.","stop_id":"760229"},"type":"Feature"},{"geometry":{"coordinates":[-87.72309,43.74665],"type":"Point"},"properties":{"kind":"stop","name":"S. 14th St. & New Jersey Ave.","stop_id":"760230"},"type":"Feature"},{"geometry":{"coordinates":[-87.72309,43.74555],"type":"Point"},"properties":{"kind":"stop","name":"S. 14th St. & Maryland Ave. (Sheridan)","stop_id":"760231"},"type":"Feature"},{"geometry":{"coordinates":[-87.72307,43.74442],"type":"Point"},"properties":{"kind":"stop","name":"S. 14th St. & Illinois Ave.","stop_id":"760232"},"type":"Feature"},{"geometry":{"coordinates":[-87.72309,43.7434],"type":"Point"},"properties":{"kind":"stop","name":"S. 14th St. & Indiana Ave.","stop_id":"760233"},"type":"Feature"},{"geometry":{"coordinates":[-87.72484,43.73598],"type":"Point"},"properties":{"kind":"stop","name":"S. Business Dr. & Broadway Ave.","stop_id":"760235"},"type":"Feature"},{"geometry":{"coordinates":[-87.72818,43.73222],"type":"Point"},"properties":{"kind":"stop","name":"S. Business Dr. & Union Ave.","stop_id":"760237"},"type":"Feature"},{"geometry":{"coordinates":[-87.73109,43.72996],"type":"Point"},"properties":{"kind":"stop","name":"S. Business Dr. & Ashland Ave.","stop_id":"760238"},"type":"Feature"},{"geometry":{"coordinates":[-87.7357,43.72403],"type":"Point"},"properties":{"kind":"stop","name":"S. Business Dr. & Wilson Ave.","stop_id":"760239"},"type":"Feature"},{"geometry":{"coordinates":[-87.73894,43.72236],"type":"Point"},"properties":{"kind":"stop","name":"Piggly Wiggly (South)","stop_id":"760241"},"type":"Feature"},{"geometry":{"coordinates":[-87.7344,43.72601],"type":"Point"},"properties":{"kind":"stop","name":"S Business Dr","stop_id":"760242"},"type":"Feature"},{"geometry":{"coordinates":[-87.73331,43.72788],"type":"Point"},"properties":{"kind":"stop","name":"S. Business Dr. & Mead Ave.","stop_id":"760243"},"type":"Feature"},{"geometry":{"coordinates":[-87.73096,43.72974],"type":"Point"},"properties":{"kind":"stop","name":"S. Business Dr. & Ashland Ave.","stop_id":"760244"},"type":"Feature"},{"geometry":{"coordinates":[-87.72953,43.73085],"type":"Point"},"properties":{"kind":"stop","name":"S. Business Dr. & Oakland Ave.","stop_id":"760245"},"type":"Feature"},{"geometry":{"coordinates":[-87.72807,43.73197],"type":"Point"},"properties":{"kind":"stop","name":"S. Business Dr. & Union Ave.","stop_id":"760246"},"type":"Feature"},{"geometry":{"coordinates":[-87.73666,43.73554],"type":"Point"},"properties":{"kind":"stop","name":"Broadway Ave. & S. 24th St.","stop_id":"760256"},"type":"Feature"},{"geometry":{"coordinates":[-87.73562,43.73561],"type":"Point"},"properties":{"kind":"stop","name":"Broadway Ave. & S. 23rd St.","stop_id":"760257"},"type":"Feature"},{"geometry":{"coordinates":[-87.7344,43.73561],"type":"Point"},"properties":{"kind":"stop","name":"Broadway Ave. & S. 22nd St.","stop_id":"760258"},"type":"Feature"},{"geometry":{"coordinates":[-87.73336,43.73562],"type":"Point"},"properties":{"kind":"stop","name":"Broadway Ave. & S. 21st St.","stop_id":"760259"},"type":"Feature"},{"geometry":{"coordinates":[-87.73223,43.73563],"type":"Point"},"properties":{"kind":"stop","name":"Broadway Ave. & S. 20th St.","stop_id":"760260"},"type":"Feature"},{"geometry":{"coordinates":[-87.73143,43.73565],"type":"Point"},"properties":{"kind":"stop","name":"Broadway Ave. & S. 19th St.","stop_id":"760261"},"type":"Feature"},{"geometry":{"coordinates":[-87.73034,43.73566],"type":"Point"},"properties":{"kind":"stop","name":"Broadway Ave. & Sauk Trail Rd.","stop_id":"760262"},"type":"Feature"},{"geometry":{"coordinates":[-87.72827,43.73567],"type":"Point"},"properties":{"kind":"stop","name":"S. 17th St. & Broadway Ave.","stop_id":"760263"},"type":"Feature"},{"geometry":{"coordinates":[-87.72787,43.7409],"type":"Point"},"properties":{"kind":"stop","name":"S. 17th St. & Alabama Ave.","stop_id":"760268"},"type":"Feature"},{"geometry":{"coordinates":[-87.72783,43.74199],"type":"Point"},"properties":{"kind":"stop","name":"S. 17th St. & Kentucky Ave.","stop_id":"760269"},"type":"Feature"},{"geometry":{"coordinates":[-87.72781,43.74305],"type":"Point"},"properties":{"kind":"stop","name":"S. 17th St. & Indiana Ave.","stop_id":"760270"},"type":"Feature"},{"geometry":{"coordinates":[-87.72644,43.74311],"type":"Point"},"properties":{"kind":"stop","name":"Indiana Ave. & S. 16th St.","stop_id":"760271"},"type":"Feature"},{"geometry":{"coordinates":[-87.72479,43.74312],"type":"Point"},"properties":{"kind":"stop","name":"Indiana Ave. & S. 15th St.","stop_id":"760272"},"type":"Feature"},{"geometry":{"coordinates":[-87.72283,43.74417],"type":"Point"},"properties":{"kind":"stop","name":"S. 14th St. & Illinois Ave.","stop_id":"760273"},"type":"Feature"},{"geometry":{"coordinates":[-87.72281,43.7453],"type":"Point"},"properties":{"kind":"stop","name":"S. 14th St. & Maryland Ave. (Sheridan)","stop_id":"760274"},"type":"Feature"},{"geometry":{"coordinates":[-87.72284,43.74639],"type":"Point"},"properties":{"kind":"stop","name":"S. 14th St. & New Jersey Ave.","stop_id":"760275"},"type":"Feature"},{"geometry":{"coordinates":[-87.72286,43.74747],"type":"Point"},"properties":{"kind":"stop","name":"S. 14th St. & Virginia Ave.","stop_id":"760276"},"type":"Feature"},{"geometry":{"coordinates":[-87.72284,43.74858],"type":"Point"},"properties":{"kind":"stop","name":"S. 14th St. & Jefferson Ave.","stop_id":"760277"},"type":"Feature"},{"geometry":{"coordinates":[-87.72281,43.74958],"type":"Point"},"properties":{"kind":"stop","name":"S. 14th St. & Pennsylvania Ave.","stop_id":"760278"},"type":"Feature"},{"geometry":{"coordinates":[-87.72146,43.74971],"type":"Point"},"properties":{"kind":"stop","name":"Pennsylvania Ave. & S. 13th St.","stop_id":"760279"},"type":"Feature"},{"geometry":{"coordinates":[-87.71878,43.7497],"type":"Point"},"properties":{"kind":"stop","name":"Pennsylvania Ave. & S. Commerce St.","stop_id":"760280"},"type":"Feature"},{"geometry":{"coordinates":[-87.71572,43.74969],"type":"Point"},"properties":{"kind":"stop","name":"Pennsylvania Ave. & S. Water St.","stop_id":"760281"},"type":"Feature"},{"geometry":{"coordinates":[-87.71794,43.74885],"type":"Point"},"properties":{"kind":"stop","name":"S. Commerce St. & Jefferson Ave. (Shoreline Metro Office)","stop_id":"760282"},"type":"Feature"},{"geometry":{"coordinates":[-87.71738,43.74776],"type":"Point"},"properties":{"kind":"stop","name":"S. Commerce St. & Virgina Ave. (Rockline Industries)","stop_id":"760283"},"type":"Feature"},{"geometry":{"coordinates":[-87.71663,43.74559],"type":"Point"},"properties":{"kind":"stop","name":"S. Commerce St. & Maryland Ave.","stop_id":"760284"},"type":"Feature"},{"geometry":{"coordinates":[-87.7163,43.7444],"type":"Point"},"properties":{"kind":"stop","name":"S. Commerce St. & Illinois Ave.","stop_id":"760285"},"type":"Feature"},{"geometry":{"coordinates":[-87.7164,43.74334],"type":"Point"},"properties":{"kind":"stop","name":"S. Commerce St. & Indiana Ave.","stop_id":"760286"},"type":"Feature"},{"geometry":{"coordinates":[-87.71807,43.74224],"type":"Point"},"properties":{"kind":"stop","name":"S. 11th St. & Kentucky Ave.","stop_id":"760287"},"type":"Feature"},{"geometry":{"coordinates":[-87.71807,43.74113],"type":"Point"},"properties":{"kind":"stop","name":"S. 11th St. & Alabama Ave.","stop_id":"760288"},"type":"Feature"},{"geometry":{"coordinates":[-87.71807,43.74005],"type":"Point"},"properties":{"kind":"stop","name":"S. 11th St. & Georgia Ave.","stop_id":"760289"},"type":"Feature"},{"geometry":{"coordinates":[-87.71955,43.73995],"type":"Point"},"properties":{"kind":"stop","name":"Georgia Ave. & S. 12th St.","stop_id":"760290"},"type":"Feature"},{"geometry":{"coordinates":[-87.71972,43.73839],"type":"Point"},"properties":{"kind":"stop","name":"S. 12th St. & Clara Ave.","stop_id":"760291"},"type":"Feature"},{"geometry":{"coordinates":[-87.72035,43.73594],"type":"Point"},"properties":{"kind":"stop","name":"S. 12th St. & Broadway Ave.","stop_id":"760292"},"type":"Feature"},{"geometry":{"coordinates":[-87.72039,43.73478],"type":"Point"},"properties":{"kind":"stop","name":"S. 12th St. & High Ave.","stop_id":"760293"},"type":"Feature"},{"geometry":{"coordinates":[-87.72043,43.7338],"type":"Point"},"properties":{"kind":"stop","name":"S. 12th St. & Swift Ave.","stop_id":"760294"},"type":"Feature"},{"geometry":{"coordinates":[-87.72046,43.73287],"type":"Point"},"properties":{"kind":"stop","name":"S. 12th St. & Dillingham Ave.","stop_id":"760295"},"type":"Feature"},{"geometry":{"coordinates":[-87.7205,43.73212],"type":"Point"},"properties":{"kind":"stop","name":"S. 12th St. & Union Ave.","stop_id":"760296"},"type":"Feature"},{"geometry":{"coordinates":[-87.72143,43.73211],"type":"Point"},"properties":{"kind":"stop","name":"Union Ave. & S. 13th St.","stop_id":"760297"},"type":"Feature"},{"geometry":{"coordinates":[-87.72294,43.73212],"type":"Point"},"properties":{"kind":"stop","name":"Union Ave. & S. 14th St.","stop_id":"760298"},"type":"Feature"},{"geometry":{"coordinates":[-87.72464,43.73213],"type":"Point"},"properties":{"kind":"stop","name":"Union Ave. & S. 15th St.","stop_id":"760299"},"type":"Feature"},{"geometry":{"coordinates":[-87.72604,43.73214],"type":"Point"},"properties":{"kind":"stop","name":"Union Ave. & S. 16th St.","stop_id":"760300"},"type":"Feature"},{"geometry":{"coordinates":[-87.72632,43.73103],"type":"Point"},"properties":{"kind":"stop","name":"S. 16th St. & Oakland Ave.","stop_id":"760301"},"type":"Feature"},{"geometry":{"coordinates":[-87.72632,43.7299],"type":"Point"},"properties":{"kind":"stop","name":"S. 16th St. & Ashland Ave.","stop_id":"760302"},"type":"Feature"},{"geometry":{"coordinates":[-87.72632,43.72805],"type":"Point"},"properties":{"kind":"stop","name":"S. 16th St. & Mead Ave.","stop_id":"760303"},"type":"Feature"},{"geometry":{"coordinates":[-87.72771,43.72804],"type":"Point"},"properties":{"kind":"stop","name":"Mead Ave. & S. 17th St.","stop_id":"760304"},"type":"Feature"},{"geometry":{"coordinates":[-87.72893,43.72804],"type":"Point"},"properties":{"kind":"stop","name":"Mead Ave. & S. 18th St.","stop_id":"760305"},"type":"Feature"},{"geometry":{"coordinates":[-87.72934,43.72325],"type":"Point"},"properties":{"kind":"stop","name":"S. 18th St. & Wilson Ave.","stop_id":"760307"},"type":"Feature"},{"geometry":{"coordinates":[-87.72938,43.72055],"type":"Point"},"properties":{"kind":"stop","name":"S. 18th St. & Ohio Ave.","stop_id":"760308"},"type":"Feature"},{"geometry":{"coordinates":[-87.72939,43.71956],"type":"Point"},"properties":{"kind":"stop","name":"S. 18th St. & Washington Ave.","stop_id":"760309"},"type":"Feature"},{"geometry":{"coordinates":[-87.73679,43.71954],"type":"Point"},"properties":{"kind":"stop","name":"Washington Ave. & S. Business Dr.","stop_id":"760310"},"type":"Feature"},{"geometry":{"coordinates":[-87.73913,43.71639],"type":"Point"},"properties":{"kind":"stop","name":"Indian Meadows Mobile Home Park","stop_id":"760311"},"type":"Feature"},{"geometry":{"coordinates":[-87.73795,43.71464],"type":"Point"},"properties":{"kind":"stop","name":"Carmen Ave. & Sunflower Ave.","stop_id":"760312"},"type":"Feature"},{"geometry":{"coordinates":[-87.73432,43.7142],"type":"Point"},"properties":{"kind":"stop","name":"Carmen Ave. & S. 22nd St.","stop_id":"760313"},"type":"Feature"},{"geometry":{"coordinates":[-87.72962,43.7133],"type":"Point"},"properties":{"kind":"stop","name":"Carmen Ave. & S. 18th St.","stop_id":"760314"},"type":"Feature"},{"geometry":{"coordinates":[-87.72949,43.71506],"type":"Point"},"properties":{"kind":"stop","name":"S. 18th St. & Parkwood Blvd.","stop_id":"760315"},"type":"Feature"},{"geometry":{"coordinates":[-87.72941,43.71715],"type":"Point"},"properties":{"kind":"stop","name":"S. 18th St. & Greenfield Ave.","stop_id":"760316"},"type":"Feature"},{"geometry":{"coordinates":[-87.72915,43.71934],"type":"Point"},"properties":{"kind":"stop","name":"S. 18th St. & Washington Ave.","stop_id":"760317"},"type":"Feature"},{"geometry":{"coordinates":[-87.72913,43.72037],"type":"Point"},"properties":{"kind":"stop","name":"S. 18th St. & Ohio Ave.","stop_id":"760318"},"type":"Feature"},{"geometry":{"coordinates":[-87.72908,43.723],"type":"Point"},"properties":{"kind":"stop","name":"S. 18th St. & Wilson Ave.","stop_id":"760319"},"type":"Feature"},{"geometry":{"coordinates":[-87.71971,43.72585],"type":"Point"},"properties":{"kind":"stop","name":"S. 12th St. & Humboldt Ave.","stop_id":"760327"},"type":"Feature"},{"geometry":{"coordinates":[-87.71966,43.72779],"type":"Point"},"properties":{"kind":"stop","name":"S. 12th St. & Mead Ave.","stop_id":"760328"},"type":"Feature"},{"geometry":{"coordinates":[-87.71957,43.72965],"type":"Point"},"properties":{"kind":"stop","name":"S. 12th St. & Ashland Ave.","stop_id":"760329"},"type":"Feature"},{"geometry":{"coordinates":[-87.71953,43.73078],"type":"Point"},"properties":{"kind":"stop","name":"S. 12th St. & Oakland Ave.","stop_id":"760330"},"type":"Feature"},{"geometry":{"coordinates":[-87.71953,43.73187],"type":"Point"},"properties":{"kind":"stop","name":"S. 12th St. & Union Ave.","stop_id":"760331"},"type":"Feature"},{"geometry":{"coordinates":[-87.71948,43.7382],"type":"Point"},"properties":{"kind":"stop","name":"S. 12th St. & Clara Ave.","stop_id":"760336"},"type":"Feature"},{"geometry":{"coordinates":[-87.71969,43.73987],"type":"Point"},"properties":{"kind":"stop","name":"S. 12th St. & Georgia Ave.","stop_id":"760337"},"type":"Feature"},{"geometry":{"coordinates":[-87.71799,43.73988],"type":"Point"},"properties":{"kind":"stop","name":"Georgia Ave. & S. 11th St.","stop_id":"760338"},"type":"Feature"},{"geometry":{"coordinates":[-87.71784,43.74096],"type":"Point"},"properties":{"kind":"stop","name":"S. 11th St. & Alabama Ave.","stop_id":"760339"},"type":"Feature"},{"geometry":{"coordinates":[-87.71782,43.74199],"type":"Point"},"properties":{"kind":"stop","name":"S. 11th St. & Kentucky Ave.","stop_id":"760340"},"type":"Feature"},{"geometry":{"coordinates":[-87.71785,43.74306],"type":"Point"},"properties":{"kind":"stop","name":"S. 11th St. & Indiana Ave.","stop_id":"760341"},"type":"Feature"},{"geometry":{"coordinates":[-87.71619,43.74417],"type":"Point"},"properties":{"kind":"stop","name":"S. Commerce St. & Illinois Ave.","stop_id":"760342"},"type":"Feature"},{"geometry":{"coordinates":[-87.71627,43.74536],"type":"Point"},"properties":{"kind":"stop","name":"S. Commerce St. & Maryland Ave.","stop_id":"760343"},"type":"Feature"},{"geometry":{"coordinates":[-87.71708,43.74757],"type":"Point"},"properties":{"kind":"stop","name":"S. Commerce St. & Virginia Ave. (Rockline Industries)","stop_id":"760344"},"type":"Feature"},{"geometry":{"coordinates":[-87.71751,43.74866],"type":"Point"},"properties":{"kind":"stop","name":"S. Commerce St. & Jefferson Ave. (Shoreline Metro Office)","stop_id":"760345"},"type":"Feature"},{"geometry":{"coordinates":[-87.71832,43.7496],"type":"Point"},"properties":{"kind":"stop","name":"S. Commerce St. & Pennsylvania Ave.","stop_id":"760346"},"type":"Feature"},{"geometry":{"coordinates":[-87.71475,43.7497],"type":"Point"},"properties":{"kind":"stop","name":"Pennsylvania Ave. & N. 9th St.","stop_id":"760347"},"type":"Feature"},{"geometry":{"coordinates":[-87.71308,43.75079],"type":"Point"},"properties":{"kind":"stop","name":"Center Ave. & N. 8th St.","stop_id":"760348"},"type":"Feature"},{"geometry":{"coordinates":[-87.71285,43.75187],"type":"Point"},"properties":{"kind":"stop","name":"N. 8th St. & New York Ave.","stop_id":"760349"},"type":"Feature"},{"geometry":{"coordinates":[-87.71288,43.75298],"type":"Point"},"properties":{"kind":"stop","name":"N. 8th St. & Wisconsin Ave.","stop_id":"760350"},"type":"Feature"},{"geometry":{"coordinates":[-87.71283,43.75402],"type":"Point"},"properties":{"kind":"stop","name":"N. 8th St. & Niagara Ave.","stop_id":"760351"},"type":"Feature"},{"geometry":{"coordinates":[-87.7128,43.75513],"type":"Point"},"properties":{"kind":"stop","name":"N. 8th St. & Ontario Ave.","stop_id":"760352"},"type":"Feature"},{"geometry":{"coordinates":[-87.71279,43.75621],"type":"Point"},"properties":{"kind":"stop","name":"N. 8th St. & Erie Ave.","stop_id":"760353"},"type":"Feature"},{"geometry":{"coordinates":[-87.71278,43.75729],"type":"Point"},"properties":{"kind":"stop","name":"N. 8th St. & St. Clair Ave.","stop_id":"760354"},"type":"Feature"},{"geometry":{"coordinates":[-87.71278,43.7584],"type":"Point"},"properties":{"kind":"stop","name":"N. 8th St. & Michigan Ave.","stop_id":"760355"},"type":"Feature"},{"geometry":{"coordinates":[-87.71282,43.75951],"type":"Point"},"properties":{"kind":"stop","name":"N. 8th St. & Huron Ave.","stop_id":"760356"},"type":"Feature"},{"geometry":{"coordinates":[-87.71283,43.76059],"type":"Point"},"properties":{"kind":"stop","name":"N. 8th St. & Superior Ave.","stop_id":"760357"},"type":"Feature"},{"geometry":{"coordinates":[-87.71282,43.76253],"type":"Point"},"properties":{"kind":"stop","name":"N. 8th & National Ave.","stop_id":"760358"},"type":"Feature"},{"geometry":{"coordinates":[-87.71283,43.76367],"type":"Point"},"properties":{"kind":"stop","name":"N. 8th St. & Zimbal Ave.","stop_id":"760359"},"type":"Feature"},{"geometry":{"coordinates":[-87.71283,43.76475],"type":"Point"},"properties":{"kind":"stop","name":"N. 8th St. & Lincoln Ave.","stop_id":"760360"},"type":"Feature"},{"geometry":{"coordinates":[-87.71283,43.76633],"type":"Point"},"properties":{"kind":"stop","name":"N. 8th St. & Bluff Ave.","stop_id":"760361"},"type":"Feature"},{"geometry":{"coordinates":[-87.7128,43.76828],"type":"Point"},"properties":{"kind":"stop","name":"N. 8th St. & Geele Ave.","stop_id":"760362"},"type":"Feature"},{"geometry":{"coordinates":[-87.71442,43.76845],"type":"Point"},"properties":{"kind":"stop","name":"Geele Ave. & N. 9th St.","stop_id":"760363"},"type":"Feature"},{"geometry":{"coordinates":[-87.7161,43.76847],"type":"Point"},"properties":{"kind":"stop","name":"Geele Ave. & N. 10th St.","stop_id":"760364"},"type":"Feature"},{"geometry":{"coordinates":[-87.71779,43.76847],"type":"Point"},"properties":{"kind":"stop","name":"Geele Ave. & N. 11th St.","stop_id":"760365"},"type":"Feature"},{"geometry":{"coordinates":[-87.71993,43.76847],"type":"Point"},"properties":{"kind":"stop","name":"Geele Ave. & Kroos Ct.","stop_id":"760366"},"type":"Feature"},{"geometry":{"coordinates":[-87.72183,43.76848],"type":"Point"},"properties":{"kind":"stop","name":"Geele Ave. & N. 13th St.","stop_id":"760367"},"type":"Feature"},{"geometry":{"coordinates":[-87.7219,43.76925],"type":"Point"},"properties":{"kind":"stop","name":"N. 13th St. & Logan Ave.","stop_id":"760368"},"type":"Feature"},{"geometry":{"coordinates":[-87.7219,43.76991],"type":"Point"},"properties":{"kind":"stop","name":"N. 13th St. & Lenz Ct.","stop_id":"760369"},"type":"Feature"},{"geometry":{"coordinates":[-87.72189,43.77028],"type":"Point"},"properties":{"kind":"stop","name":"N. 13th St. & Bell Ave.","stop_id":"760370"},"type":"Feature"},{"geometry":{"coordinates":[-87.72186,43.77078],"type":"Point"},"properties":{"kind":"stop","name":"N. 13th St. & Annie Ct.","stop_id":"760371"},"type":"Feature"},{"geometry":{"coordinates":[-87.72188,43.7712],"type":"Point"},"properties":{"kind":"stop","name":"N. 13th St. & Los Angeles Ave.","stop_id":"760372"},"type":"Feature"},{"geometry":{"coordinates":[-87.72186,43.77173],"type":"Point"},"properties":{"kind":"stop","name":"N. 13th St. & Martin Ave.","stop_id":"760373"},"type":"Feature"},{"geometry":{"coordinates":[-87.72189,43.7729],"type":"Point"},"properties":{"kind":"stop","name":"N. 13th St. & Main Ave.","stop_id":"760374"},"type":"Feature"},{"geometry":{"coordinates":[-87.72191,43.77374],"type":"Point"},"properties":{"kind":"stop","name":"N. 13th St. & North Ave. (Urban Middle School)","stop_id":"760375"},"type":"Feature"},{"geometry":{"coordinates":[-87.72188,43.77513],"type":"Point"},"properties":{"kind":"stop","name":"N. 13th St. & School Ave.","stop_id":"760376"},"type":"Feature"},{"geometry":{"coordinates":[-87.7219,43.77698],"type":"Point"},"properties":{"kind":"stop","name":"N. 13th St. & Mayflower Ave.","stop_id":"760377"},"type":"Feature"},{"geometry":{"coordinates":[-87.72189,43.77791],"type":"Point"},"properties":{"kind":"stop","name":"N. 13th St. & Grand Ave.","stop_id":"760378"},"type":"Feature"},{"geometry":{"coordinates":[-87.7219,43.77885],"type":"Point"},"properties":{"kind":"stop","name":"N. 13th St. & Columbus Ave.","stop_id":"760379"},"type":"Feature"},{"geometry":{"coordinates":[-87.72189,43.77978],"type":"Point"},"properties":{"kind":"stop","name":"N. 13th St. & Pershing Ave.","stop_id":"760380"},"type":"Feature"},{"geometry":{"coordinates":[-87.7219,43.78071],"type":"Point"},"properties":{"kind":"stop","name":"N. 13th St. & Mac Arthur Ave.","stop_id":"760381"},"type":"Feature"},{"geometry":{"coordinates":[-87.7219,43.78281],"type":"Point"},"properties":{"kind":"stop","name":"N. 13th St. & Eisner Ave.","stop_id":"760382"},"type":"Feature"},{"geometry":{"coordinates":[-87.71977,43.78287],"type":"Point"},"properties":{"kind":"stop","name":"Eisner Ave. & N. 12th St.","stop_id":"760383"},"type":"Feature"},{"geometry":{"coordinates":[-87.71764,43.78286],"type":"Point"},"properties":{"kind":"stop","name":"Eisner Ave. & Highcliff Ct.","stop_id":"760384"},"type":"Feature"},{"geometry":{"coordinates":[-87.71642,43.78283],"type":"Point"},"properties":{"kind":"stop","name":"Eisner Ave. & N. 10th St.","stop_id":"760385"},"type":"Feature"},{"geometry":{"coordinates":[-87.71636,43.78196],"type":"Point"},"properties":{"kind":"stop","name":"N. 10th St. & Willow Ave","stop_id":"760386"},"type":"Feature"},{"geometry":{"coordinates":[-87.71638,43.77999],"type":"Point"},"properties":{"kind":"stop","name":"N. 10th St. & Pershing Ave.","stop_id":"760387"},"type":"Feature"},{"geometry":{"coordinates":[-87.7164,43.77808],"type":"Point"},"properties":{"kind":"stop","name":"N. 10th St. & Grand Ave.","stop_id":"760388"},"type":"Feature"},{"geometry":{"coordinates":[-87.7164,43.77707],"type":"Point"},"properties":{"kind":"stop","name":"N. 10th St. & Mayflower Ave.","stop_id":"760389"},"type":"Feature"},{"geometry":{"coordinates":[-87.7164,43.77583],"type":"Point"},"properties":{"kind":"stop","name":"N. 10th St. & School Ave. (North High School)","stop_id":"760390"},"type":"Feature"},{"geometry":{"coordinates":[-87.71637,43.77394],"type":"Point"},"properties":{"kind":"stop","name":"N. 10th St. & North Ave.","stop_id":"760391"},"type":"Feature"},{"geometry":{"coordinates":[-87.7148,43.77374],"type":"Point"},"properties":{"kind":"stop","name":"North Ave. & N. 9th St.","stop_id":"760392"},"type":"Feature"},{"geometry":{"coordinates":[-87.71314,43.77374],"type":"Point"},"properties":{"kind":"stop","name":"North Ave. & N. 8th St.","stop_id":"760393"},"type":"Feature"},{"geometry":{"coordinates":[-87.71147,43.77371],"type":"Point"},"properties":{"kind":"stop","name":"North Ave. & N. 7th St. (Memorial Hospital)","stop_id":"760394"},"type":"Feature"},{"geometry":{"coordinates":[-87.70971,43.77371],"type":"Point"},"properties":{"kind":"stop","name":"North Ave. & N. 6th St.","stop_id":"760395"},"type":"Feature"},{"geometry":{"coordinates":[-87.70809,43.77371],"type":"Point"},"properties":{"kind":"stop","name":"North Ave. & N. 5th St.","stop_id":"760396"},"type":"Feature"},{"geometry":{"coordinates":[-87.70611,43.77331],"type":"Point"},"properties":{"kind":"stop","name":"N. 3rd St. & Blackstock Ave.","stop_id":"760397"},"type":"Feature"},{"geometry":{"coordinates":[-87.70565,43.77236],"type":"Point"},"properties":{"kind":"stop","name":"N. 3rd St. & Clement Ave.","stop_id":"760398"},"type":"Feature"},{"geometry":{"coordinates":[-87.70495,43.7714],"type":"Point"},"properties":{"kind":"stop","name":"N. 3rd St. & Clifton Ave.","stop_id":"760399"},"type":"Feature"},{"geometry":{"coordinates":[-87.7047,43.77037],"type":"Point"},"properties":{"kind":"stop","name":"N. 3rd St. & Bell Ave.","stop_id":"760400"},"type":"Feature"},{"geometry":{"coordinates":[-87.70469,43.76935],"type":"Point"},"properties":{"kind":"stop","name":"N. 3rd St. & Euclid Ave.","stop_id":"760401"},"type":"Feature"},{"geometry":{"coordinates":[-87.70472,43.76841],"type":"Point"},"properties":{"kind":"stop","name":"N. 3rd St. & Geele Ave.","stop_id":"760402"},"type":"Feature"},{"geometry":{"coordinates":[-87.7047,43.76784],"type":"Point"},"properties":{"kind":"stop","name":"N. 3rd St. & Vollrath Blvd.","stop_id":"760403"},"type":"Feature"},{"geometry":{"coordinates":[-87.7047,43.76663],"type":"Point"},"properties":{"kind":"stop","name":"N. 3rd St. & Bluff Ave.","stop_id":"760404"},"type":"Feature"},{"geometry":{"coordinates":[-87.70469,43.76571],"type":"Point"},"properties":{"kind":"stop","name":"N. 3rd St. & Park Ave.","stop_id":"760405"},"type":"Feature"},{"geometry":{"coordinates":[-87.70469,43.76479],"type":"Point"},"properties":{"kind":"stop","name":"N. 3rd St. & Lincoln Ave.","stop_id":"760406"},"type":"Feature"},{"geometry":{"coordinates":[-87.7047,43.76326],"type":"Point"},"properties":{"kind":"stop","name":"N. 3rd St. & Prospect Ave.","stop_id":"760407"},"type":"Feature"},{"geometry":{"coordinates":[-87.70471,43.76081],"type":"Point"},"properties":{"kind":"stop","name":"N. 3rd St. & Superior Ave.","stop_id":"760408"},"type":"Feature"},{"geometry":{"coordinates":[-87.70605,43.76078],"type":"Point"},"properties":{"kind":"stop","name":"Superior Ave. & N. 4th St.","stop_id":"760409"},"type":"Feature"},{"geometry":{"coordinates":[-87.70638,43.75972],"type":"Point"},"properties":{"kind":"stop","name":"N. 4th St. & Huron Ave.","stop_id":"760410"},"type":"Feature"},{"geometry":{"coordinates":[-87.70638,43.75862],"type":"Point"},"properties":{"kind":"stop","name":"N. 4th St. & Michigan Ave.","stop_id":"760411"},"type":"Feature"},{"geometry":{"coordinates":[-87.70638,43.75754],"type":"Point"},"properties":{"kind":"stop","name":"N. 4th St. & St. Clair Ave.","stop_id":"760412"},"type":"Feature"},{"geometry":{"coordinates":[-87.70639,43.75644],"type":"Point"},"properties":{"kind":"stop","name":"N. 4th St. & Erie Ave.","stop_id":"760413"},"type":"Feature"},{"geometry":{"coordinates":[-87.7064,43.75535],"type":"Point"},"properties":{"kind":"stop","name":"N. 4th St. & Ontario Ave.","stop_id":"760414"},"type":"Feature"},{"geometry":{"coordinates":[-87.70498,43.75514],"type":"Point"},"properties":{"kind":"stop","name":"Broughton Dr. & Ontario Ave.","stop_id":"760415"},"type":"Feature"},{"geometry":{"coordinates":[-87.70472,43.75426],"type":"Point"},"properties":{"kind":"stop","name":"Broughton Dr. & Niagara Ave.","stop_id":"760416"},"type":"Feature"},{"geometry":{"coordinates":[-87.70439,43.75375],"type":"Point"},"properties":{"kind":"stop","name":"Broughton Dr. & Washington Ct.","stop_id":"760418"},"type":"Feature"},{"geometry":{"coordinates":[-87.70417,43.7526],"type":"Point"},"properties":{"kind":"stop","name":"Broughton Dr. & Wisconsin Ave","stop_id":"760423"},"type":"Feature"},{"geometry":{"coordinates":[-87.70416,43.75172],"type":"Point"},"properties":{"kind":"stop","name":"Broughton Dr. & New York Ave.","stop_id":"760424"},"type":"Feature"},{"geometry":{"coordinates":[-87.70432,43.75079],"type":"Point"},"properties":{"kind":"stop","name":"Broughton Dr. & Center Ave.","stop_id":"760425"},"type":"Feature"},{"geometry":{"coordinates":[-87.70477,43.74987],"type":"Point"},"properties":{"kind":"stop","name":"Broughton Dr. & Pennsylvania Ave.","stop_id":"760426"},"type":"Feature"},{"geometry":{"coordinates":[-87.70621,43.74985],"type":"Point"},"properties":{"kind":"stop","name":"Pennsylvania Ave. & N. 4th St.","stop_id":"760427"},"type":"Feature"},{"geometry":{"coordinates":[-87.70775,43.74984],"type":"Point"},"properties":{"kind":"stop","name":"Pennsylvania Ave. & N. 5th St.","stop_id":"760428"},"type":"Feature"},{"geometry":{"coordinates":[-87.70945,43.74985],"type":"Point"},"properties":{"kind":"stop","name":"Pennsylvania Ave. & N. 6th St.","stop_id":"760429"},"type":"Feature"},{"geometry":{"coordinates":[-87.7111,43.75095],"type":"Point"},"properties":{"kind":"stop","name":"Center Ave. & N. 7th Ave.","stop_id":"760430"},"type":"Feature"},{"geometry":{"coordinates":[-87.71307,43.74773],"type":"Point"},"properties":{"kind":"stop","name":"S. 8th St. & Virginia Ave.","stop_id":"760431"},"type":"Feature"},{"geometry":{"coordinates":[-87.71275,43.75096],"type":"Point"},"properties":{"kind":"stop","name":"Center Ave. & N. 8th St.","stop_id":"760432"},"type":"Feature"},{"geometry":{"coordinates":[-87.71308,43.74659],"type":"Point"},"properties":{"kind":"stop","name":"S. 8th St. & New Jersey Ave.","stop_id":"760433"},"type":"Feature"},{"geometry":{"coordinates":[-87.71307,43.74223],"type":"Point"},"properties":{"kind":"stop","name":"S. 8th St. & Kentucky Ave. (Longfellow School)","stop_id":"760434"},"type":"Feature"},{"geometry":{"coordinates":[-87.71308,43.74552],"type":"Point"},"properties":{"kind":"stop","name":"S. 8th St. & Riverfront Dr.","stop_id":"760435"},"type":"Feature"},{"geometry":{"coordinates":[-87.71308,43.74003],"type":"Point"},"properties":{"kind":"stop","name":"S. 8th St. & Georgia Ave.","stop_id":"760436"},"type":"Feature"},{"geometry":{"coordinates":[-87.71308,43.74113],"type":"Point"},"properties":{"kind":"stop","name":"S. 8th St. & Alabama Ave.","stop_id":"760437"},"type":"Feature"},{"geometry":{"coordinates":[-87.71308,43.73843],"type":"Point"},"properties":{"kind":"stop","name":"S. 8th St. & Clara Ave.","stop_id":"760438"},"type":"Feature"},{"geometry":{"coordinates":[-87.7131,43.73597],"type":"Point"},"properties":{"kind":"stop","name":"S. 8th St. & Broadway Ave.","stop_id":"760439"},"type":"Feature"},{"geometry":{"coordinates":[-87.71309,43.73382],"type":"Point"},"properties":{"kind":"stop","name":"S. 8th St. & Swift Ave.","stop_id":"760440"},"type":"Feature"},{"geometry":{"coordinates":[-87.71309,43.73488],"type":"Point"},"properties":{"kind":"stop","name":"S. 8th St. & High Ave.","stop_id":"760441"},"type":"Feature"},{"geometry":{"coordinates":[-87.71306,43.73095],"type":"Point"},"properties":{"kind":"stop","name":"S. 8th St. & Oakland Ave.","stop_id":"760442"},"type":"Feature"},{"geometry":{"coordinates":[-87.7131,43.737],"type":"Point"},"properties":{"kind":"stop","name":"S. 8th St. & Spring Ave.","stop_id":"760443"},"type":"Feature"},{"geometry":{"coordinates":[-87.71309,43.73288],"type":"Point"},"properties":{"kind":"stop","name":"S. 8th St. & Dillingham Ave.","stop_id":"760444"},"type":"Feature"},{"geometry":{"coordinates":[-87.71306,43.72997],"type":"Point"},"properties":{"kind":"stop","name":"S. 8th St. & Ashland Ave.","stop_id":"760445"},"type":"Feature"},{"geometry":{"coordinates":[-87.71307,43.72802],"type":"Point"},"properties":{"kind":"stop","name":"S. 8th St. & Mead Ave.","stop_id":"760446"},"type":"Feature"},{"geometry":{"coordinates":[-87.71308,43.73201],"type":"Point"},"properties":{"kind":"stop","name":"S. 8th St. & Union Ave.","stop_id":"760447"},"type":"Feature"},{"geometry":{"coordinates":[-87.71308,43.72602],"type":"Point"},"properties":{"kind":"stop","name":"S. 8th St. & Humboldt Ave.","stop_id":"760448"},"type":"Feature"},{"geometry":{"coordinates":[-87.71308,43.72504],"type":"Point"},"properties":{"kind":"stop","name":"S. 8th St. & Jackson Ave.","stop_id":"760449"},"type":"Feature"},{"geometry":{"coordinates":[-87.71307,43.72702],"type":"Point"},"properties":{"kind":"stop","name":"S. 8th St. & Custer Ave.","stop_id":"760450"},"type":"Feature"},{"geometry":{"coordinates":[-87.71309,43.72404],"type":"Point"},"properties":{"kind":"stop","name":"S. 8th St. & Whitcomb Ave.","stop_id":"760451"},"type":"Feature"},{"geometry":{"coordinates":[-87.71467,43.72305],"type":"Point"},"properties":{"kind":"stop","name":"Wilson Ave. & S. 9th St.","stop_id":"760452"},"type":"Feature"},{"geometry":{"coordinates":[-87.71309,43.72306],"type":"Point"},"properties":{"kind":"stop","name":"S. 8th St. & Wilson Ave.","stop_id":"760453"},"type":"Feature"},{"geometry":{"coordinates":[-87.71796,43.72317],"type":"Point"},"properties":{"kind":"stop","name":"Wilson Ave. & S. 11th St.","stop_id":"760454"},"type":"Feature"},{"geometry":{"coordinates":[-87.71993,43.7223],"type":"Point"},"properties":{"kind":"stop","name":"S. 12th St. & Cherry Ln.","stop_id":"760455"},"type":"Feature"},{"geometry":{"coordinates":[-87.71614,43.72315],"type":"Point"},"properties":{"kind":"stop","name":"Wilson Ave. & S. 10th St.","stop_id":"760456"},"type":"Feature"},{"geometry":{"coordinates":[-87.72016,43.71644],"type":"Point"},"properties":{"kind":"stop","name":"S. 12th St. & Parkwood Blvd.","stop_id":"760457"},"type":"Feature"},{"geometry":{"coordinates":[-87.72043,43.71232],"type":"Point"},"properties":{"kind":"stop","name":"S. 12th St. & Castle Ave.","stop_id":"760458"},"type":"Feature"},{"geometry":{"coordinates":[-87.71993,43.71957],"type":"Point"},"properties":{"kind":"stop","name":"S. 12th St. & Washington Ave.","stop_id":"760459"},"type":"Feature"},{"geometry":{"coordinates":[-87.71964,43.72315],"type":"Point"},"properties":{"kind":"stop","name":"Wilson Ave. & S. 12th St.","stop_id":"760460"},"type":"Feature"},{"geometry":{"coordinates":[-87.72037,43.71331],"type":"Point"},"properties":{"kind":"stop","name":"S. 12th St. & Carmen Ave.","stop_id":"760461"},"type":"Feature"},{"geometry":{"coordinates":[-87.71992,43.71766],"type":"Point"},"properties":{"kind":"stop","name":"S. 12th St. & Greenfield Ave.","stop_id":"760462"},"type":"Feature"},{"geometry":{"coordinates":[-87.72033,43.71417],"type":"Point"},"properties":{"kind":"stop","name":"S. 12th St. & Kaufman Ave.","stop_id":"760463"},"type":"Feature"},{"geometry":{"coordinates":[-87.72047,43.71074],"type":"Point"},"properties":{"kind":"stop","name":"S. 12th St. & Camelot Blvd.","stop_id":"760464"},"type":"Feature"},{"geometry":{"coordinates":[-87.71991,43.72156],"type":"Point"},"properties":{"kind":"stop","name":"S. 12th St. & Orchard Dr.","stop_id":"760465"},"type":"Feature"},{"geometry":{"coordinates":[-87.72117,43.70273],"type":"Point"},"properties":{"kind":"stop","name":"S. 12th St. & Weeden Creek Rd. (Sunnyside Mall)","stop_id":"760466"},"type":"Feature"},{"geometry":{"coordinates":[-87.72059,43.70733],"type":"Point"},"properties":{"kind":"stop","name":"S. 12th St. & Sunnyside Ave.","stop_id":"760467"},"type":"Feature"},{"geometry":{"coordinates":[-87.71999,43.71934],"type":"Point"},"properties":{"kind":"stop","name":"S. 12th St. & Washington Ave.","stop_id":"760476"},"type":"Feature"},{"geometry":{"coordinates":[-87.71974,43.72208],"type":"Point"},"properties":{"kind":"stop","name":"S. 12th St. & Cherry Ln.","stop_id":"760478"},"type":"Feature"},{"geometry":{"coordinates":[-87.71971,43.72298],"type":"Point"},"properties":{"kind":"stop","name":"S. 12th St. & Wilson Ave.","stop_id":"760481"},"type":"Feature"},{"geometry":{"coordinates":[-87.71306,43.73177],"type":"Point"},"properties":{"kind":"stop","name":"S. 8th St. & Union Ave.","stop_id":"760491"},"type":"Feature"},{"geometry":{"coordinates":[-87.71284,43.73361],"type":"Point"},"properties":{"kind":"stop","name":"S. 8th St. & Swift Ave.","stop_id":"760492"},"type":"Feature"},{"geometry":{"coordinates":[-87.71284,43.73462],"type":"Point"},"properties":{"kind":"stop","name":"S. 8th St. & High Ave.","stop_id":"760493"},"type":"Feature"},{"geometry":{"coordinates":[-87.7128,43.74199],"type":"Point"},"properties":{"kind":"stop","name":"S. 8th St. & Kentucky Ave.","stop_id":"760494"},"type":"Feature"},{"geometry":{"coordinates":[-87.71284,43.73575],"type":"Point"},"properties":{"kind":"stop","name":"S. 8th St. & Broadway Ave.","stop_id":"760495"},"type":"Feature"},{"geometry":{"coordinates":[-87.71284,43.73677],"type":"Point"},"properties":{"kind":"stop","name":"S. 8th St. & Spring Ave.","stop_id":"760496"},"type":"Feature"},{"geometry":{"coordinates":[-87.71284,43.73825],"type":"Point"},"properties":{"kind":"stop","name":"S. 8th St. & Clara Ave.","stop_id":"760497"},"type":"Feature"},{"geometry":{"coordinates":[-87.70697,43.74705],"type":"Point"},"properties":{"kind":"stop","name":"Blue Harbor Resort","stop_id":"760499"},"type":"Feature"},{"geometry":{"coordinates":[-87.71072,43.74424],"type":"Point"},"properties":{"kind":"stop","name":"S. Pier Dr. & Illinois Ave.","stop_id":"760500"},"type":"Feature"},{"geometry":{"coordinates":[-87.71284,43.74639],"type":"Point"},"properties":{"kind":"stop","name":"S. 8th St. & New Jersey Ave.","stop_id":"760501"},"type":"Feature"},{"geometry":{"coordinates":[-87.71284,43.74751],"type":"Point"},"properties":{"kind":"stop","name":"S. 8th St. & Virginia Ave.","stop_id":"760502"},"type":"Feature"},{"geometry":{"coordinates":[-87.71284,43.7398],"type":"Point"},"properties":{"kind":"stop","name":"S. 8th St. & Georgia Ave.","stop_id":"760503"},"type":"Feature"},{"geometry":{"coordinates":[-87.71284,43.74964],"type":"Point"},"properties":{"kind":"stop","name":"S. 8th St. & Pennsylvania Ave.","stop_id":"760504"},"type":"Feature"},{"geometry":{"coordinates":[-87.71284,43.73269],"type":"Point"},"properties":{"kind":"stop","name":"S. 8th St. & Dillingham Ave.","stop_id":"760505"},"type":"Feature"},{"geometry":{"coordinates":[-87.71285,43.7409],"type":"Point"},"properties":{"kind":"stop","name":"S. 8th St. & Alabama Ave.","stop_id":"760506"},"type":"Feature"},{"geometry":{"coordinates":[-87.71451,43.75186],"type":"Point"},"properties":{"kind":"stop","name":"N. 9th St. & New York Ave.","stop_id":"760508"},"type":"Feature"},{"geometry":{"coordinates":[-87.71448,43.75622],"type":"Point"},"properties":{"kind":"stop","name":"N. 9th St. & Erie Ave.","stop_id":"760509"},"type":"Feature"},{"geometry":{"coordinates":[-87.71613,43.76081],"type":"Point"},"properties":{"kind":"stop","name":"Superior Ave. & N. 10th St.","stop_id":"760510"},"type":"Feature"},{"geometry":{"coordinates":[-87.71448,43.75731],"type":"Point"},"properties":{"kind":"stop","name":"N. 9th St. & St. Clair Ave.","stop_id":"760511"},"type":"Feature"},{"geometry":{"coordinates":[-87.71779,43.76082],"type":"Point"},"properties":{"kind":"stop","name":"Superior Ave. & N. 11th St.","stop_id":"760512"},"type":"Feature"},{"geometry":{"coordinates":[-87.71451,43.75839],"type":"Point"},"properties":{"kind":"stop","name":"N. 9th St. & Michigan Ave.","stop_id":"760513"},"type":"Feature"},{"geometry":{"coordinates":[-87.7145,43.75299],"type":"Point"},"properties":{"kind":"stop","name":"N. 9th St. & Wisconsin Ave. (Mead Public Library)","stop_id":"760514"},"type":"Feature"},{"geometry":{"coordinates":[-87.71451,43.75951],"type":"Point"},"properties":{"kind":"stop","name":"N. 9th St. & Huron Ave.","stop_id":"760515"},"type":"Feature"},{"geometry":{"coordinates":[-87.7145,43.75403],"type":"Point"},"properties":{"kind":"stop","name":"N. 9th St. & Niagara Ave.","stop_id":"760516"},"type":"Feature"},{"geometry":{"coordinates":[-87.71449,43.76058],"type":"Point"},"properties":{"kind":"stop","name":"N. 9th St. & Superior Ave.","stop_id":"760517"},"type":"Feature"},{"geometry":{"coordinates":[-87.73626,43.76123],"type":"Point"},"properties":{"kind":"stop","name":"Superior Ave. & N. 23rd St.","stop_id":"760518"},"type":"Feature"},{"geometry":{"coordinates":[-87.71946,43.76083],"type":"Point"},"properties":{"kind":"stop","name":"Superior Ave. & N. 12th St.","stop_id":"760519"},"type":"Feature"},{"geometry":{"coordinates":[-87.72113,43.76082],"type":"Point"},"properties":{"kind":"stop","name":"Superior Ave. & N. 13th St.","stop_id":"760520"},"type":"Feature"},{"geometry":{"coordinates":[-87.71282,43.74528],"type":"Point"},"properties":{"kind":"stop","name":"S. 8th St. & Riverfront Dr.","stop_id":"760521"},"type":"Feature"},{"geometry":{"coordinates":[-87.73925,43.76103],"type":"Point"},"properties":{"kind":"stop","name":"N. 25th St. & Superior Ave.","stop_id":"760522"},"type":"Feature"},{"geometry":{"coordinates":[-87.72612,43.76084],"type":"Point"},"properties":{"kind":"stop","name":"Superior Ave. & N. 16th St.","stop_id":"760523"},"type":"Feature"},{"geometry":{"coordinates":[-87.71448,43.75511],"type":"Point"},"properties":{"kind":"stop","name":"N. 9th St. & Ontario Ave.","stop_id":"760524"},"type":"Feature"},{"geometry":{"coordinates":[-87.74014,43.7612],"type":"Point"},"properties":{"kind":"stop","name":"Superior Ave. & N. 26th St.","stop_id":"760525"},"type":"Feature"},{"geometry":{"coordinates":[-87.72778,43.76084],"type":"Point"},"properties":{"kind":"stop","name":"Superior Ave. & N. 17th St.","stop_id":"760526"},"type":"Feature"},{"geometry":{"coordinates":[-87.74139,43.76122],"type":"Point"},"properties":{"kind":"stop","name":"Superior Ave. & N. 27th St.","stop_id":"760527"},"type":"Feature"},{"geometry":{"coordinates":[-87.72446,43.76083],"type":"Point"},"properties":{"kind":"stop","name":"Superior Ave. & N. 15th St.","stop_id":"760528"},"type":"Feature"},{"geometry":{"coordinates":[-87.72942,43.76091],"type":"Point"},"properties":{"kind":"stop","name":"Superior Ave. & N. 18th St.","stop_id":"760529"},"type":"Feature"},{"geometry":{"coordinates":[-87.74316,43.76121],"type":"Point"},"properties":{"kind":"stop","name":"Superior Ave. & N. 28th St.","stop_id":"760530"},"type":"Feature"},{"geometry":{"coordinates":[-87.7445,43.76121],"type":"Point"},"properties":{"kind":"stop","name":"Superior Ave. & N. 29th St.","stop_id":"760531"},"type":"Feature"},{"geometry":{"coordinates":[-87.74706,43.76119],"type":"Point"},"properties":{"kind":"stop","name":"St. Nicholas Hospital","stop_id":"760532"},"type":"Feature"},{"geometry":{"coordinates":[-87.73256,43.76122],"type":"Point"},"properties":{"kind":"stop","name":"Superior Ave. & N. 20th St.","stop_id":"760533"},"type":"Feature"},{"geometry":{"coordinates":[-87.73136,43.76122],"type":"Point"},"properties":{"kind":"stop","name":"Superior Ave. & N. 19th St.","stop_id":"760534"},"type":"Feature"},{"geometry":{"coordinates":[-87.74946,43.76976],"type":"Point"},"properties":{"kind":"stop","name":"N. Taylor Dr. & E. Shelly Ct.","stop_id":"760535"},"type":"Feature"},{"geometry":{"coordinates":[-87.74946,43.76897],"type":"Point"},"properties":{"kind":"stop","name":"N. Taylor Dr. & E. Mark Dr.","stop_id":"760536"},"type":"Feature"},{"geometry":{"coordinates":[-87.74473,43.77235],"type":"Point"},"properties":{"kind":"stop","name":"Main Ave. & N. 29th St.","stop_id":"760537"},"type":"Feature"},{"geometry":{"coordinates":[-87.74473,43.76844],"type":"Point"},"properties":{"kind":"stop","name":"N. 29th Ave. & Geele Ave.","stop_id":"760538"},"type":"Feature"},{"geometry":{"coordinates":[-87.74474,43.76488],"type":"Point"},"properties":{"kind":"stop","name":"N. 29th Ave. & Saemann Ave.","stop_id":"760539"},"type":"Feature"},{"geometry":{"coordinates":[-87.75,43.77183],"type":"Point"},"properties":{"kind":"stop","name":"N. Taylor Dr. & Main Ave.","stop_id":"760540"},"type":"Feature"},{"geometry":{"coordinates":[-87.74948,43.76817],"type":"Point"},"properties":{"kind":"stop","name":"N. Taylor Dr. & Geele Ave.","stop_id":"760541"},"type":"Feature"},{"geometry":{"coordinates":[-87.74574,43.7612],"type":"Point"},"properties":{"kind":"stop","name":"Superior Ave. & N. 30th St.","stop_id":"760542"},"type":"Feature"},{"geometry":{"coordinates":[-87.73376,43.76122],"type":"Point"},"properties":{"kind":"stop","name":"Superior Ave. & N. 21st St.","stop_id":"760543"},"type":"Feature"},{"geometry":{"coordinates":[-87.74377,43.7647],"type":"Point"},"properties":{"kind":"stop","name":"Saemann Ave. & N. 28th St.","stop_id":"760544"},"type":"Feature"},{"geometry":{"coordinates":[-87.74945,43.76457],"type":"Point"},"properties":{"kind":"stop","name":"N. Taylor Dr. & Saemann Ave.","stop_id":"760545"},"type":"Feature"},{"geometry":{"coordinates":[-87.74722,43.77192],"type":"Point"},"properties":{"kind":"stop","name":"Main Ave. & N. 31st St.","stop_id":"760546"},"type":"Feature"},{"geometry":{"coordinates":[-87.71307,43.72899],"type":"Point"},"properties":{"kind":"stop","name":"S. 8th St. & Leland Ave.","stop_id":"760547"},"type":"Feature"},{"geometry":{"coordinates":[-87.73499,43.76122],"type":"Point"},"properties":{"kind":"stop","name":"Superior Ave. & N. 22nd St.","stop_id":"760548"},"type":"Feature"},{"geometry":{"coordinates":[-87.74278,43.7647],"type":"Point"},"properties":{"kind":"stop","name":"Saemann Ave. & N. 27th Pl.","stop_id":"760549"},"type":"Feature"},{"geometry":{"coordinates":[-87.74167,43.76471],"type":"Point"},"properties":{"kind":"stop","name":"Saemann Ave. & N. 27th St.","stop_id":"760550"},"type":"Feature"},{"geometry":{"coordinates":[-87.7404,43.76474],"type":"Point"},"properties":{"kind":"stop","name":"Saemann Ave. & N. 26th St.","stop_id":"760551"},"type":"Feature"},{"geometry":{"coordinates":[-87.73919,43.76473],"type":"Point"},"properties":{"kind":"stop","name":"Saemann Ave. & N. 25th St.","stop_id":"760552"},"type":"Feature"},{"geometry":{"coordinates":[-87.73785,43.76464],"type":"Point"},"properties":{"kind":"stop","name":"Saemann Ave. & N. 24th St.","stop_id":"760553"},"type":"Feature"},{"geometry":{"coordinates":[-87.73659,43.76436],"type":"Point"},"properties":{"kind":"stop","name":"Saemann Ave. & N. 23rd St.","stop_id":"760554"},"type":"Feature"},{"geometry":{"coordinates":[-87.73535,43.76424],"type":"Point"},"properties":{"kind":"stop","name":"Saemann Ave. & N. 22nd St.","stop_id":"760555"},"type":"Feature"},{"geometry":{"coordinates":[-87.73403,43.76423],"type":"Point"},"properties":{"kind":"stop","name":"Saemann Ave. & N. 21st St.","stop_id":"760556"},"type":"Feature"},{"geometry":{"coordinates":[-87.7328,43.76423],"type":"Point"},"properties":{"kind":"stop","name":"Saemann Ave. & N. 20th St.","stop_id":"760557"},"type":"Feature"},{"geometry":{"coordinates":[-87.73162,43.76423],"type":"Point"},"properties":{"kind":"stop","name":"Saemann Ave. & N. 19th St.","stop_id":"760558"},"type":"Feature"},{"geometry":{"coordinates":[-87.72971,43.76423],"type":"Point"},"properties":{"kind":"stop","name":"Saemann Ave. & N. 18th St.","stop_id":"760559"},"type":"Feature"},{"geometry":{"coordinates":[-87.72811,43.76422],"type":"Point"},"properties":{"kind":"stop","name":"Saemann Ave. & N. 17th St.","stop_id":"760560"},"type":"Feature"},{"geometry":{"coordinates":[-87.72648,43.76422],"type":"Point"},"properties":{"kind":"stop","name":"Saemann Ave. & N. 16th St.","stop_id":"760561"},"type":"Feature"},{"geometry":{"coordinates":[-87.72644,43.76351],"type":"Point"},"properties":{"kind":"stop","name":"N. 16th St. & Cambridge Ave.","stop_id":"760562"},"type":"Feature"},{"geometry":{"coordinates":[-87.72643,43.76259],"type":"Point"},"properties":{"kind":"stop","name":"N. 16th St. & Heller Ave.","stop_id":"760563"},"type":"Feature"},{"geometry":{"coordinates":[-87.72645,43.76168],"type":"Point"},"properties":{"kind":"stop","name":"N. 16th St. & Mehrtens Ave.","stop_id":"760564"},"type":"Feature"},{"geometry":{"coordinates":[-87.72644,43.76086],"type":"Point"},"properties":{"kind":"stop","name":"N. 16th St. & Superior Ave.","stop_id":"760565"},"type":"Feature"},{"geometry":{"coordinates":[-87.72481,43.76067],"type":"Point"},"properties":{"kind":"stop","name":"Superior Ave. & N. 15th St.","stop_id":"760566"},"type":"Feature"},{"geometry":{"coordinates":[-87.72319,43.76066],"type":"Point"},"properties":{"kind":"stop","name":"Superior Ave. & N. 14th St.","stop_id":"760567"},"type":"Feature"},{"geometry":{"coordinates":[-87.72151,43.76066],"type":"Point"},"properties":{"kind":"stop","name":"Superior Ave. & N. 13th St.","stop_id":"760568"},"type":"Feature"},{"geometry":{"coordinates":[-87.71981,43.76066],"type":"Point"},"properties":{"kind":"stop","name":"Superior Ave. & N. 12th St.","stop_id":"760569"},"type":"Feature"},{"geometry":{"coordinates":[-87.71813,43.76066],"type":"Point"},"properties":{"kind":"stop","name":"Superior Ave. & N. 11th St.","stop_id":"760570"},"type":"Feature"},{"geometry":{"coordinates":[-87.71643,43.76066],"type":"Point"},"properties":{"kind":"stop","name":"Superior Ave. & N. 10th St.","stop_id":"760571"},"type":"Feature"},{"geometry":{"coordinates":[-87.71477,43.76065],"type":"Point"},"properties":{"kind":"stop","name":"Superior Ave. & N. 9th St.","stop_id":"760572"},"type":"Feature"},{"geometry":{"coordinates":[-87.71473,43.75975],"type":"Point"},"properties":{"kind":"stop","name":"N. 9th St. & Huron Ave.","stop_id":"760573"},"type":"Feature"},{"geometry":{"coordinates":[-87.71471,43.75866],"type":"Point"},"properties":{"kind":"stop","name":"N. 9th St. & Michigan Ave.","stop_id":"760574"},"type":"Feature"},{"geometry":{"coordinates":[-87.71473,43.75754],"type":"Point"},"properties":{"kind":"stop","name":"N. 9th St. & St. Clair Ave.","stop_id":"760575"},"type":"Feature"},{"geometry":{"coordinates":[-87.71474,43.75646],"type":"Point"},"properties":{"kind":"stop","name":"N. 9th St. & Erie Ave.","stop_id":"760576"},"type":"Feature"},{"geometry":{"coordinates":[-87.71474,43.75536],"type":"Point"},"properties":{"kind":"stop","name":"N. 9th St. & Ontario Ave.","stop_id":"760577"},"type":"Feature"},{"geometry":{"coordinates":[-87.71474,43.75427],"type":"Point"},"properties":{"kind":"stop","name":"N. 9th St. & Niagara Ave.","stop_id":"760578"},"type":"Feature"},{"geometry":{"coordinates":[-87.71471,43.75318],"type":"Point"},"properties":{"kind":"stop","name":"N. 9th St. & Wisconsin Ave.","stop_id":"760579"},"type":"Feature"},{"geometry":{"coordinates":[-87.71474,43.75208],"type":"Point"},"properties":{"kind":"stop","name":"N. 9th St. & New York Ave.","stop_id":"760580"},"type":"Feature"},{"geometry":{"coordinates":[-87.71475,43.75099],"type":"Point"},"properties":{"kind":"stop","name":"N. 9th St. & Center Ave.","stop_id":"760581"},"type":"Feature"},{"geometry":{"coordinates":[-87.72453,43.74866],"type":"Point"},"properties":{"kind":"stop","name":"S. 15th St. & Jefferson Ave.","stop_id":"760584"},"type":"Feature"},{"geometry":{"coordinates":[-87.72454,43.74757],"type":"Point"},"properties":{"kind":"stop","name":"S. 15th St. & Virginia Ave.","stop_id":"760585"},"type":"Feature"},{"geometry":{"coordinates":[-87.72474,43.74639],"type":"Point"},"properties":{"kind":"stop","name":"New Jersey Ave & S. 15th St.","stop_id":"760586"},"type":"Feature"},{"geometry":{"coordinates":[-87.72643,43.74643],"type":"Point"},"properties":{"kind":"stop","name":"New Jersey Ave. & S. 16th St.","stop_id":"760587"},"type":"Feature"},{"geometry":{"coordinates":[-87.72806,43.7464],"type":"Point"},"properties":{"kind":"stop","name":"New Jersey Ave. & S. 17th St.","stop_id":"760588"},"type":"Feature"},{"geometry":{"coordinates":[-87.73075,43.74641],"type":"Point"},"properties":{"kind":"stop","name":"New Jersey Ave. & S. 19th St.","stop_id":"760589"},"type":"Feature"},{"geometry":{"coordinates":[-87.73284,43.74642],"type":"Point"},"properties":{"kind":"stop","name":"New Jersey Ave. & S. 20th St. (Municipal Service Building)","stop_id":"760590"},"type":"Feature"},{"geometry":{"coordinates":[-87.73476,43.74637],"type":"Point"},"properties":{"kind":"stop","name":"New Jersey Ave. & S. 21st St.","stop_id":"760591"},"type":"Feature"},{"geometry":{"coordinates":[-87.73608,43.74636],"type":"Point"},"properties":{"kind":"stop","name":"New Jersey Ave. & S. 22nd St.","stop_id":"760592"},"type":"Feature"},{"geometry":{"coordinates":[-87.73937,43.74633],"type":"Point"},"properties":{"kind":"stop","name":"New Jersey Ave. & S. Wildwood Ave.","stop_id":"760593"},"type":"Feature"},{"geometry":{"coordinates":[-87.74484,43.74001],"type":"Point"},"properties":{"kind":"stop","name":"S. Taylor Dr. & Indiana Ave.","stop_id":"760595"},"type":"Feature"},{"geometry":{"coordinates":[-87.75438,43.73679],"type":"Point"},"properties":{"kind":"stop","name":"UWGB - Sheboygan Campus","stop_id":"760596"},"type":"Feature"},{"geometry":{"coordinates":[-87.75579,43.72479],"type":"Point"},"properties":{"kind":"stop","name":"S. Taylor Dr. & Paine Ave.","stop_id":"760598"},"type":"Feature"},{"geometry":{"coordinates":[-87.75681,43.72145],"type":"Point"},"properties":{"kind":"stop","name":"S. Taylor Dr. & Crocker Ave.","stop_id":"760599"},"type":"Feature"},{"geometry":{"coordinates":[-87.7491,43.71751],"type":"Point"},"properties":{"kind":"stop","name":"Washington Ave. & S. 32nd St.","stop_id":"760600"},"type":"Feature"},{"geometry":{"coordinates":[-87.73557,43.72365],"type":"Point"},"properties":{"kind":"stop","name":"S. Business Dr. & Wilson Ave.","stop_id":"760601"},"type":"Feature"},{"geometry":{"coordinates":[-87.7259,43.73418],"type":"Point"},"properties":{"kind":"stop","name":"S. Business Dr. & Colorado Ct.","stop_id":"760603"},"type":"Feature"},{"geometry":{"coordinates":[-87.72482,43.73554],"type":"Point"},"properties":{"kind":"stop","name":"S. Business Dr. & Broadway Ave.","stop_id":"760604"},"type":"Feature"},{"geometry":{"coordinates":[-87.72302,43.73989],"type":"Point"},"properties":{"kind":"stop","name":"S Business Dr & Georgia Ave","stop_id":"760605"},"type":"Feature"},{"geometry":{"coordinates":[-87.72281,43.7409],"type":"Point"},"properties":{"kind":"stop","name":"S. 14th St. & Alabama Ave.","stop_id":"760606"},"type":"Feature"},{"geometry":{"coordinates":[-87.72281,43.74298],"type":"Point"},"properties":{"kind":"stop","name":"S. 14th St. & Indiana Ave.","stop_id":"760607"},"type":"Feature"},{"geometry":{"coordinates":[-87.71784,43.75645],"type":"Point"},"properties":{"kind":"stop","name":"Erie Ave. & N. 11th St.","stop_id":"760608"},"type":"Feature"},{"geometry":{"coordinates":[-87.71944,43.75646],"type":"Point"},"properties":{"kind":"stop","name":"Erie Ave. & N. 12th St.","stop_id":"760609"},"type":"Feature"},{"geometry":{"coordinates":[-87.72113,43.75645],"type":"Point"},"properties":{"kind":"stop","name":"Erie Ave & N 13th St","stop_id":"760610"},"type":"Feature"},{"geometry":{"coordinates":[-87.72271,43.75648],"type":"Point"},"properties":{"kind":"stop","name":"Erie Ave. & N.14th St.","stop_id":"760611"},"type":"Feature"},{"geometry":{"coordinates":[-87.72445,43.75647],"type":"Point"},"properties":{"kind":"stop","name":"Erie Ave. & N. 15th St.","stop_id":"760612"},"type":"Feature"},{"geometry":{"coordinates":[-87.72611,43.75648],"type":"Point"},"properties":{"kind":"stop","name":"Erie Ave. & N. 16th St.","stop_id":"760613"},"type":"Feature"},{"geometry":{"coordinates":[-87.72771,43.7565],"type":"Point"},"properties":{"kind":"stop","name":"Erie Ave. & N. 17th St.","stop_id":"760614"},"type":"Feature"},{"geometry":{"coordinates":[-87.73225,43.75655],"type":"Point"},"properties":{"kind":"stop","name":"Erie Ave. & N. Kohler Memorial Frontage Rd.","stop_id":"760615"},"type":"Feature"},{"geometry":{"coordinates":[-87.73686,43.75656],"type":"Point"},"properties":{"kind":"stop","name":"Kohler Memorial Dr. & N. 23rd St.","stop_id":"760616"},"type":"Feature"},{"geometry":{"coordinates":[-87.74069,43.75705],"type":"Point"},"properties":{"kind":"stop","name":"N. Srv. Rd. & N. 26th St.","stop_id":"760617"},"type":"Feature"},{"geometry":{"coordinates":[-87.74204,43.75666],"type":"Point"},"properties":{"kind":"stop","name":"N. Srv. Rd. & N. 27th St.","stop_id":"760618"},"type":"Feature"},{"geometry":{"coordinates":[-87.74326,43.75666],"type":"Point"},"properties":{"kind":"stop","name":"N. Srv. Rd. & N. 28th St.","stop_id":"760619"},"type":"Feature"},{"geometry":{"coordinates":[-87.74449,43.75667],"type":"Point"},"properties":{"kind":"stop","name":"N. Srv. Rd. & N. 29th St.","stop_id":"760620"},"type":"Feature"},{"geometry":{"coordinates":[-87.74697,43.75675],"type":"Point"},"properties":{"kind":"stop","name":"N. Srv. Rd. & N. 31st St.","stop_id":"760621"},"type":"Feature"},{"geometry":{"coordinates":[-87.7498,43.75758],"type":"Point"},"properties":{"kind":"stop","name":"Wilgus Ave. & N. Taylor Dr.","stop_id":"760622"},"type":"Feature"},{"geometry":{"coordinates":[-87.75453,43.75922],"type":"Point"},"properties":{"kind":"stop","name":"Wilgus Ave. & N. 36th St.","stop_id":"760623"},"type":"Feature"},{"geometry":{"coordinates":[-87.75571,43.7598],"type":"Point"},"properties":{"kind":"stop","name":"Job Center","stop_id":"760624"},"type":"Feature"},{"geometry":{"coordinates":[-87.75477,43.75916],"type":"Point"},"properties":{"kind":"stop","name":"Wilgus Ave. & N. 36th St.","stop_id":"760625"},"type":"Feature"},{"geometry":{"coordinates":[-87.75042,43.75762],"type":"Point"},"properties":{"kind":"stop","name":"Wilgus Ave. & N. Taylor Dr.","stop_id":"760626"},"type":"Feature"},{"geometry":{"coordinates":[-87.75125,43.75433],"type":"Point"},"properties":{"kind":"stop","name":"Meijer","stop_id":"760627"},"type":"Feature"},{"geometry":{"coordinates":[-87.74599,43.75041],"type":"Point"},"properties":{"kind":"stop","name":"Festival Foods","stop_id":"760629"},"type":"Feature"},{"geometry":{"coordinates":[-87.74477,43.75261],"type":"Point"},"properties":{"kind":"stop","name":"Erie Ave. & N. 29th St.","stop_id":"760630"},"type":"Feature"},{"geometry":{"coordinates":[-87.74355,43.75279],"type":"Point"},"properties":{"kind":"stop","name":"Erie Ave. & N. 28th St.","stop_id":"760631"},"type":"Feature"},{"geometry":{"coordinates":[-87.74292,43.75295],"type":"Point"},"properties":{"kind":"stop","name":"Erie Ave. & N. 27th St.","stop_id":"760632"},"type":"Feature"},{"geometry":{"coordinates":[-87.74108,43.75346],"type":"Point"},"properties":{"kind":"stop","name":"Eerie Ave. & N. 26th St.","stop_id":"760633"},"type":"Feature"},{"geometry":{"coordinates":[-87.73987,43.75381],"type":"Point"},"properties":{"kind":"stop","name":"Erie Ave. & N. 25th St.","stop_id":"760634"},"type":"Feature"},{"geometry":{"coordinates":[-87.7384,43.7542],"type":"Point"},"properties":{"kind":"stop","name":"Erie Ave. & N. Evans St.","stop_id":"760635"},"type":"Feature"},{"geometry":{"coordinates":[-87.73725,43.75455],"type":"Point"},"properties":{"kind":"stop","name":"Erie Ave. & N. 23rd St.","stop_id":"760636"},"type":"Feature"},{"geometry":{"coordinates":[-87.73458,43.75527],"type":"Point"},"properties":{"kind":"stop","name":"Erie Ave. & N. 21st St.","stop_id":"760637"},"type":"Feature"},{"geometry":{"coordinates":[-87.73272,43.75579],"type":"Point"},"properties":{"kind":"stop","name":"Erie Ave. & N. 19th St.","stop_id":"760638"},"type":"Feature"},{"geometry":{"coordinates":[-87.73236,43.7562],"type":"Point"},"properties":{"kind":"stop","name":"N. 19th St. & Kohler Memorial Dr.","stop_id":"760639"},"type":"Feature"},{"geometry":{"coordinates":[-87.72824,43.75629],"type":"Point"},"properties":{"kind":"stop","name":"Erie Ave. & N. 17th St.","stop_id":"760640"},"type":"Feature"},{"geometry":{"coordinates":[-87.72646,43.75628],"type":"Point"},"properties":{"kind":"stop","name":"Erie Ave. & N. 16th St.","stop_id":"760641"},"type":"Feature"},{"geometry":{"coordinates":[-87.72479,43.75627],"type":"Point"},"properties":{"kind":"stop","name":"Erie Ave. & N. 15th St.","stop_id":"760642"},"type":"Feature"},{"geometry":{"coordinates":[-87.72319,43.75625],"type":"Point"},"properties":{"kind":"stop","name":"Erie Ave. & N. 14th St.","stop_id":"760643"},"type":"Feature"},{"geometry":{"coordinates":[-87.72309,43.75596],"type":"Point"},"properties":{"kind":"stop","name":"N. 14th St. & Ontario Ave.","stop_id":"760644"},"type":"Feature"},{"geometry":{"coordinates":[-87.72307,43.7545],"type":"Point"},"properties":{"kind":"stop","name":"N. 14th St. & Niagara Ave.","stop_id":"760645"},"type":"Feature"},{"geometry":{"coordinates":[-87.72308,43.7532],"type":"Point"},"properties":{"kind":"stop","name":"N. 14th St. & Wisconsin Ave.","stop_id":"760646"},"type":"Feature"},{"geometry":{"coordinates":[-87.7231,43.7521],"type":"Point"},"properties":{"kind":"stop","name":"N. 14th St. & New York Ave.","stop_id":"760647"},"type":"Feature"},{"geometry":{"coordinates":[-87.7231,43.75103],"type":"Point"},"properties":{"kind":"stop","name":"N. 14th St. & Center Ave.","stop_id":"760648"},"type":"Feature"},{"geometry":{"coordinates":[-87.73608,43.75487],"type":"Point"},"properties":{"kind":"stop","name":"Tamarack","stop_id":"760649"},"type":"Feature"},{"geometry":{"coordinates":[-87.72441,43.74328],"type":"Point"},"properties":{"kind":"stop","name":"Indiana Ave. & S. 15th St.","stop_id":"760650"},"type":"Feature"},{"geometry":{"coordinates":[-87.72608,43.74328],"type":"Point"},"properties":{"kind":"stop","name":"Indiana Ave. & S. 16th St.","stop_id":"760651"},"type":"Feature"},{"geometry":{"coordinates":[-87.72808,43.74222],"type":"Point"},"properties":{"kind":"stop","name":"S. 17th St. & Kentucky Ave.","stop_id":"760652"},"type":"Feature"},{"geometry":{"coordinates":[-87.72811,43.74113],"type":"Point"},"properties":{"kind":"stop","name":"S. 17th St. & Alabama Ave.","stop_id":"760653"},"type":"Feature"},{"geometry":{"coordinates":[-87.72814,43.74006],"type":"Point"},"properties":{"kind":"stop","name":"S. 17th St. & Georgia Ave.","stop_id":"760654"},"type":"Feature"},{"geometry":{"coordinates":[-87.73079,43.74],"type":"Point"},"properties":{"kind":"stop","name":"Georgia Ave. & S. 19th St.","stop_id":"760655"},"type":"Feature"},{"geometry":{"coordinates":[-87.73201,43.74],"type":"Point"},"properties":{"kind":"stop","name":"Georgia Ave. & S. 20th St.","stop_id":"760656"},"type":"Feature"},{"geometry":{"coordinates":[-87.73308,43.74],"type":"Point"},"properties":{"kind":"stop","name":"Georgia Ave. & S. 21st St.","stop_id":"760657"},"type":"Feature"},{"geometry":{"coordinates":[-87.73412,43.73974],"type":"Point"},"properties":{"kind":"stop","name":"Georgia Ave. & S. 22nd St.","stop_id":"760658"},"type":"Feature"},{"geometry":{"coordinates":[-87.73533,43.73944],"type":"Point"},"properties":{"kind":"stop","name":"Georgia Ave. & S. 23rd St.","stop_id":"760659"},"type":"Feature"},{"geometry":{"coordinates":[-87.73668,43.73909],"type":"Point"},"properties":{"kind":"stop","name":"Georgia Ave. & S. 24th St.","stop_id":"760660"},"type":"Feature"},{"geometry":{"coordinates":[-87.73787,43.73882],"type":"Point"},"properties":{"kind":"stop","name":"Georgia Ave. & S. 25th St.","stop_id":"760661"},"type":"Feature"},{"geometry":{"coordinates":[-87.74595,43.73579],"type":"Point"},"properties":{"kind":"stop","name":"Georgia Ave. & Ashby Ct.","stop_id":"760662"},"type":"Feature"},{"geometry":{"coordinates":[-87.74685,43.73528],"type":"Point"},"properties":{"kind":"stop","name":"Georgia Ave. & Hilltop Ln.","stop_id":"760663"},"type":"Feature"},{"geometry":{"coordinates":[-87.74768,43.73471],"type":"Point"},"properties":{"kind":"stop","name":"Georgia Ave. & Lily Ct.","stop_id":"760664"},"type":"Feature"},{"geometry":{"coordinates":[-87.74888,43.73215],"type":"Point"},"properties":{"kind":"stop","name":"Georgia Ave. & Union Ave (Bio Life)","stop_id":"760665"},"type":"Feature"},{"geometry":{"coordinates":[-87.74024,43.71301],"type":"Point"},"properties":{"kind":"stop","name":"S. Business Dr. & Camelot Blvd.","stop_id":"760666"},"type":"Feature"},{"geometry":{"coordinates":[-87.74079,43.71183],"type":"Point"},"properties":{"kind":"stop","name":"S. Business Dr. & Crosscreek Dr.","stop_id":"760667"},"type":"Feature"},{"geometry":{"coordinates":[-87.74186,43.70938],"type":"Point"},"properties":{"kind":"stop","name":"S. Business Dr. & Moenning Rd.","stop_id":"760668"},"type":"Feature"},{"geometry":{"coordinates":[-87.74554,43.70818],"type":"Point"},"properties":{"kind":"stop","name":"Behrens Pkwy & Tower Dr.","stop_id":"760669"},"type":"Feature"},{"geometry":{"coordinates":[-87.75243,43.70637],"type":"Point"},"properties":{"kind":"stop","name":"Behrens Pkwy & Gateway Dr.","stop_id":"760670"},"type":"Feature"},{"geometry":{"coordinates":[-87.75192,43.70432],"type":"Point"},"properties":{"kind":"stop","name":"Gateway Dr. & Tower Dr.","stop_id":"760671"},"type":"Feature"},{"geometry":{"coordinates":[-87.75195,43.70284],"type":"Point"},"properties":{"kind":"stop","name":"Weeden Creek Rd. & Gateway Dr.","stop_id":"760672"},"type":"Feature"},{"geometry":{"coordinates":[-87.74589,43.70253],"type":"Point"},"properties":{"kind":"stop","name":"Co. Rd. EE & S. Business Dr.","stop_id":"760673"},"type":"Feature"},{"geometry":{"coordinates":[-87.74192,43.7064],"type":"Point"},"properties":{"kind":"stop","name":"Country Village Apartments","stop_id":"760674"},"type":"Feature"},{"geometry":{"coordinates":[-87.74087,43.71193],"type":"Point"},"properties":{"kind":"stop","name":"Co. Rd. OK S. & Crosscreek Dr.","stop_id":"760676"},"type":"Feature"},{"geometry":{"coordinates":[-87.74041,43.71298],"type":"Point"},"properties":{"kind":"stop","name":"Co. Rd. OK S. & Camelot Blvd.","stop_id":"760677"},"type":"Feature"},{"geometry":{"coordinates":[-87.7389,43.71293],"type":"Point"},"properties":{"kind":"stop","name":"Camelot Blvd. & Country Pl.","stop_id":"760678"},"type":"Feature"},{"geometry":{"coordinates":[-87.73676,43.71289],"type":"Point"},"properties":{"kind":"stop","name":"Camelot Blvd. & Meadowbrook Ct.","stop_id":"760679"},"type":"Feature"},{"geometry":{"coordinates":[-87.73451,43.71287],"type":"Point"},"properties":{"kind":"stop","name":"Camelot Blvd. & S. 22nd St.","stop_id":"760680"},"type":"Feature"},{"geometry":{"coordinates":[-87.73157,43.71261],"type":"Point"},"properties":{"kind":"stop","name":"Camelot Blvd & Greenwood Ct","stop_id":"760681"},"type":"Feature"},{"geometry":{"coordinates":[-87.73409,43.71426],"type":"Point"},"properties":{"kind":"stop","name":"S. 22nd St. & Carmen Ave.","stop_id":"760682"},"type":"Feature"},{"geometry":{"coordinates":[-87.73952,43.71479],"type":"Point"},"properties":{"kind":"stop","name":"Carmen Ave. & S. Business Dr.","stop_id":"760683"},"type":"Feature"},{"geometry":{"coordinates":[-87.73718,43.72014],"type":"Point"},"properties":{"kind":"stop","name":"Southtown Mall","stop_id":"760684"},"type":"Feature"},{"geometry":{"coordinates":[-87.74881,43.71764],"type":"Point"},"properties":{"kind":"stop","name":"Washington Ave. & S. 32nd St.","stop_id":"760685"},"type":"Feature"},{"geometry":{"coordinates":[-87.74892,43.72103],"type":"Point"},"properties":{"kind":"stop","name":"S. 32nd St. & Crocker Ave.","stop_id":"760686"},"type":"Feature"},{"geometry":{"coordinates":[-87.75639,43.72137],"type":"Point"},"properties":{"kind":"stop","name":"Crocker Ave. & S. Taylor Dr.","stop_id":"760687"},"type":"Feature"},{"geometry":{"coordinates":[-87.75561,43.72454],"type":"Point"},"properties":{"kind":"stop","name":"S. Taylor Dr. & Paine Ave.","stop_id":"760688"},"type":"Feature"},{"geometry":{"coordinates":[-87.75068,43.7319],"type":"Point"},"properties":{"kind":"stop","name":"S. Taylor Dr. & Union Ave.","stop_id":"760689"},"type":"Feature"},{"geometry":{"coordinates":[-87.74891,43.73198],"type":"Point"},"properties":{"kind":"stop","name":"Union Ave. & Georgia Ave. (Bio Life)","stop_id":"760690"},"type":"Feature"},{"geometry":{"coordinates":[-87.74773,43.73452],"type":"Point"},"properties":{"kind":"stop","name":"Georgia Ave. & Lily Ct.","stop_id":"760691"},"type":"Feature"},{"geometry":{"coordinates":[-87.74692,43.73504],"type":"Point"},"properties":{"kind":"stop","name":"Georgia Ave. & Hilltop Ln.","stop_id":"760692"},"type":"Feature"},{"geometry":{"coordinates":[-87.74604,43.73559],"type":"Point"},"properties":{"kind":"stop","name":"Georgia Ave. & Ashby Ct.","stop_id":"760693"},"type":"Feature"},{"geometry":{"coordinates":[-87.73913,43.73842],"type":"Point"},"properties":{"kind":"stop","name":"Georgia Ave. & S. 26th St.","stop_id":"760694"},"type":"Feature"},{"geometry":{"coordinates":[-87.74056,43.73771],"type":"Point"},"properties":{"kind":"stop","name":"Georgia Ave. & Black Walnut Trail.","stop_id":"760695"},"type":"Feature"},{"geometry":{"coordinates":[-87.7406,43.73757],"type":"Point"},"properties":{"kind":"stop","name":"Georgia Ave. & Black Walnut Trail","stop_id":"760696"},"type":"Feature"},{"geometry":{"coordinates":[-87.73938,43.73818],"type":"Point"},"properties":{"kind":"stop","name":"Georgia Ave. & S. 26th St.","stop_id":"760697"},"type":"Feature"},{"geometry":{"coordinates":[-87.73812,43.7386],"type":"Point"},"properties":{"kind":"stop","name":"Georgia Ave. & S. 25th St.","stop_id":"760698"},"type":"Feature"},{"geometry":{"coordinates":[-87.737,43.73884],"type":"Point"},"properties":{"kind":"stop","name":"Georgia Ave. & S. 24th St.","stop_id":"760699"},"type":"Feature"},{"geometry":{"coordinates":[-87.73551,43.73922],"type":"Point"},"properties":{"kind":"stop","name":"Georgia Ave. & S. 23rd St.","stop_id":"760700"},"type":"Feature"},{"geometry":{"coordinates":[-87.73441,43.73949],"type":"Point"},"properties":{"kind":"stop","name":"Georgia Ave. & S. 22nd St.","stop_id":"760701"},"type":"Feature"},{"geometry":{"coordinates":[-87.73333,43.73979],"type":"Point"},"properties":{"kind":"stop","name":"Georgia Ave. & S. 21st St.","stop_id":"760702"},"type":"Feature"},{"geometry":{"coordinates":[-87.73226,43.73985],"type":"Point"},"properties":{"kind":"stop","name":"Georgia Ave. & S. 20th St.","stop_id":"760703"},"type":"Feature"},{"geometry":{"coordinates":[-87.73104,43.73985],"type":"Point"},"properties":{"kind":"stop","name":"Georgia Ave. & S. 19th St.","stop_id":"760704"},"type":"Feature"},{"geometry":{"coordinates":[-87.7282,43.73986],"type":"Point"},"properties":{"kind":"stop","name":"Georgia Ave. & S. 17th St.","stop_id":"760705"},"type":"Feature"},{"geometry":{"coordinates":[-87.72393,43.76422],"type":"Point"},"properties":{"kind":"stop","name":"Calumet Dr. & Saemann Ave","stop_id":"760706"},"type":"Feature"},{"geometry":{"coordinates":[-87.72707,43.76833],"type":"Point"},"properties":{"kind":"stop","name":"RCS","stop_id":"760708"},"type":"Feature"},{"geometry":{"coordinates":[-87.72209,43.76349],"type":"Point"},"properties":{"kind":"stop","name":"N. 13th St. & Kuehne Ct.","stop_id":"760709"},"type":"Feature"},{"geometry":{"coordinates":[-87.73883,43.75807],"type":"Point"},"properties":{"kind":"stop","name":"Aurora Clinic North/Sheboygan Police Department","stop_id":"760710"},"type":"Feature"},{"geometry":{"coordinates":[-87.73955,43.75938],"type":"Point"},"properties":{"kind":"stop","name":"Pick N Save (North)","stop_id":"760711"},"type":"Feature"},{"geometry":{"coordinates":[-87.71008,43.74478],"type":"Point"},"properties":{"kind":"stop","name":"S. Pier Dr. & Fishermans Rd","stop_id":"760712"},"type":"Feature"},{"geometry":{"coordinates":[-87.70717,43.74764],"type":"Point"},"properties":{"kind":"stop","name":"S. Pier Dr. & Blue Harbor Dr","stop_id":"760714"},"type":"Feature"},{"geometry":{"coordinates":[-87.70897,43.74726],"type":"Point"},"properties":{"kind":"stop","name":"S. Pier Dr. & Lakeview Dr","stop_id":"760715"},"type":"Feature"},{"geometry":{"coordinates":[-87.71895,43.78285],"type":"Point"},"properties":{"kind":"stop","name":"Eisner Ave. & Rosewood Ct.","stop_id":"760716"},"type":"Feature"},{"geometry":{"coordinates":[-87.7394,43.75659],"type":"Point"},"properties":{"kind":"stop","name":"Kohler Memorial Dr. & N. 25th St.","stop_id":"760717"},"type":"Feature"},{"geometry":{"coordinates":[-87.75301,43.75853],"type":"Point"},"properties":{"kind":"stop","name":"Memorial Plaza","stop_id":"760718"},"type":"Feature"},{"geometry":{"coordinates":[-87.74738,43.75146],"type":"Point"},"properties":{"kind":"stop","name":"Taylor Heights Shopping Center","stop_id":"760719"},"type":"Feature"},{"geometry":{"coordinates":[-87.74578,43.75249],"type":"Point"},"properties":{"kind":"stop","name":"Sunny Ridge","stop_id":"760720"},"type":"Feature"},{"geometry":{"coordinates":[-87.75004,43.73979],"type":"Point"},"properties":{"kind":"stop","name":"Sheboygan Lutheran on University Dr.","stop_id":"760721"},"type":"Feature"},{"geometry":{"coordinates":[-87.75463,43.72785],"type":"Point"},"properties":{"kind":"stop","name":"Acuity","stop_id":"760722"},"type":"Feature"},{"geometry":{"coordinates":[-87.75292,43.7174],"type":"Point"},"properties":{"kind":"stop","name":"Washington Ave. & Greenwing Dr.","stop_id":"760723"},"type":"Feature"},{"geometry":{"coordinates":[-87.75313,43.7161],"type":"Point"},"properties":{"kind":"stop","name":"Goodwill","stop_id":"760724"},"type":"Feature"},{"geometry":{"coordinates":[-87.73768,43.71479],"type":"Point"},"properties":{"kind":"stop","name":"Carmen Ave. & Sunflower Ave.","stop_id":"760726"},"type":"Feature"},