{"features":[{"geometry":{"coordinates":[[-118.42617,33.97163],[-118.42261,33.97319],[-118.42303,33.97383],[-118.41817,33.97594],[-118.41781,33.97534],[-118.40799,33.97964],[-118.40654,33.97742],[-118.405,33.97811],[-118.40377,33.97915],[-118.40227,33.98178],[-118.4013,33.98307],[-118.401,33.98385],[-118.39896,33.98329],[-118.39687,33.98199],[-118.3966,33.98231],[-118.39718,33.98267],[-118.39734,33.98327],[-118.39808,33.98299],[-118.39942,33.98362],[-118.401,33.984],[-118.40239,33.98183],[-118.403,33.98232],[-118.4032,33.98292],[-118.40423,33.98268],[-118.40583,33.98198],[-118.40727,33.981],[-118.40738,33.98068],[-118.40711,33.98013],[-118.4073,33.97994],[-118.41781,33.97534],[-118.41817,33.97594],[-118.42397,33.97344],[-118.42409,33.97324],[-118.42373,33.97268],[-118.42677,33.97137],[-118.42811,33.97493],[-118.42949,33.97435],[-118.42965,33.97451],[-118.4305,33.97415],[-118.43023,33.97375],[-118.42939,33.9741],[-118.42949,33.97435],[-118.42828,33.97487],[-118.42692,33.97131],[-118.42788,33.97089],[-118.42858,33.97201],[-118.42891,33.97185],[-118.42725,33.96917],[-118.4258,33.96981],[-118.4261,33.97021]],"type":"LineString"},"properties":{"color":"#F27E1C","color_name":"orange","kind":"route","label":"Daily Shuttle","long":"Daily Shuttle","route_id":"18170","text_color":"#000000","type_label":"Bus"},"type":"Feature"},{"geometry":{"coordinates":[[-118.42617,33.97163],[-118.42261,33.97319],[-118.42303,33.97383],[-118.41817,33.97594],[-118.41781,33.97534],[-118.41927,33.97471],[-118.41968,33.97528],[-118.42397,33.97344],[-118.42409,33.97324],[-118.42373,33.97268],[-118.42677,33.97137],[-118.42811,33.97493],[-118.4305,33.97415],[-118.43023,33.97375],[-118.42939,33.9741],[-118.42949,33.97435],[-118.42828,33.97487],[-118.42771,33.97333],[-118.43031,33.97212],[-118.43312,33.97607],[-118.43658,33.97849],[-118.43806,33.97742],[-118.44531,33.97409],[-118.44562,33.9736],[-118.44564,33.97051],[-118.446,33.97017],[-118.44593,33.96993],[-118.44566,33.96996],[-118.44553,33.97022],[-118.44553,33.97346],[-118.44526,33.974],[-118.43822,33.97722],[-118.44218,33.98284],[-118.44253,33.98309],[-118.45246,33.98532],[-118.45396,33.98533],[-118.45519,33.98488],[-118.45853,33.98275],[-118.46011,33.98138],[-118.45947,33.98053],[-118.45922,33.97967],[-118.45916,33.97627],[-118.459,33.97576],[-118.45304,33.96749],[-118.45328,33.96702],[-118.45541,33.96601],[-118.45782,33.96968],[-118.46566,33.97974],[-118.45861,33.9841],[-118.45774,33.98312],[-118.45484,33.98494],[-118.45301,33.98528],[-118.44302,33.98315],[-118.44212,33.98273],[-118.43839,33.97726],[-118.44531,33.97409],[-118.44562,33.9736],[-118.44564,33.97051],[-118.446,33.97017],[-118.44593,33.96993],[-118.44566,33.96996],[-118.44553,33.97022],[-118.44553,33.97346],[-118.44526,33.974],[-118.43822,33.97722],[-118.4366,33.9783],[-118.43601,33.97811],[-118.43312,33.97607],[-118.43063,33.97267],[-118.43033,33.97198],[-118.42765,33.97318],[-118.42692,33.97131],[-118.42617,33.97163]],"type":"LineString"},"properties":{"color":"#F67B11","color_name":"orange","kind":"route","label":"Beach Shuttle","long":"Beach Shuttle","route_id":"18171","text_color":"#000000","type_label":"Bus"},"type":"Feature"},{"geometry":{"coordinates":[-118.42614,33.97157],"type":"Point"},"properties":{"kind":"stop","name":"Pacific Promenade and Sea Walk Drive (Eastbound)","stop_id":"2696116"},"type":"Feature"},{"geometry":{"coordinates":[-118.42406,33.97248],"type":"Point"},"properties":{"kind":"stop","name":"Pacific Promenade and South Para Way","stop_id":"2696117"},"type":"Feature"},{"geometry":{"coordinates":[-118.42625,33.97172],"type":"Point"},"properties":{"kind":"stop","name":"Pacific Promenade and Sea Walk Drive (Westbound)","stop_id":"2696118"},"type":"Feature"},{"geometry":{"coordinates":[-118.45524,33.98491],"type":"Point"},"properties":{"kind":"stop","name":"Admiralty Way and Marina City Drive (Westbound)","stop_id":"2696119"},"type":"Feature"},{"geometry":{"coordinates":[-118.45759,33.98342],"type":"Point"},"properties":{"kind":"stop","name":"Admiralty Way and Palawan Way (Westbound)","stop_id":"2696120"},"type":"Feature"},{"geometry":{"coordinates":[-118.45487,33.98485],"type":"Point"},"properties":{"kind":"stop","name":"Admiralty Way and Marina City Drive (Eastbound)","stop_id":"2696121"},"type":"Feature"},{"geometry":{"coordinates":[-118.45926,33.97885],"type":"Point"},"properties":{"kind":"stop","name":"Via Marina and Panay Way","stop_id":"2696122"},"type":"Feature"},{"geometry":{"coordinates":[-118.42818,33.9715],"type":"Point"},"properties":{"kind":"stop","name":"Pacific Promenade at Crescent Park","stop_id":"2696123"},"type":"Feature"},{"geometry":{"coordinates":[-118.44168,33.98187],"type":"Point"},"properties":{"kind":"stop","name":"Admiralty Way and Bali Way (Eastbound)","stop_id":"2696124"},"type":"Feature"},{"geometry":{"coordinates":[-118.44149,33.98201],"type":"Point"},"properties":{"kind":"stop","name":"Admiralty Way and Bali Way (Westbound)","stop_id":"2696125"},"type":"Feature"},{"geometry":{"coordinates":[-118.45558,33.97101],"type":"Point"},"properties":{"kind":"stop","name":"Via Marina and Bora Bora Way","stop_id":"2696126"},"type":"Feature"},{"geometry":{"coordinates":[-118.45924,33.9716],"type":"Point"},"properties":{"kind":"stop","name":"Pacific Avenue and Outrigger Street","stop_id":"2696127"},"type":"Feature"},{"geometry":{"coordinates":[-118.46049,33.97319],"type":"Point"},"properties":{"kind":"stop","name":"Pacific Ave and Lighthouse Street","stop_id":"2696128"},"type":"Feature"},{"geometry":{"coordinates":[-118.45335,33.96781],"type":"Point"},"properties":{"kind":"stop","name":"Via Marina and Old Harbor lane","stop_id":"2696129"},"type":"Feature"},{"geometry":{"coordinates":[-118.45926,33.97661],"type":"Point"},"properties":{"kind":"stop","name":"Via Marina and Marquesas Way","stop_id":"2696130"},"type":"Feature"},{"geometry":{"coordinates":[-118.46304,33.97649],"type":"Point"},"properties":{"kind":"stop","name":"Pacific Avenue and Fleet Street","stop_id":"2696131"},"type":"Feature"},{"geometry":{"coordinates":[-118.44587,33.98385],"type":"Point"},"properties":{"kind":"stop","name":"Admiralty Way and Burke Park (Westbound)","stop_id":"2696132"},"type":"Feature"},{"geometry":{"coordinates":[-118.43949,33.97684],"type":"Point"},"properties":{"kind":"stop","name":"Fiji Way and Admiralty Way","stop_id":"2696133"},"type":"Feature"},{"geometry":{"coordinates":[-118.45412,33.96896],"type":"Point"},"properties":{"kind":"stop","name":"Via Marina and Captain's Row","stop_id":"2696134"},"type":"Feature"},{"geometry":{"coordinates":[-118.4278,33.97428],"type":"Point"},"properties":{"kind":"stop","name":"Playa Vista Drive and Jefferson (Eastside)","stop_id":"2696135"},"type":"Feature"},{"geometry":{"coordinates":[-118.45983,33.98095],"type":"Point"},"properties":{"kind":"stop","name":"Via Marina and Admiralty Way","stop_id":"2696136"},"type":"Feature"},{"geometry":{"coordinates":[-118.44593,33.98364],"type":"Point"},"properties":{"kind":"stop","name":"Admiralty Way and Burke Park (Eastbound)","stop_id":"2696137"},"type":"Feature"},{"geometry":{"coordinates":[-118.46407,33.97781],"type":"Point"},"properties":{"kind":"stop","name":"Pacific Avenue and Driftwood Street","stop_id":"2696138"},"type":"Feature"},{"geometry":{"coordinates":[-118.43874,33.97805],"type":"Point"},"properties":{"kind":"stop","name":"Admiralty Way and Fiji Way (Waterside Shopping Center)","stop_id":"2696139"},"type":"Feature"},{"geometry":{"coordinates":[-118.4065,33.98158],"type":"Point"},"properties":{"kind":"stop","name":"Waterfront Drive and Lake Drive","stop_id":"2696140"},"type":"Feature"},{"geometry":{"coordinates":[-118.45135,33.98487],"type":"Point"},"properties":{"kind":"stop","name":"Admiralty Way and Via Regatta","stop_id":"2696143"},"type":"Feature"},{"geometry":{"coordinates":[-118.43043,33.97384],"type":"Point"},"properties":{"kind":"stop","name":"Fountain Park","stop_id":"2696144"},"type":"Feature"},{"geometry":{"coordinates":[-118.45771,33.97385],"type":"Point"},"properties":{"kind":"stop","name":"Via Marina and Tahiti Way","stop_id":"2696145"},"type":"Feature"},{"geometry":{"coordinates":[-118.42166,33.97452],"type":"Point"},"properties":{"kind":"stop","name":"Runway Road and Celedon Creek (Eastbound)","stop_id":"2696146"},"type":"Feature"},{"geometry":{"coordinates":[-118.40755,33.9788],"type":"Point"},"properties":{"kind":"stop","name":"Campus Center Drive and Millennium Drive","stop_id":"2696147"},"type":"Feature"},{"geometry":{"coordinates":[-118.46241,33.97566],"type":"Point"},"properties":{"kind":"stop","name":"Pacific Avenue and Hurricane","stop_id":"2696148"},"type":"Feature"},{"geometry":{"coordinates":[-118.45404,33.96672],"type":"Point"},"properties":{"kind":"stop","name":"Via Marina and South Via Donte","stop_id":"2696150"},"type":"Feature"},{"geometry":{"coordinates":[-118.45798,33.96996],"type":"Point"},"properties":{"kind":"stop","name":"Pacific Avenue and Reef Street","stop_id":"2696151"},"type":"Feature"},{"geometry":{"coordinates":[-118.45212,33.98529],"type":"Point"},"properties":{"kind":"stop","name":"4351 Admiralty Way","stop_id":"2696152"},"type":"Feature"},{"geometry":{"coordinates":[-118.41834,33.97576],"type":"Point"},"properties":{"kind":"stop","name":"Runway Road and McConnell (Eastbound)","stop_id":"2696153"},"type":"Feature"},{"geometry":{"coordinates":[-118.41509,33.97663],"type":"Point"},"properties":{"kind":"stop","name":"Millennium Drive and Village Drive","stop_id":"2696154"},"type":"Feature"},{"geometry":{"coordinates":[-118.42797,33.97382],"type":"Point"},"properties":{"kind":"stop","name":"Playa Vista Drive and Jefferson (Westside)","stop_id":"2696155"},"type":"Feature"},{"geometry":{"coordinates":[-118.46124,33.98236],"type":"Point"},"properties":{"kind":"stop","name":"Washington Boulevard and Via Marina","stop_id":"2696156"},"type":"Feature"},{"geometry":{"coordinates":[-118.40303,33.98268],"type":"Point"},"properties":{"kind":"stop","name":"Artisan Street and Waterfront Drive","stop_id":"2696157"},"type":"Feature"},{"geometry":{"coordinates":[-118.42602,33.97025],"type":"Point"},"properties":{"kind":"stop","name":"Bay Park Drive and Playa Vista Drive","stop_id":"2696158"},"type":"Feature"},{"geometry":{"coordinates":[-118.40276,33.98076],"type":"Point"},"properties":{"kind":"stop","name":"Bluff Creek Drive and Artisan Street","stop_id":"2696159"},"type":"Feature"},{"geometry":{"coordinates":[-118.45728,33.98335],"type":"Point"},"properties":{"kind":"stop","name":"Admiralty Way and Palawan Way (Eastbound)","stop_id":"2696160"},"type":"Feature"},{"geometry":{"coordinates":[-118.45731,33.969],"type":"Point"},"properties":{"kind":"stop","name":"Pacific Avenue and Topsail Street","stop_id":"2696161"},"type":"Feature"},{"geometry":{"coordinates":[-118.44572,33.97213],"type":"Point"},"properties":{"kind":"stop","name":"Fisherman's Village","stop_id":"2696162"},"type":"Feature"},{"geometry":{"coordinates":[-118.4061,33.97755],"type":"Point"},"properties":{"kind":"stop","name":"Bluff Creek Drive and Campus Center Drive","stop_id":"2696163"},"type":"Feature"},{"geometry":{"coordinates":[-118.41252,33.97754],"type":"Point"},"properties":{"kind":"stop","name":"Millennium Drive and Westlawn Avenue","stop_id":"2696164"},"type":"Feature"},{"geometry":{"coordinates":[-118.4401,33.97959],"type":"Point"},"properties":{"kind":"stop","name":"Admiralty Way and Mindanao Way","stop_id":"2696165"},"type":"Feature"},{"geometry":{"coordinates":[-118.46527,33.97984],"type":"Point"},"properties":{"kind":"stop","name":"Washington Boulevard and Pacific Avenue","stop_id":"2696166"},"type":"Feature"},{"geometry":{"coordinates":[-118.42743,33.96932],"type":"Point"},"properties":{"kind":"stop","name":"Crescent Way and Bay Park Drive","stop_id":"2696168"},"type":"Feature"},{"geometry":{"coordinates":[-118.39675,33.98249],"type":"Point"},"properties":{"kind":"stop","name":"Double Tree Hotel","stop_id":"2696170"},"type":"Feature"},{"geometry":{"coordinates":[-118.42155,33.97437],"type":"Point"},"properties":{"kind":"stop","name":"Runway and Celedon Creek (Eastbound)","stop_id":"2696171"},"type":"Feature"},{"geometry":{"coordinates":[-118.41849,33.97591],"type":"Point"},"properties":{"kind":"stop","name":"Runway Road and McConnell (Westbound)","stop_id":"2696172"},"type":"Feature"},{"geometry":{"coordinates":[-118.41056,33.97865],"type":"Point"},"properties":{"kind":"stop","name":"Millennium Drive and Fielding Circle","stop_id":"2696173"},"type":"Feature"},{"geometry":{"coordinates":[-118.42404,33.97306],"type":"Point"},"properties":{"kind":"stop","name":"South Para Way and Pacific Promenade","stop_id":"2696174"},"type":"Feature"}],"type":"FeatureCollection"}
