{"features":[{"geometry":{"coordinates":[[-120.85732,35.38595],[-120.85858,35.38925],[-120.85753,35.3897],[-120.85789,35.39028],[-120.85834,35.3901],[-120.85841,35.39024],[-120.85585,35.39127],[-120.85704,35.39444],[-120.86005,35.39382],[-120.86059,35.39465],[-120.86213,35.39853],[-120.86375,35.40099],[-120.86697,35.40382],[-120.8675,35.40454],[-120.8685,35.4037],[-120.86664,35.40128],[-120.86607,35.39987],[-120.86512,35.3984],[-120.86443,35.39859],[-120.86408,35.39799],[-120.86321,35.39347],[-120.8606,35.39378],[-120.85646,35.38284],[-120.85589,35.37998],[-120.85897,35.38013],[-120.86059,35.37995],[-120.86153,35.37971],[-120.86204,35.37914],[-120.86154,35.3797],[-120.8606,35.37994],[-120.85875,35.38013],[-120.8559,35.37998],[-120.85524,35.37822],[-120.85352,35.37521],[-120.85269,35.37413],[-120.85143,35.3731],[-120.85115,35.37239],[-120.85021,35.37135],[-120.8477,35.37084],[-120.84717,35.37047],[-120.84729,35.37026],[-120.84553,35.3695],[-120.8435,35.36818],[-120.84387,35.36764],[-120.84333,35.36741],[-120.84301,35.3679],[-120.84271,35.36798],[-120.84248,35.36754],[-120.84122,35.36665],[-120.84134,35.36635],[-120.84214,35.36602],[-120.84544,35.36596],[-120.84542,35.36688],[-120.84383,35.36612],[-120.84383,35.36599],[-120.84544,35.36596],[-120.84536,35.35907],[-120.8446,35.3583],[-120.84465,35.35586],[-120.8466,35.35615],[-120.84844,35.35756],[-120.84947,35.35887],[-120.84998,35.36044],[-120.85,35.36688],[-120.85232,35.36686],[-120.85231,35.3659],[-120.84656,35.36595],[-120.84655,35.36784],[-120.84606,35.3679],[-120.84586,35.36841],[-120.84608,35.36847],[-120.84628,35.36811],[-120.84605,35.36791],[-120.84627,35.36785],[-120.84999,35.36783],[-120.85,35.37012],[-120.8502,35.37136],[-120.85137,35.37279],[-120.8515,35.37424],[-120.85169,35.37459],[-120.85382,35.37673],[-120.85459,35.37877],[-120.85485,35.38021],[-120.85552,35.38126],[-120.85732,35.38595]],"type":"LineString"},"properties":{"color":"#1A7A46","color_name":"green","kind":"route","label":"Morro Bay Transit","long":"Morro Bay Transit","route_id":"mbt_fixed route","text_color":"#FFFFFF","type_label":"Bus"},"type":"Feature"},{"geometry":{"coordinates":[[-120.84079,35.347],[-120.84112,35.3465],[-120.84165,35.34669],[-120.84208,35.3465],[-120.84276,35.34689],[-120.84323,35.34744],[-120.84321,35.35096],[-120.84361,35.35228],[-120.84381,35.35446],[-120.84446,35.3557],[-120.84489,35.35596],[-120.84659,35.35616],[-120.84843,35.35756],[-120.84953,35.359],[-120.84997,35.36021],[-120.85,35.36688],[-120.85231,35.36687],[-120.8523,35.36496],[-120.85291,35.36494],[-120.85345,35.36677],[-120.85231,35.36687],[-120.85231,35.36591],[-120.84544,35.36596],[-120.84545,35.36728],[-120.84609,35.36789],[-120.84655,35.36784],[-120.84656,35.36595],[-120.85,35.36592],[-120.84995,35.36001],[-120.84947,35.35887],[-120.84844,35.35756],[-120.8466,35.35615],[-120.84508,35.356],[-120.84446,35.3557],[-120.84382,35.35446],[-120.84361,35.35228],[-120.84319,35.35079],[-120.84333,35.35008],[-120.84324,35.34743],[-120.84277,35.34689],[-120.84208,35.3465],[-120.84181,35.34669],[-120.84113,35.34649],[-120.84079,35.347]],"type":"LineString"},"properties":{"color":"#1A7A46","color_name":"green","kind":"route","label":"Trolley - Downtown Route","long":"Trolley - Downtown Route","route_id":"mbtrl_downtown","text_color":"#FFFFFF","type_label":"Bus"},"type":"Feature"},{"geometry":{"coordinates":[[-120.85891,35.39019],[-120.85989,35.39273],[-120.86006,35.39382],[-120.86043,35.3938],[-120.86201,35.39785],[-120.86348,35.40027],[-120.86464,35.40155],[-120.86775,35.40429],[-120.86861,35.40346],[-120.86785,35.40422],[-120.86438,35.40107],[-120.86251,35.39849],[-120.85708,35.38454],[-120.8545,35.37684],[-120.85323,35.37479],[-120.85189,35.37337],[-120.85142,35.37311],[-120.85114,35.3724],[-120.8502,35.37136],[-120.84999,35.36993],[-120.85,35.36688],[-120.85231,35.36687],[-120.8523,35.36496],[-120.85291,35.36494],[-120.85345,35.36677],[-120.85,35.36688],[-120.85014,35.37117],[-120.85137,35.37279],[-120.8515,35.37424],[-120.85169,35.37459],[-120.85382,35.37673],[-120.85459,35.37877],[-120.8547,35.37915],[-120.85458,35.37918],[-120.85471,35.37914],[-120.85486,35.38021],[-120.85552,35.38126],[-120.85891,35.39019]],"type":"LineString"},"properties":{"color":"#1A7A46","color_name":"green","kind":"route","label":"Trolley - North Route","long":"Trolley - North Route","route_id":"mbtrl_north","text_color":"#FFFFFF","type_label":"Bus"},"type":"Feature"},{"geometry":{"coordinates":[-120.8588,35.39022],"type":"Point"},"properties":{"kind":"stop","name":"Main Street at Elena Street","stop_id":"199"},"type":"Feature"},{"geometry":{"coordinates":[-120.84624,35.36778],"type":"Point"},"properties":{"kind":"stop","name":"Shasta at Kennedy Way","stop_id":"Downtown1"},"type":"Feature"},{"geometry":{"coordinates":[-120.84753,35.36602],"type":"Point"},"properties":{"kind":"stop","name":"Morro Bay Blvd at Napa NE","stop_id":"Downtown3"},"type":"Feature"},{"geometry":{"coordinates":[-120.84865,35.36602],"type":"Point"},"properties":{"kind":"stop","name":"Morro Bay Blvd at Monterey","stop_id":"Downtown4"},"type":"Feature"},{"geometry":{"coordinates":[-120.84076,35.347],"type":"Point"},"properties":{"kind":"stop","name":"Morro Bay State Park Campground","stop_id":"Downtown5"},"type":"Feature"},{"geometry":{"coordinates":[-120.85013,35.3658],"type":"Point"},"properties":{"kind":"stop","name":"Morro Bay Blvd at Main","stop_id":"Downtown8"},"type":"Feature"},{"geometry":{"coordinates":[-120.84782,35.36583],"type":"Point"},"properties":{"kind":"stop","name":"Morro Bay Blvd at Napa SW","stop_id":"Downtown9"},"type":"Feature"},{"geometry":{"coordinates":[-120.85757,35.38989],"type":"Point"},"properties":{"kind":"stop","name":"Main at Spencer's Market","stop_id":"MBT1"},"type":"Feature"},{"geometry":{"coordinates":[-120.84465,35.3665],"type":"Point"},"properties":{"kind":"stop","name":"City Park at Harbor","stop_id":"MBT10"},"type":"Feature"},{"geometry":{"coordinates":[-120.84547,35.36198],"type":"Point"},"properties":{"kind":"stop","name":"Piney Way at Anchor","stop_id":"MBT11"},"type":"Feature"},{"geometry":{"coordinates":[-120.85241,35.36588],"type":"Point"},"properties":{"kind":"stop","name":"Market at Morro Bay Blvd. (Centennial Stairway)","stop_id":"MBT12"},"type":"Feature"},{"geometry":{"coordinates":[-120.85453,35.3791],"type":"Point"},"properties":{"kind":"stop","name":"Main at Errol","stop_id":"MBT14"},"type":"Feature"},{"geometry":{"coordinates":[-120.85721,35.38598],"type":"Point"},"properties":{"kind":"stop","name":"Main at Bonita","stop_id":"MBT15"},"type":"Feature"},{"geometry":{"coordinates":[-120.86075,35.3955],"type":"Point"},"properties":{"kind":"stop","name":"Main at Sequoia","stop_id":"MBT2"},"type":"Feature"},{"geometry":{"coordinates":[-120.86233,35.39907],"type":"Point"},"properties":{"kind":"stop","name":"Main at Jamaica","stop_id":"MBT3"},"type":"Feature"},{"geometry":{"coordinates":[-120.8664,35.40348],"type":"Point"},"properties":{"kind":"stop","name":"Main at Tahiti","stop_id":"MBT4"},"type":"Feature"},{"geometry":{"coordinates":[-120.86618,35.39999],"type":"Point"},"properties":{"kind":"stop","name":"Beachcomber at Mindoro (stairs to campground)","stop_id":"MBT5"},"type":"Feature"},{"geometry":{"coordinates":[-120.86329,35.39357],"type":"Point"},"properties":{"kind":"stop","name":"Sandalwood at San Jacinto (beach access)","stop_id":"MBT6"},"type":"Feature"},{"geometry":{"coordinates":[-120.8586,35.38027],"type":"Point"},"properties":{"kind":"stop","name":"Atascadero at 200 Block (Teen Center; High School)","stop_id":"MBT7"},"type":"Feature"},{"geometry":{"coordinates":[-120.84636,35.36986],"type":"Point"},"properties":{"kind":"stop","name":"490 Quintana Road near FitnessWorks","stop_id":"MBT8"},"type":"Feature"},{"geometry":{"coordinates":[-120.84389,35.36761],"type":"Point"},"properties":{"kind":"stop","name":"730 Quintana Road at Albertsons","stop_id":"MBT9"},"type":"Feature"},{"geometry":{"coordinates":[-120.84588,35.36848],"type":"Point"},"properties":{"kind":"stop","name":"Community Center/Senior Center","stop_id":"MBT_Community"},"type":"Feature"},{"geometry":{"coordinates":[-120.8619,35.37916],"type":"Point"},"properties":{"kind":"stop","name":"Atascadero at Morro Dunes","stop_id":"North7"},"type":"Feature"},{"geometry":{"coordinates":[-120.85303,35.36575],"type":"Point"},"properties":{"kind":"stop","name":"Emabarcadero at Giant Chessboard","stop_id":"Waterfront10"},"type":"Feature"},{"geometry":{"coordinates":[-120.86869,35.40344],"type":"Point"},"properties":{"kind":"stop","name":"Morro Strand State Park Campground","stop_id":"tj33"},"type":"Feature"},{"geometry":{"coordinates":[-120.85752,35.37998],"type":"Point"},"properties":{"kind":"stop","name":"Atascadero at 300 Block (Motel 6)","stop_id":"yghj"},"type":"Feature"}],"type":"FeatureCollection"}
