{"features":[{"geometry":{"coordinates":[[-122.25989,37.87336],[-122.26086,37.87318],[-122.26156,37.87268],[-122.26252,37.87279],[-122.26389,37.87211],[-122.2651,37.8719],[-122.26507,37.87111],[-122.2658,37.8706],[-122.26603,37.87246],[-122.26841,37.87219],[-122.26822,37.87056],[-122.26798,37.87014],[-122.26804,37.86923],[-122.26744,37.86397],[-122.263,37.86454],[-122.26336,37.86633],[-122.25427,37.86749],[-122.25391,37.86572],[-122.2511,37.8659],[-122.25042,37.86539],[-122.25028,37.86404],[-122.24941,37.86412],[-122.24951,37.86427],[-122.2503,37.86422],[-122.25092,37.86927],[-122.25215,37.86917],[-122.25276,37.8717],[-122.25477,37.8732],[-122.25671,37.87534],[-122.25653,37.87555],[-122.25569,37.87567],[-122.25589,37.8766],[-122.25704,37.87647],[-122.25667,37.87525],[-122.25544,37.87384],[-122.2562,37.87356],[-122.25659,37.87357],[-122.25684,37.874],[-122.25741,37.8739],[-122.25729,37.87325],[-122.25863,37.87277],[-122.25912,37.87349],[-122.25989,37.87336]],"type":"LineString"},"properties":{"color":"#ED1D60","color_name":"red","kind":"route","label":"Night Safety South Side","long":"Night Safety South Side","route_id":"17648","text_color":"#000000","type_label":"Bus"},"type":"Feature"},{"geometry":{"coordinates":[[-122.2677,37.87108],[-122.26781,37.87216],[-122.26603,37.87246],[-122.26629,37.87415],[-122.2568,37.87553],[-122.25544,37.87384],[-122.25659,37.87357],[-122.25684,37.874],[-122.25734,37.87392],[-122.25748,37.8738],[-122.25729,37.87325],[-122.2553,37.87366],[-122.25286,37.8718],[-122.25183,37.86681],[-122.25409,37.86656],[-122.25461,37.8693],[-122.26772,37.86761],[-122.26789,37.86917],[-122.26771,37.87108]],"type":"LineString"},"properties":{"color":"#13B0DB","color_name":"teal","kind":"route","label":"P-Line","long":"Perimeter","route_id":"17650","text_color":"#000000","type_label":"Bus"},"type":"Feature"},{"geometry":{"coordinates":[[-122.2677,37.87113],[-122.26781,37.87217],[-122.26604,37.87246],[-122.26629,37.87415],[-122.2568,37.87553],[-122.25544,37.87384],[-122.25659,37.87357],[-122.25684,37.874],[-122.25734,37.87392],[-122.25748,37.8738],[-122.25729,37.87325],[-122.2553,37.87366],[-122.25375,37.87255],[-122.25307,37.87293],[-122.25266,37.8729],[-122.25145,37.87227],[-122.25035,37.87196],[-122.24965,37.8714],[-122.24872,37.87188],[-122.24586,37.87276],[-122.24243,37.87258],[-122.2411,37.87279],[-122.24078,37.87303],[-122.2403,37.87398],[-122.23914,37.87458],[-122.23867,37.87573],[-122.2392,37.876],[-122.24182,37.87573],[-122.24203,37.87598],[-122.24214,37.87678],[-122.24257,37.87736],[-122.24396,37.87812],[-122.24442,37.87863],[-122.24566,37.87913],[-122.24625,37.8802],[-122.24724,37.88063],[-122.24726,37.88104],[-122.24694,37.8812],[-122.24526,37.88124],[-122.24487,37.8815],[-122.24485,37.882],[-122.24462,37.88202],[-122.24423,37.88174],[-122.24445,37.88093]],"type":"LineString"},"properties":{"color":"#FF7FDC","color_name":"pink","kind":"route","label":"H-Line","long":"Hill Campus","route_id":"17651","text_color":"#000000","type_label":"Bus"},"type":"Feature"},{"geometry":{"coordinates":[[-122.2677,37.87108],[-122.26781,37.87216],[-122.26603,37.87246],[-122.26629,37.87415],[-122.2568,37.87553],[-122.25544,37.87384],[-122.2562,37.87356],[-122.25659,37.87357],[-122.25684,37.874],[-122.25741,37.8739],[-122.25729,37.87325],[-122.25863,37.87277],[-122.25897,37.87341],[-122.25959,37.8735],[-122.26086,37.87318],[-122.26156,37.87268],[-122.26252,37.87279],[-122.26389,37.87211],[-122.2651,37.8719],[-122.26498,37.8716],[-122.26512,37.87101],[-122.26539,37.87073],[-122.26595,37.87058],[-122.26585,37.86964],[-122.26788,37.86941],[-122.2677,37.87108]],"type":"LineString"},"properties":{"color":"#07A496","color_name":"teal","kind":"route","label":"C-Line","long":"Central Campus","route_id":"17652","text_color":"#000000","type_label":"Bus"},"type":"Feature"},{"geometry":{"coordinates":[[-122.26802,37.86952],[-122.26765,37.86578],[-122.25427,37.86749],[-122.25391,37.86572],[-122.24958,37.86599],[-122.24997,37.86804],[-122.2517,37.86781],[-122.25183,37.86793],[-122.25266,37.87151],[-122.25298,37.87195],[-122.25451,37.87298],[-122.25534,37.87385],[-122.2562,37.87356],[-122.25659,37.87357],[-122.25684,37.874],[-122.25734,37.87392],[-122.25748,37.8738],[-122.25729,37.87325],[-122.25534,37.87385],[-122.2568,37.87553],[-122.26376,37.87465],[-122.26629,37.87415],[-122.26616,37.87247],[-122.26843,37.87217],[-122.26822,37.87056],[-122.26798,37.87014],[-122.26802,37.8695]],"type":"LineString"},"properties":{"color":"#193044","color_name":"black","kind":"route","label":"R-Line","long":"Reverse Perimeter","route_id":"18685","text_color":"#FFFFFF","type_label":"Bus"},"type":"Feature"},{"geometry":{"coordinates":[-122.27505,37.88523],"type":"Point"},"properties":{"kind":"stop","name":"Hopkins at MLK Jr.","stop_id":"2662828"},"type":"Feature"},{"geometry":{"coordinates":[-122.25608,37.87664],"type":"Point"},"properties":{"kind":"stop","name":"Highland Place at Ridge Road","stop_id":"2662830"},"type":"Feature"},{"geometry":{"coordinates":[-122.24634,37.87255],"type":"Point"},"properties":{"kind":"stop","name":"Strawberry Canyon","stop_id":"2662831"},"type":"Feature"},{"geometry":{"coordinates":[-122.26772,37.86837],"type":"Point"},"properties":{"kind":"stop","name":"Bancroft at Kittredge","stop_id":"2662832"},"type":"Feature"},{"geometry":{"coordinates":[-122.25515,37.86929],"type":"Point"},"properties":{"kind":"stop","name":"Kroeber Hall: Bancroft at College","stop_id":"2662833"},"type":"Feature"},{"geometry":{"coordinates":[-122.2568,37.86712],"type":"Point"},"properties":{"kind":"stop","name":"Channing at Bowditch","stop_id":"2662834"},"type":"Feature"},{"geometry":{"coordinates":[-122.33838,37.91629],"type":"Point"},"properties":{"kind":"stop","name":"Regatta Facility","stop_id":"2662835"},"type":"Feature"},{"geometry":{"coordinates":[-122.25867,37.86886],"type":"Point"},"properties":{"kind":"stop","name":"Sproul Hall: Bancroft at Telegraph","stop_id":"2662836"},"type":"Feature"},{"geometry":{"coordinates":[-122.25175,37.8658],"type":"Point"},"properties":{"kind":"stop","name":"Warring at Piedmont","stop_id":"2662837"},"type":"Feature"},{"geometry":{"coordinates":[-122.33863,37.91641],"type":"Point"},"properties":{"kind":"stop","name":"Regatta Facility (Arrival)","stop_id":"2662838"},"type":"Feature"},{"geometry":{"coordinates":[-122.25283,37.87144],"type":"Point"},"properties":{"kind":"stop","name":"Haas School of Business: Piedmont Avenue (south)","stop_id":"2662839"},"type":"Feature"},{"geometry":{"coordinates":[-122.26391,37.87218],"type":"Point"},"properties":{"kind":"stop","name":"West Circle: University Drive side","stop_id":"2662840"},"type":"Feature"},{"geometry":{"coordinates":[-122.25258,37.87143],"type":"Point"},"properties":{"kind":"stop","name":"Haas School of Business: Piedmont side (north)","stop_id":"2662841"},"type":"Feature"},{"geometry":{"coordinates":[-122.2675,37.8677],"type":"Point"},"properties":{"kind":"stop","name":"Banway Building: Bancroft at Shattuck","stop_id":"2662842"},"type":"Feature"},{"geometry":{"coordinates":[-122.26821,37.87227],"type":"Point"},"properties":{"kind":"stop","name":"University at Shattuck","stop_id":"2662843"},"type":"Feature"},{"geometry":{"coordinates":[-122.2524,37.86974],"type":"Point"},"properties":{"kind":"stop","name":"International House: Piedmont at Bancroft (south)","stop_id":"2662844"},"type":"Feature"},{"geometry":{"coordinates":[-122.26628,37.87266],"type":"Point"},"properties":{"kind":"stop","name":"Oxford St at University","stop_id":"2662845"},"type":"Feature"},{"geometry":{"coordinates":[-122.25798,37.87532],"type":"Point"},"properties":{"kind":"stop","name":"Cory Hall: Hearst at LeRoy","stop_id":"2662846"},"type":"Feature"},{"geometry":{"coordinates":[-122.25719,37.86902],"type":"Point"},"properties":{"kind":"stop","name":"Hearst Memorial Gym: Bancroft at Bowditch","stop_id":"2662847"},"type":"Feature"},{"geometry":{"coordinates":[-122.2633,37.87209],"type":"Point"},"properties":{"kind":"stop","name":"Life Science Addition: West Circle","stop_id":"2662849"},"type":"Feature"},{"geometry":{"coordinates":[-122.30183,37.87344],"type":"Point"},"properties":{"kind":"stop","name":"CSS","stop_id":"2662850"},"type":"Feature"},{"geometry":{"coordinates":[-122.29939,37.90308],"type":"Point"},"properties":{"kind":"stop","name":"El Cerrito Plaza BART","stop_id":"2662851"},"type":"Feature"},{"geometry":{"coordinates":[-122.25617,37.87556],"type":"Point"},"properties":{"kind":"stop","name":"Foothill Student Housing: Hearst side","stop_id":"2662852"},"type":"Feature"},{"geometry":{"coordinates":[-122.26781,37.86647],"type":"Point"},"properties":{"kind":"stop","name":"Shattuck at Durant","stop_id":"2662853"},"type":"Feature"},{"geometry":{"coordinates":[-122.26054,37.87497],"type":"Point"},"properties":{"kind":"stop","name":"North Gate: Hearst at Euclid","stop_id":"2662854"},"type":"Feature"},{"geometry":{"coordinates":[-122.23879,37.87543],"type":"Point"},"properties":{"kind":"stop","name":"UC Botanical Garden","stop_id":"2662855"},"type":"Feature"},{"geometry":{"coordinates":[-122.25084,37.86911],"type":"Point"},"properties":{"kind":"stop","name":"Warring at Bancroft","stop_id":"2662856"},"type":"Feature"},{"geometry":{"coordinates":[-122.26807,37.86951],"type":"Point"},"properties":{"kind":"stop","name":"Shattuck at Allston","stop_id":"2662857"},"type":"Feature"},{"geometry":{"coordinates":[-122.26491,37.8716],"type":"Point"},"properties":{"kind":"stop","name":"Li Ka Shing: West Crescent side","stop_id":"2662858"},"type":"Feature"},{"geometry":{"coordinates":[-122.265,37.86422],"type":"Point"},"properties":{"kind":"stop","name":"Dwight at Fulton","stop_id":"2662859"},"type":"Feature"},{"geometry":{"coordinates":[-122.26763,37.87109],"type":"Point"},"properties":{"kind":"stop","name":"Downtown Berkeley: Shattuck at Addison","stop_id":"2662860"},"type":"Feature"},{"geometry":{"coordinates":[-122.264,37.86818],"type":"Point"},"properties":{"kind":"stop","name":"Recreational Sport Facility: Bancroft at Ellsworth","stop_id":"2662861"},"type":"Feature"},{"geometry":{"coordinates":[-122.23863,37.87537],"type":"Point"},"properties":{"kind":"stop","name":"UC Botanical Garden","stop_id":"2662862"},"type":"Feature"},{"geometry":{"coordinates":[-122.26804,37.86828],"type":"Point"},"properties":{"kind":"stop","name":"Shattuck at Kittredge","stop_id":"2662863"},"type":"Feature"},{"geometry":{"coordinates":[-122.25405,37.86675],"type":"Point"},"properties":{"kind":"stop","name":"College at Haste","stop_id":"2662864"},"type":"Feature"},{"geometry":{"coordinates":[-122.25949,37.86677],"type":"Point"},"properties":{"kind":"stop","name":"Residence Hall Unit 3 Channing at Telegraph","stop_id":"2662866"},"type":"Feature"},{"geometry":{"coordinates":[-122.25447,37.86742],"type":"Point"},"properties":{"kind":"stop","name":"Residence Hall Unit 1 Channing at College","stop_id":"2662867"},"type":"Feature"},{"geometry":{"coordinates":[-122.25073,37.86787],"type":"Point"},"properties":{"kind":"stop","name":"Warring at Channing","stop_id":"2662868"},"type":"Feature"},{"geometry":{"coordinates":[-122.2461,37.87984],"type":"Point"},"properties":{"kind":"stop","name":"Lawrence Hall of Science","stop_id":"2662869"},"type":"Feature"},{"geometry":{"coordinates":[-122.2464,37.87264],"type":"Point"},"properties":{"kind":"stop","name":"Strawberry Canyon","stop_id":"2662870"},"type":"Feature"},{"geometry":{"coordinates":[-122.24417,37.88064],"type":"Point"},"properties":{"kind":"stop","name":"Space Sciences Lab / MSRI","stop_id":"2662871"},"type":"Feature"},{"geometry":{"coordinates":[-122.25214,37.86805],"type":"Point"},"properties":{"kind":"stop","name":"Piedmont at Channing","stop_id":"2662872"},"type":"Feature"},{"geometry":{"coordinates":[-122.2445,37.8809],"type":"Point"},"properties":{"kind":"stop","name":"Space Sciences Lab / MSRI (Arrival)","stop_id":"2662873"},"type":"Feature"},{"geometry":{"coordinates":[-122.25388,37.87272],"type":"Point"},"properties":{"kind":"stop","name":"Gayley at Stadium Rimway","stop_id":"2662874"},"type":"Feature"},{"geometry":{"coordinates":[-122.25374,37.87246],"type":"Point"},"properties":{"kind":"stop","name":"Bowles Hall: Gayley","stop_id":"2662875"},"type":"Feature"},{"geometry":{"coordinates":[-122.2651,37.87163],"type":"Point"},"properties":{"kind":"stop","name":"Li Ka Shing: West Crescent","stop_id":"2662876"},"type":"Feature"},{"geometry":{"coordinates":[-122.24606,37.87997],"type":"Point"},"properties":{"kind":"stop","name":"Lawrence Hall of Science","stop_id":"2662877"},"type":"Feature"},{"geometry":{"coordinates":[-122.25983,37.87335],"type":"Point"},"properties":{"kind":"stop","name":"Moffit Library: Memorial Glade","stop_id":"2662878"},"type":"Feature"},{"geometry":{"coordinates":[-122.27482,37.88566],"type":"Point"},"properties":{"kind":"stop","name":"Hopkins at MLK Jr.","stop_id":"2662879"},"type":"Feature"},{"geometry":{"coordinates":[-122.24933,37.86414],"type":"Point"},"properties":{"kind":"stop","name":"Clark Kerr Campus: Warring at Horseshoe","stop_id":"2662880"},"type":"Feature"},{"geometry":{"coordinates":[-122.26097,37.87311],"type":"Point"},"properties":{"kind":"stop","name":"Moffitt Library: University Drive","stop_id":"2662881"},"type":"Feature"},{"geometry":{"coordinates":[-122.28298,37.87402],"type":"Point"},"properties":{"kind":"stop","name":"North Berkeley BART","stop_id":"2662882"},"type":"Feature"},{"geometry":{"coordinates":[-122.25741,37.87341],"type":"Point"},"properties":{"kind":"stop","name":"Evans Hall: Hearst Mining Circle","stop_id":"2662883"},"type":"Feature"},{"geometry":{"coordinates":[-122.26415,37.87443],"type":"Point"},"properties":{"kind":"stop","name":"Tolman Hall: Hearst at Arch","stop_id":"2662884"},"type":"Feature"},{"geometry":{"coordinates":[-122.26342,37.87193],"type":"Point"},"properties":{"kind":"stop","name":"Life Science Addition: West Circle","stop_id":"2662885"},"type":"Feature"},{"geometry":{"coordinates":[-122.3011,37.88773],"type":"Point"},"properties":{"kind":"stop","name":"Buchanan at Jackson","stop_id":"2662886"},"type":"Feature"},{"geometry":{"coordinates":[-122.30103,37.88754],"type":"Point"},"properties":{"kind":"stop","name":"Buchanan at Jackson","stop_id":"2662887"},"type":"Feature"},{"geometry":{"coordinates":[-122.32989,37.91705],"type":"Point"},"properties":{"kind":"stop","name":"Richmond Field Station","stop_id":"2662888"},"type":"Feature"},{"geometry":{"coordinates":[-122.26317,37.8663],"type":"Point"},"properties":{"kind":"stop","name":"Ellsworth Structure: Channing side","stop_id":"2662889"},"type":"Feature"},{"geometry":{"coordinates":[-122.2542,37.86672],"type":"Point"},"properties":{"kind":"stop","name":"College at Haste","stop_id":"2662890"},"type":"Feature"},{"geometry":{"coordinates":[-122.25557,37.87425],"type":"Point"},"properties":{"kind":"stop","name":"Greek Theater: Gayley at University Drive","stop_id":"2662891"},"type":"Feature"},{"geometry":{"coordinates":[-122.25572,37.8742],"type":"Point"},"properties":{"kind":"stop","name":"East Gate: Gayley at University Drive","stop_id":"2662892"},"type":"Feature"},{"geometry":{"coordinates":[-122.26723,37.86578],"type":"Point"},"properties":{"kind":"stop","name":"Channing at Shattuck","stop_id":"2729295"},"type":"Feature"},{"geometry":{"coordinates":[-122.25405,37.86599],"type":"Point"},"properties":{"kind":"stop","name":"Unit 2 College at Haste","stop_id":"2729296"},"type":"Feature"},{"geometry":{"coordinates":[-122.24996,37.86591],"type":"Point"},"properties":{"kind":"stop","name":"Clark Kerr: Dwight at Prospect","stop_id":"2729297"},"type":"Feature"},{"geometry":{"coordinates":[-122.25184,37.86808],"type":"Point"},"properties":{"kind":"stop","name":"Piedmont at Channing (north)","stop_id":"2729298"},"type":"Feature"},{"geometry":{"coordinates":[-122.25214,37.86979],"type":"Point"},"properties":{"kind":"stop","name":"International House: Piedmont at Bancroft (north)","stop_id":"2729299"},"type":"Feature"},{"geometry":{"coordinates":[-122.25804,37.87544],"type":"Point"},"properties":{"kind":"stop","name":"Cory Hall: Hearst at LeRoy (west)","stop_id":"2729300"},"type":"Feature"},{"geometry":{"coordinates":[-122.26034,37.87514],"type":"Point"},"properties":{"kind":"stop","name":"North Gate: Hearst at Euclid (west)","stop_id":"2729301"},"type":"Feature"},{"geometry":{"coordinates":[-122.26422,37.87459],"type":"Point"},"properties":{"kind":"stop","name":"Tolman Hall: Hearst at Arch (west)","stop_id":"2729302"},"type":"Feature"},{"geometry":{"coordinates":[-122.26641,37.87388],"type":"Point"},"properties":{"kind":"stop","name":"Oxford at Hearst","stop_id":"2729303"},"type":"Feature"},{"geometry":{"coordinates":[-122.2682,37.87383],"type":"Point"},"properties":{"kind":"stop","name":"Hearst at Shattuck","stop_id":"2729328"},"type":"Feature"},{"geometry":{"coordinates":[-122.26596,37.8727],"type":"Point"},"properties":{"kind":"stop","name":"Oxford St at University","stop_id":"2729600"},"type":"Feature"}],"type":"FeatureCollection"}
