{"features":[{"geometry":{"coordinates":[[-119.75338,36.80853],[-119.64599,36.80843],[-119.64603,36.80002],[-119.63698,36.8],[-119.63697,36.80832],[-119.68179,36.80868],[-119.74525,36.80865],[-119.74526,36.80134],[-119.75419,36.80136],[-119.75413,36.80853],[-119.75338,36.80853]],"type":"LineString"},"properties":{"color":"#0BEA07","color_name":"green","kind":"route","label":"G","long":"Green (Shaw)","route_id":"7864","text_color":"#FFFFFF","type_label":"Bus"},"type":"Feature"},{"geometry":{"coordinates":[[-119.72952,36.83898],[-119.72979,36.88144],[-119.73883,36.88136],[-119.7387,36.88856],[-119.73003,36.88866],[-119.72985,36.84697],[-119.72951,36.82457],[-119.7292,36.82299],[-119.72771,36.82087],[-119.72731,36.81964],[-119.72744,36.81474],[-119.72728,36.80138],[-119.72746,36.79407],[-119.71365,36.79392],[-119.71366,36.79164],[-119.71331,36.79062],[-119.71328,36.78904],[-119.71441,36.78908],[-119.71593,36.78949],[-119.71594,36.78672],[-119.71808,36.78673],[-119.71818,36.7941],[-119.72729,36.79421],[-119.72714,36.81942],[-119.72741,36.8206],[-119.7289,36.82283],[-119.72931,36.82414],[-119.72952,36.83898]],"type":"LineString"},"properties":{"color":"#0644FF","color_name":"blue","kind":"route","label":"B","long":"Blue (Willow)","route_id":"7887","text_color":"#FFFFFF","type_label":"Bus"},"type":"Feature"},{"geometry":{"coordinates":[[-119.71808,36.78687],[-119.71818,36.79398],[-119.71214,36.79392],[-119.70916,36.79446],[-119.70812,36.79445],[-119.70689,36.79427],[-119.70391,36.79329],[-119.70025,36.79319],[-119.69696,36.79324],[-119.69518,36.7938],[-119.69378,36.79398],[-119.64603,36.7938],[-119.64603,36.80002],[-119.63698,36.8],[-119.63705,36.79393],[-119.69378,36.79398],[-119.69518,36.7938],[-119.69696,36.79324],[-119.70025,36.79319],[-119.70391,36.79329],[-119.7078,36.79443],[-119.70974,36.79449],[-119.71159,36.79407],[-119.71365,36.79403],[-119.71366,36.79164],[-119.71331,36.79062],[-119.71328,36.78904],[-119.71441,36.78908],[-119.71593,36.78949],[-119.71594,36.78672],[-119.71808,36.78673],[-119.71808,36.78687]],"type":"LineString"},"properties":{"color":"#FF7F0E","color_name":"orange","kind":"route","label":"O","long":"Orange (Ashlan)","route_id":"7888","text_color":"#FFFFFF","type_label":"Bus"},"type":"Feature"},{"geometry":{"coordinates":[[-119.66403,36.8005],[-119.66408,36.79397],[-119.6731,36.79407],[-119.67306,36.8012],[-119.66388,36.80115],[-119.66375,36.82288],[-119.66393,36.84193],[-119.66426,36.84343],[-119.66521,36.84501],[-119.66525,36.84547],[-119.66563,36.84554],[-119.66571,36.84529],[-119.66522,36.8448],[-119.66442,36.84343],[-119.66409,36.84201],[-119.6639,36.82288],[-119.66403,36.8005]],"type":"LineString"},"properties":{"color":"#E377C2","color_name":"pink","kind":"route","label":"Pi","long":"Pink (Temperance)","route_id":"7889","text_color":"#FFFFFF","type_label":"Bus"},"type":"Feature"},{"geometry":{"coordinates":[[-119.69887,36.82721],[-119.69914,36.82721],[-119.69914,36.82658],[-119.69096,36.82658],[-119.69093,36.83798],[-119.69148,36.83891],[-119.69258,36.83977],[-119.69297,36.84057],[-119.69297,36.84474],[-119.70151,36.84476],[-119.70201,36.84601],[-119.7022,36.8486],[-119.70382,36.85201],[-119.69308,36.85199],[-119.69301,36.84039],[-119.69276,36.83979],[-119.69155,36.83879],[-119.6911,36.83798],[-119.69096,36.82658],[-119.69848,36.82658],[-119.69849,36.82721],[-119.69896,36.82721],[-119.69914,36.82721],[-119.69914,36.82658],[-119.69096,36.82658],[-119.69098,36.81397],[-119.69545,36.81395],[-119.69559,36.80938],[-119.69552,36.80847],[-119.6908,36.80853],[-119.69101,36.81109],[-119.69096,36.82658],[-119.69848,36.82658],[-119.69849,36.82721],[-119.69887,36.82721]],"type":"LineString"},"properties":{"color":"#612FC5","color_name":"blue","kind":"route","label":"Pu","long":"Purple (Sunnyside)","route_id":"7890","text_color":"#FFFFFF","type_label":"Bus"},"type":"Feature"},{"geometry":{"coordinates":[[-119.69889,36.82721],[-119.69914,36.82721],[-119.69914,36.82658],[-119.6978,36.82658],[-119.69779,36.82526],[-119.69914,36.82527],[-119.69918,36.82395],[-119.69069,36.82399],[-119.69012,36.82387],[-119.68868,36.82303],[-119.68207,36.82295],[-119.68208,36.81579],[-119.66381,36.81568],[-119.66375,36.823],[-119.67294,36.82306],[-119.67297,36.81574],[-119.68191,36.81579],[-119.68191,36.82306],[-119.68851,36.82301],[-119.68905,36.82315],[-119.69012,36.82387],[-119.69069,36.82399],[-119.69918,36.82395],[-119.69914,36.82527],[-119.69779,36.82526],[-119.6978,36.82658],[-119.69848,36.82658],[-119.69849,36.82721],[-119.69914,36.82721],[-119.69914,36.82658],[-119.6978,36.82658],[-119.69779,36.82526],[-119.69914,36.82527],[-119.69918,36.82395],[-119.70428,36.82395],[-119.70623,36.82304],[-119.71342,36.8231],[-119.71356,36.81576],[-119.72742,36.81578],[-119.72736,36.8086],[-119.73633,36.80864],[-119.73628,36.81078],[-119.73297,36.81075],[-119.73295,36.81149],[-119.73416,36.81176],[-119.73417,36.8116],[-119.73295,36.81149],[-119.73297,36.81075],[-119.736,36.81083],[-119.73628,36.81102],[-119.73627,36.81173],[-119.73605,36.81223],[-119.73627,36.81242],[-119.73646,36.81225],[-119.73627,36.81173],[-119.73633,36.80847],[-119.72715,36.80842],[-119.72724,36.81578],[-119.71356,36.81576],[-119.71343,36.82297],[-119.70623,36.82304],[-119.7043,36.82394],[-119.69918,36.82395],[-119.69914,36.82527],[-119.69779,36.82526],[-119.6978,36.82658],[-119.69848,36.82658],[-119.69849,36.82721],[-119.69889,36.82721]],"type":"LineString"},"properties":{"color":"#D53F3F","color_name":"red","kind":"route","label":"R","long":"Red (Bullard)","route_id":"7891","text_color":"#FFFFFF","type_label":"Bus"},"type":"Feature"},{"geometry":{"coordinates":[[-119.72952,36.83898],[-119.72956,36.84485],[-119.72019,36.84481],[-119.72021,36.83751],[-119.71074,36.8375],[-119.70451,36.83724],[-119.68817,36.83743],[-119.66395,36.83725],[-119.66399,36.84266],[-119.66536,36.84555],[-119.66567,36.84551],[-119.66572,36.84531],[-119.66456,36.84373],[-119.66411,36.84229],[-119.66411,36.8374],[-119.68419,36.83759],[-119.70588,36.83741],[-119.71205,36.83768],[-119.7295,36.83767],[-119.72952,36.83898]],"type":"LineString"},"properties":{"color":"#03B992","color_name":"teal","kind":"route","label":"T","long":"Teal (Herndon)","route_id":"7892","text_color":"#FFFFFF","type_label":"Bus"},"type":"Feature"},{"geometry":{"coordinates":[[-119.69891,36.82721],[-119.69914,36.82721],[-119.69914,36.82658],[-119.70066,36.82658],[-119.70064,36.82922],[-119.69994,36.83094],[-119.69986,36.84209],[-119.70009,36.84286],[-119.70176,36.84522],[-119.70206,36.84639],[-119.70219,36.84859],[-119.70364,36.85138],[-119.70383,36.85209],[-119.72018,36.85218],[-119.72017,36.85943],[-119.71121,36.85936],[-119.71124,36.85202],[-119.70396,36.85201],[-119.70374,36.85122],[-119.70225,36.84819],[-119.70219,36.84634],[-119.70189,36.84518],[-119.70036,36.84305],[-119.7,36.84208],[-119.70009,36.83105],[-119.70068,36.82949],[-119.70066,36.82658],[-119.69848,36.82658],[-119.69849,36.82721],[-119.69914,36.82721],[-119.69914,36.82658],[-119.70204,36.82659],[-119.7021,36.80858],[-119.70459,36.80858],[-119.70461,36.80488],[-119.70042,36.80491],[-119.70043,36.79319],[-119.70391,36.79329],[-119.7078,36.79443],[-119.70974,36.79449],[-119.71159,36.79407],[-119.71365,36.79403],[-119.71366,36.79164],[-119.71331,36.79062],[-119.71328,36.78904],[-119.71441,36.78908],[-119.71593,36.78949],[-119.71594,36.78672],[-119.71808,36.78673],[-119.71818,36.79398],[-119.71214,36.79392],[-119.70916,36.79446],[-119.70812,36.79445],[-119.70689,36.79427],[-119.70391,36.79329],[-119.70025,36.79319],[-119.7002,36.80861],[-119.7021,36.80858],[-119.70204,36.82659],[-119.69848,36.82658],[-119.69849,36.82721],[-119.69891,36.82721]],"type":"LineString"},"properties":{"color":"#FCFF03","color_name":"yellow","kind":"route","label":"Y","long":"Yellow (Clovis)","route_id":"7893","text_color":"#000000","type_label":"Bus"},"type":"Feature"},{"geometry":{"coordinates":[[-119.69891,36.82721],[-119.69914,36.82721],[-119.69914,36.82658],[-119.70066,36.82658],[-119.70064,36.82922],[-119.69994,36.83094],[-119.69986,36.84209],[-119.70009,36.84286],[-119.70176,36.84522],[-119.70206,36.84639],[-119.70219,36.84859],[-119.70364,36.85138],[-119.70383,36.85209],[-119.72018,36.85218],[-119.72017,36.85943],[-119.71121,36.85936],[-119.71124,36.85202],[-119.70396,36.85201],[-119.70374,36.85122],[-119.70225,36.84819],[-119.70219,36.84634],[-119.70189,36.84518],[-119.70036,36.84305],[-119.7,36.84208],[-119.70009,36.83105],[-119.70068,36.82949],[-119.70066,36.82658],[-119.69848,36.82658],[-119.69849,36.82721],[-119.69914,36.82721],[-119.69914,36.82658],[-119.70066,36.82658],[-119.70069,36.81852],[-119.70029,36.81736],[-119.70027,36.81578],[-119.70207,36.81577],[-119.7021,36.80858],[-119.70459,36.80858],[-119.70461,36.80488],[-119.70042,36.80491],[-119.70043,36.79319],[-119.70391,36.79329],[-119.7078,36.79443],[-119.70974,36.79449],[-119.71159,36.79407],[-119.71365,36.79403],[-119.71366,36.79164],[-119.71331,36.79062],[-119.71328,36.78904],[-119.71441,36.78908],[-119.71593,36.78949],[-119.71594,36.78672],[-119.71808,36.78673],[-119.71818,36.79398],[-119.71214,36.79392],[-119.70916,36.79446],[-119.70812,36.79445],[-119.70689,36.79427],[-119.70391,36.79329],[-119.70025,36.79319],[-119.7002,36.80861],[-119.7021,36.80858],[-119.70206,36.81577],[-119.70027,36.81578],[-119.70029,36.81736],[-119.70069,36.81852],[-119.70066,36.82658],[-119.69848,36.82658],[-119.69849,36.82721],[-119.69891,36.82721]],"type":"LineString"},"properties":{"color":"#FCFF03","color_name":"yellow","kind":"route","label":"Y","long":"Yellow - Friday Detour 5-8pm","route_id":"9326","text_color":"#000000","type_label":"Bus"},"type":"Feature"},{"geometry":{"coordinates":[-119.75406,36.80564],"type":"Point"},"properties":{"kind":"stop","name":"Cedar Ave & Alamos Ave NB","stop_id":"148251"},"type":"Feature"},{"geometry":{"coordinates":[-119.74497,36.80842],"type":"Point"},"properties":{"kind":"stop","name":"Shaw Ave & Maple Ave EB","stop_id":"148252"},"type":"Feature"},{"geometry":{"coordinates":[-119.74943,36.80846],"type":"Point"},"properties":{"kind":"stop","name":"Shaw Ave & Barton Ave EB","stop_id":"148253"},"type":"Feature"},{"geometry":{"coordinates":[-119.74111,36.80145],"type":"Point"},"properties":{"kind":"stop","name":"NW Gettysburg - Woodrow","stop_id":"148254"},"type":"Feature"},{"geometry":{"coordinates":[-119.7534,36.80846],"type":"Point"},"properties":{"kind":"stop","name":"Shaw Ave & Cedar Ave EB","stop_id":"148255"},"type":"Feature"},{"geometry":{"coordinates":[-119.75409,36.80164],"type":"Point"},"properties":{"kind":"stop","name":"Cedar Ave & Gettysburg Ave NB","stop_id":"148256"},"type":"Feature"},{"geometry":{"coordinates":[-119.74624,36.80146],"type":"Point"},"properties":{"kind":"stop","name":"Gettysburg Ave & Maple Ave WB","stop_id":"148257"},"type":"Feature"},{"geometry":{"coordinates":[-119.7518,36.80151],"type":"Point"},"properties":{"kind":"stop","name":"Gettysburg Ave & Rowell Ave","stop_id":"148258"},"type":"Feature"},{"geometry":{"coordinates":[-119.73198,36.8014],"type":"Point"},"properties":{"kind":"stop","name":"NW Gettysburg - Winery","stop_id":"148259"},"type":"Feature"},{"geometry":{"coordinates":[-119.72941,36.84357],"type":"Point"},"properties":{"kind":"stop","name":"Willow Ave at Harmony Bay Apartments","stop_id":"148260"},"type":"Feature"},{"geometry":{"coordinates":[-119.73681,36.8014],"type":"Point"},"properties":{"kind":"stop","name":"NW Gettysburg - Chestnut","stop_id":"148261"},"type":"Feature"},{"geometry":{"coordinates":[-119.72936,36.83898],"type":"Point"},"properties":{"kind":"stop","name":"N Willow Ave-Clovis Commons","stop_id":"148262"},"type":"Feature"},{"geometry":{"coordinates":[-119.72921,36.85201],"type":"Point"},"properties":{"kind":"stop","name":"W Nees Ave & Willow Ave","stop_id":"148263"},"type":"Feature"},{"geometry":{"coordinates":[-119.72783,36.80135],"type":"Point"},"properties":{"kind":"stop","name":"Gettysburg Ave & Willow Ave","stop_id":"148264"},"type":"Feature"},{"geometry":{"coordinates":[-119.7274,36.80802],"type":"Point"},"properties":{"kind":"stop","name":"Willow Ave & Shaw Ave SB - Carl's Jr (Transfer)","stop_id":"148265"},"type":"Feature"},{"geometry":{"coordinates":[-119.72734,36.80326],"type":"Point"},"properties":{"kind":"stop","name":"Willow Ave & Rialto Ave SB","stop_id":"148266"},"type":"Feature"},{"geometry":{"coordinates":[-119.74046,36.80841],"type":"Point"},"properties":{"kind":"stop","name":"Shaw Ave & Woodrow Ave EB","stop_id":"148267"},"type":"Feature"},{"geometry":{"coordinates":[-119.72702,36.80947],"type":"Point"},"properties":{"kind":"stop","name":"Willow Ave & Shaw Ave NB","stop_id":"148268"},"type":"Feature"},{"geometry":{"coordinates":[-119.72645,36.81568],"type":"Point"},"properties":{"kind":"stop","name":"Barstow Ave & Willow Ave EB","stop_id":"148269"},"type":"Feature"},{"geometry":{"coordinates":[-119.72484,36.81585],"type":"Point"},"properties":{"kind":"stop","name":"Barstow Ave & Willow Ave WB","stop_id":"148270"},"type":"Feature"},{"geometry":{"coordinates":[-119.72378,36.83612],"type":"Point"},"properties":{"kind":"stop","name":"Institute of Technology","stop_id":"148271"},"type":"Feature"},{"geometry":{"coordinates":[-119.72204,36.81585],"type":"Point"},"properties":{"kind":"stop","name":"Barstow Ave & Helm Ave WB","stop_id":"148272"},"type":"Feature"},{"geometry":{"coordinates":[-119.72118,36.81565],"type":"Point"},"properties":{"kind":"stop","name":"Barstow Ave & Sylmar Ave EB","stop_id":"148273"},"type":"Feature"},{"geometry":{"coordinates":[-119.72028,36.85162],"type":"Point"},"properties":{"kind":"stop","name":"W Nees Ave & Peach Ave","stop_id":"148274"},"type":"Feature"},{"geometry":{"coordinates":[-119.72003,36.85815],"type":"Point"},"properties":{"kind":"stop","name":"Peach Ave & Teague Ave - Alta Sierra Intermediate School","stop_id":"148275"},"type":"Feature"},{"geometry":{"coordinates":[-119.7197,36.8447],"type":"Point"},"properties":{"kind":"stop","name":"Alluvial Ave & Peach Ave","stop_id":"148276"},"type":"Feature"},{"geometry":{"coordinates":[-119.71808,36.8028],"type":"Point"},"properties":{"kind":"stop","name":"Peach Ave & W Rialto Ave","stop_id":"148277"},"type":"Feature"},{"geometry":{"coordinates":[-119.71805,36.79802],"type":"Point"},"properties":{"kind":"stop","name":"Peach Ave & W Holland Ave","stop_id":"148278"},"type":"Feature"},{"geometry":{"coordinates":[-119.71789,36.80477],"type":"Point"},"properties":{"kind":"stop","name":"W Santa Ana Ave & Peach Ave","stop_id":"148279"},"type":"Feature"},{"geometry":{"coordinates":[-119.71752,36.79414],"type":"Point"},"properties":{"kind":"stop","name":"Ashlan Ave & Peach Ave WB","stop_id":"148280"},"type":"Feature"},{"geometry":{"coordinates":[-119.71413,36.83774],"type":"Point"},"properties":{"kind":"stop","name":"Herndon Ave & Villa Ave WB","stop_id":"148281"},"type":"Feature"},{"geometry":{"coordinates":[-119.71369,36.81694],"type":"Point"},"properties":{"kind":"stop","name":"Villa Ave & W Portals Ave SB","stop_id":"148282"},"type":"Feature"},{"geometry":{"coordinates":[-119.71356,36.8053],"type":"Point"},"properties":{"kind":"stop","name":"Villa Ave & W Santa Ana Ave","stop_id":"148283"},"type":"Feature"},{"geometry":{"coordinates":[-119.71354,36.82219],"type":"Point"},"properties":{"kind":"stop","name":"Villa Ave & Bullard Ave SB","stop_id":"148284"},"type":"Feature"},{"geometry":{"coordinates":[-119.71345,36.83359],"type":"Point"},"properties":{"kind":"stop","name":"N Villa Ave & W Polson Ave","stop_id":"148285"},"type":"Feature"},{"geometry":{"coordinates":[-119.71341,36.83084],"type":"Point"},"properties":{"kind":"stop","name":"N Villa Ave & Sierra Ave","stop_id":"148286"},"type":"Feature"},{"geometry":{"coordinates":[-119.71329,36.817],"type":"Point"},"properties":{"kind":"stop","name":"Villa Ave & Portals Ave NB","stop_id":"148287"},"type":"Feature"},{"geometry":{"coordinates":[-119.71322,36.79409],"type":"Point"},"properties":{"kind":"stop","name":"Ashlan Ave & Villa Ave WB (Transfer)","stop_id":"148288"},"type":"Feature"},{"geometry":{"coordinates":[-119.71318,36.85929],"type":"Point"},"properties":{"kind":"stop","name":"Teague Ave & Minnewawa Ave - Buchanan High School","stop_id":"148289"},"type":"Feature"},{"geometry":{"coordinates":[-119.71153,36.80835],"type":"Point"},"properties":{"kind":"stop","name":"Shaw Ave & Villa Ave EB","stop_id":"148290"},"type":"Feature"},{"geometry":{"coordinates":[-119.7127,36.82289],"type":"Point"},"properties":{"kind":"stop","name":"Bullard Ave & Villa Ave EB","stop_id":"148291"},"type":"Feature"},{"geometry":{"coordinates":[-119.71107,36.82314],"type":"Point"},"properties":{"kind":"stop","name":"Bullard Ave & Scotty Prvt","stop_id":"148292"},"type":"Feature"},{"geometry":{"coordinates":[-119.71029,36.84467],"type":"Point"},"properties":{"kind":"stop","name":"Alluvial Ave & Minnewawa Ave","stop_id":"148293"},"type":"Feature"},{"geometry":{"coordinates":[-119.70993,36.82285],"type":"Point"},"properties":{"kind":"stop","name":"Bullard Ave & Minnewawa Ave EB","stop_id":"148294"},"type":"Feature"},{"geometry":{"coordinates":[-119.70948,36.79456],"type":"Point"},"properties":{"kind":"stop","name":"Ashlan Ave & Minnewawa Ave WB","stop_id":"148295"},"type":"Feature"},{"geometry":{"coordinates":[-119.70931,36.8019],"type":"Point"},"properties":{"kind":"stop","name":"Tarpey Elementary School-Minnewawa Ave","stop_id":"148296"},"type":"Feature"},{"geometry":{"coordinates":[-119.70925,36.80751],"type":"Point"},"properties":{"kind":"stop","name":"Wild West Village SC-Minnewawa Ave","stop_id":"148297"},"type":"Feature"},{"geometry":{"coordinates":[-119.70923,36.80444],"type":"Point"},"properties":{"kind":"stop","name":"Minnewawa Ave W Santa Ana and W Rall","stop_id":"148298"},"type":"Feature"},{"geometry":{"coordinates":[-119.70871,36.80835],"type":"Point"},"properties":{"kind":"stop","name":"Shaw Ave & Minnewawa Ave EB","stop_id":"148299"},"type":"Feature"},{"geometry":{"coordinates":[-119.70839,36.82314],"type":"Point"},"properties":{"kind":"stop","name":"Bullard Ave & Minnewawa Ave WB","stop_id":"148300"},"type":"Feature"},{"geometry":{"coordinates":[-119.70623,36.84469],"type":"Point"},"properties":{"kind":"stop","name":"Alluvial Ave & Dartmouth Ave","stop_id":"148301"},"type":"Feature"},{"geometry":{"coordinates":[-119.70555,36.83039],"type":"Point"},"properties":{"kind":"stop","name":"Diamond Learning Center-Sierra Ave","stop_id":"148302"},"type":"Feature"},{"geometry":{"coordinates":[-119.70521,36.82361],"type":"Point"},"properties":{"kind":"stop","name":"S Harvard Ave & 5th St","stop_id":"148303"},"type":"Feature"},{"geometry":{"coordinates":[-119.70355,36.82386],"type":"Point"},"properties":{"kind":"stop","name":"5th St & Woodworth Ave","stop_id":"148304"},"type":"Feature"},{"geometry":{"coordinates":[-119.70268,36.80863],"type":"Point"},"properties":{"kind":"stop","name":"Shaw Ave & Pollasky Ave WB (Transfer)","stop_id":"148305"},"type":"Feature"},{"geometry":{"coordinates":[-119.70227,36.80832],"type":"Point"},"properties":{"kind":"stop","name":"Shaw Ave & Pollasky Ave EB","stop_id":"148306"},"type":"Feature"},{"geometry":{"coordinates":[-119.70141,36.84429],"type":"Point"},"properties":{"kind":"stop","name":"Clovis Ave & Alluvial Ave SB (Transfer)","stop_id":"148307"},"type":"Feature"},{"geometry":{"coordinates":[-119.70016,36.83644],"type":"Point"},"properties":{"kind":"stop","name":"Clovis Ave & Herndon Ave SB","stop_id":"148308"},"type":"Feature"},{"geometry":{"coordinates":[-119.7001,36.79389],"type":"Point"},"properties":{"kind":"stop","name":"Clovis Ave & Ashlan Ave","stop_id":"148309"},"type":"Feature"},{"geometry":{"coordinates":[-119.69963,36.82385],"type":"Point"},"properties":{"kind":"stop","name":"5th St & Veterans Pkwy EB","stop_id":"148310"},"type":"Feature"},{"geometry":{"coordinates":[-119.69944,36.83718],"type":"Point"},"properties":{"kind":"stop","name":"Herndon Ave & Clovis Ave EB","stop_id":"148311"},"type":"Feature"},{"geometry":{"coordinates":[-119.69681,36.80868],"type":"Point"},"properties":{"kind":"stop","name":"Shaw Ave & Cole Ave WB - Cool Hand Luke's","stop_id":"148312"},"type":"Feature"},{"geometry":{"coordinates":[-119.69652,36.80115],"type":"Point"},"properties":{"kind":"stop","name":"Gettysburg Ave between Larkin and Phillip","stop_id":"148313"},"type":"Feature"},{"geometry":{"coordinates":[-119.69665,36.8241],"type":"Point"},"properties":{"kind":"stop","name":"5th St & Baron Ave WB - Civic Center","stop_id":"148314"},"type":"Feature"},{"geometry":{"coordinates":[-119.69587,36.82385],"type":"Point"},"properties":{"kind":"stop","name":"5th St & Baron Ave EB - Clark Intermediate School","stop_id":"148315"},"type":"Feature"},{"geometry":{"coordinates":[-119.69556,36.83768],"type":"Point"},"properties":{"kind":"stop","name":"Herndon Ave & Marion Ave WB - Walmart Supercenter","stop_id":"148316"},"type":"Feature"},{"geometry":{"coordinates":[-119.69476,36.80839],"type":"Point"},"properties":{"kind":"stop","name":"Shaw Ave & Cole Ave EB - Sierra Vista Mall","stop_id":"148317"},"type":"Feature"},{"geometry":{"coordinates":[-119.6931,36.82349],"type":"Point"},"properties":{"kind":"stop","name":"Music Ave & 5th St","stop_id":"148318"},"type":"Feature"},{"geometry":{"coordinates":[-119.69202,36.83732],"type":"Point"},"properties":{"kind":"stop","name":"Herndon Ave & Sunnyside Ave EB","stop_id":"148319"},"type":"Feature"},{"geometry":{"coordinates":[-119.69155,36.80875],"type":"Point"},"properties":{"kind":"stop","name":"Shaw Ave & Sierra Vista Parkway Westbound","stop_id":"148321"},"type":"Feature"},{"geometry":{"coordinates":[-119.69115,36.83362],"type":"Point"},"properties":{"kind":"stop","name":"Sunnyside Ave & Palo Alto Ave SB - Bicentennial Park","stop_id":"148322"},"type":"Feature"},{"geometry":{"coordinates":[-119.69108,36.82627],"type":"Point"},"properties":{"kind":"stop","name":"Sunnyside Ave & 3rd St","stop_id":"148323"},"type":"Feature"},{"geometry":{"coordinates":[-119.69107,36.81729],"type":"Point"},"properties":{"kind":"stop","name":"Sunnyside Ave & Jefferson Ave","stop_id":"148324"},"type":"Feature"},{"geometry":{"coordinates":[-119.69109,36.82279],"type":"Point"},"properties":{"kind":"stop","name":"Sunnyside Ave & Morris Ave SB","stop_id":"148325"},"type":"Feature"},{"geometry":{"coordinates":[-119.69089,36.8343],"type":"Point"},"properties":{"kind":"stop","name":"Sunnyside Ave at Clovis Adult School","stop_id":"148326"},"type":"Feature"},{"geometry":{"coordinates":[-119.69084,36.8162],"type":"Point"},"properties":{"kind":"stop","name":"Sunnyside Ave & Barstow Ave","stop_id":"148327"},"type":"Feature"},{"geometry":{"coordinates":[-119.69084,36.82789],"type":"Point"},"properties":{"kind":"stop","name":"Sunnyside Ave & 2nd St","stop_id":"148328"},"type":"Feature"},{"geometry":{"coordinates":[-119.6908,36.82234],"type":"Point"},"properties":{"kind":"stop","name":"Sunnyside Ave & Morris Ave NB","stop_id":"148329"},"type":"Feature"},{"geometry":{"coordinates":[-119.69086,36.82481],"type":"Point"},"properties":{"kind":"stop","name":"Sunnyside Ave & 4th St","stop_id":"148330"},"type":"Feature"},{"geometry":{"coordinates":[-119.69024,36.80845],"type":"Point"},"properties":{"kind":"stop","name":"Shaw Ave & Sierra Vista Parkway EB","stop_id":"148331"},"type":"Feature"},{"geometry":{"coordinates":[-119.68917,36.79407],"type":"Point"},"properties":{"kind":"stop","name":"Ashlan Ave & Bernadine Dr","stop_id":"148332"},"type":"Feature"},{"geometry":{"coordinates":[-119.68822,36.80844],"type":"Point"},"properties":{"kind":"stop","name":"Shaw Ave & Stanford Ave EB","stop_id":"148333"},"type":"Feature"},{"geometry":{"coordinates":[-119.68764,36.81569],"type":"Point"},"properties":{"kind":"stop","name":"Barstow Ave & Fordham Ave","stop_id":"148334"},"type":"Feature"},{"geometry":{"coordinates":[-119.68294,36.83517],"type":"Point"},"properties":{"kind":"stop","name":"Clovis Community Day Elementary School","stop_id":"148335"},"type":"Feature"},{"geometry":{"coordinates":[-119.68267,36.82312],"type":"Point"},"properties":{"kind":"stop","name":"Bullard Ave & Fowler Ave WB","stop_id":"148336"},"type":"Feature"},{"geometry":{"coordinates":[-119.68232,36.79528],"type":"Point"},"properties":{"kind":"stop","name":"Vons-Fowler Ave Southbound","stop_id":"148339"},"type":"Feature"},{"geometry":{"coordinates":[-119.68228,36.80041],"type":"Point"},"properties":{"kind":"stop","name":"Fowler Ave between Donner and Gettysburg","stop_id":"148340"},"type":"Feature"},{"geometry":{"coordinates":[-119.68227,36.80324],"type":"Point"},"properties":{"kind":"stop","name":"Fowler Ave & Rall Ave","stop_id":"148341"},"type":"Feature"},{"geometry":{"coordinates":[-119.68216,36.8079],"type":"Point"},"properties":{"kind":"stop","name":"Fowler Ave & Shaw Ave","stop_id":"148342"},"type":"Feature"},{"geometry":{"coordinates":[-119.68214,36.82599],"type":"Point"},"properties":{"kind":"stop","name":"Fowler Ave between Escalon and Gibson","stop_id":"148343"},"type":"Feature"},{"geometry":{"coordinates":[-119.68197,36.80232],"type":"Point"},"properties":{"kind":"stop","name":"Fowler Ave & Gettysburg Ave","stop_id":"148344"},"type":"Feature"},{"geometry":{"coordinates":[-119.68188,36.80601],"type":"Point"},"properties":{"kind":"stop","name":"Fowler Ave & Fairmont Ave","stop_id":"148345"},"type":"Feature"},{"geometry":{"coordinates":[-119.68156,36.81588],"type":"Point"},"properties":{"kind":"stop","name":"Barstow Ave & Fowler Ave WB","stop_id":"148346"},"type":"Feature"},{"geometry":{"coordinates":[-119.68144,36.83766],"type":"Point"},"properties":{"kind":"stop","name":"Herndon Ave & Fowler Ave WB - Windmill Marketplace","stop_id":"148347"},"type":"Feature"},{"geometry":{"coordinates":[-119.68117,36.80845],"type":"Point"},"properties":{"kind":"stop","name":"Shaw Ave & Fowler Ave EB","stop_id":"148348"},"type":"Feature"},{"geometry":{"coordinates":[-119.68101,36.80114],"type":"Point"},"properties":{"kind":"stop","name":"Gettysburg Ave & Fowler Ave","stop_id":"148349"},"type":"Feature"},{"geometry":{"coordinates":[-119.6809,36.81569],"type":"Point"},"properties":{"kind":"stop","name":"Barstow Ave & Fowler Ave EB","stop_id":"148350"},"type":"Feature"},{"geometry":{"coordinates":[-119.68082,36.80133],"type":"Point"},"properties":{"kind":"stop","name":"Gettysburg Ave & Whittier Ave","stop_id":"148351"},"type":"Feature"},{"geometry":{"coordinates":[-119.6781,36.83765],"type":"Point"},"properties":{"kind":"stop","name":"Herndon Ave at Kaiser Permanente Clovis","stop_id":"148352"},"type":"Feature"},{"geometry":{"coordinates":[-119.67652,36.80133],"type":"Point"},"properties":{"kind":"stop","name":"Gettysburg Ave & Burl Ave Westbound","stop_id":"148353"},"type":"Feature"},{"geometry":{"coordinates":[-119.67593,36.80111],"type":"Point"},"properties":{"kind":"stop","name":"Gettysburg Ave & Burl Ave Eastbound","stop_id":"148354"},"type":"Feature"},{"geometry":{"coordinates":[-119.6758,36.83758],"type":"Point"},"properties":{"kind":"stop","name":"Herndon Ave & Armstrong Ave WB","stop_id":"148355"},"type":"Feature"},{"geometry":{"coordinates":[-119.67534,36.81584],"type":"Point"},"properties":{"kind":"stop","name":"Barstow Ave & Cypress Ave WB","stop_id":"148356"},"type":"Feature"},{"geometry":{"coordinates":[-119.67478,36.81565],"type":"Point"},"properties":{"kind":"stop","name":"Barstow Ave & Cypress Ave EB","stop_id":"148357"},"type":"Feature"},{"geometry":{"coordinates":[-119.67444,36.82289],"type":"Point"},"properties":{"kind":"stop","name":"E Bullard Ave between Burl and Armstrong","stop_id":"148358"},"type":"Feature"},{"geometry":{"coordinates":[-119.67392,36.80872],"type":"Point"},"properties":{"kind":"stop","name":"Shaw Ave & Armstrong Ave WB","stop_id":"148359"},"type":"Feature"},{"geometry":{"coordinates":[-119.67313,36.81046],"type":"Point"},"properties":{"kind":"stop","name":"Armstrong Ave & Keats Ave","stop_id":"148360"},"type":"Feature"},{"geometry":{"coordinates":[-119.67287,36.80921],"type":"Point"},"properties":{"kind":"stop","name":"Armstrong Ave & Shaw Ave","stop_id":"148361"},"type":"Feature"},{"geometry":{"coordinates":[-119.67285,36.81272],"type":"Point"},"properties":{"kind":"stop","name":"Armstrong Ave & Beverly Ave","stop_id":"148362"},"type":"Feature"},{"geometry":{"coordinates":[-119.67282,36.82498],"type":"Point"},"properties":{"kind":"stop","name":"Armstrong Ave & Gibson Ave Northbound","stop_id":"148363"},"type":"Feature"},{"geometry":{"coordinates":[-119.67182,36.83015],"type":"Point"},"properties":{"kind":"stop","name":"Sierra Ave & N Armstrong Ave","stop_id":"148364"},"type":"Feature"},{"geometry":{"coordinates":[-119.67011,36.80107],"type":"Point"},"properties":{"kind":"stop","name":"Gettysburg Ave & Holly Ave","stop_id":"148365"},"type":"Feature"},{"geometry":{"coordinates":[-119.66925,36.80126],"type":"Point"},"properties":{"kind":"stop","name":"Gettysburg Ave & Joshua Ave","stop_id":"148366"},"type":"Feature"},{"geometry":{"coordinates":[-119.66668,36.80106],"type":"Point"},"properties":{"kind":"stop","name":"Gettysburg Ave & Magnolia Ave Eastbound","stop_id":"148368"},"type":"Feature"},{"geometry":{"coordinates":[-119.6665,36.80125],"type":"Point"},"properties":{"kind":"stop","name":"Gettysburg Ave & Temperance Ave","stop_id":"148369"},"type":"Feature"},{"geometry":{"coordinates":[-119.66531,36.84465],"type":"Point"},"properties":{"kind":"stop","name":"Temperance Ave & Alluvial Ave SB - Clovis Fire Station 5","stop_id":"148370"},"type":"Feature"},{"geometry":{"coordinates":[-119.6641,36.79823],"type":"Point"},"properties":{"kind":"stop","name":"Temperance Ave & Ashcroft Ave","stop_id":"148371"},"type":"Feature"},{"geometry":{"coordinates":[-119.66409,36.80053],"type":"Point"},"properties":{"kind":"stop","name":"Temperance Ave & Gettysburg Ave SB","stop_id":"148372"},"type":"Feature"},{"geometry":{"coordinates":[-119.66384,36.83987],"type":"Point"},"properties":{"kind":"stop","name":"Temperance Ave & Fir Ave NB - Clovis Community Medical Center","stop_id":"148373"},"type":"Feature"},{"geometry":{"coordinates":[-119.66381,36.83625],"type":"Point"},"properties":{"kind":"stop","name":"Temperance Ave & Herndon Ave NB (Transfer)","stop_id":"148374"},"type":"Feature"},{"geometry":{"coordinates":[-119.66376,36.83308],"type":"Point"},"properties":{"kind":"stop","name":"Temperance Ave at Coventry Cove Apartments","stop_id":"148375"},"type":"Feature"},{"geometry":{"coordinates":[-119.66285,36.79376],"type":"Point"},"properties":{"kind":"stop","name":"Ashlan Ave & Temperance Ave","stop_id":"148376"},"type":"Feature"},{"geometry":{"coordinates":[-119.66091,36.83919],"type":"Point"},"properties":{"kind":"stop","name":"Clovis Community Hospital","stop_id":"148377"},"type":"Feature"},{"geometry":{"coordinates":[-119.66029,36.79398],"type":"Point"},"properties":{"kind":"stop","name":"Ashlan Ave & Carson Ave","stop_id":"148378"},"type":"Feature"},{"geometry":{"coordinates":[-119.65547,36.79375],"type":"Point"},"properties":{"kind":"stop","name":"Ashlan Ave & Locan Ave","stop_id":"148379"},"type":"Feature"},{"geometry":{"coordinates":[-119.64418,36.79995],"type":"Point"},"properties":{"kind":"stop","name":"Donner Ave & DeWolf Ave - Reyburn Intermediate School","stop_id":"148380"},"type":"Feature"},{"geometry":{"coordinates":[-119.63923,36.79995],"type":"Point"},"properties":{"kind":"stop","name":"Donner Ave & Leonard Ave - Clovis East High School","stop_id":"148381"},"type":"Feature"},{"geometry":{"coordinates":[-119.71796,36.7869],"type":"Point"},"properties":{"kind":"stop","name":"Peach Ave & Dakota Ave NB - Department of Social Services (Transfer)","stop_id":"148382"},"type":"Feature"},{"geometry":{"coordinates":[-119.70923,36.7976],"type":"Point"},"properties":{"kind":"stop","name":"Minnewawa - National","stop_id":"148383"},"type":"Feature"},{"geometry":{"coordinates":[-119.72945,36.84529],"type":"Point"},"properties":{"kind":"stop","name":"Willow Ave & Alluvial Ave NB","stop_id":"154324"},"type":"Feature"},{"geometry":{"coordinates":[-119.63691,36.79408],"type":"Point"},"properties":{"kind":"stop","name":"Pump House Park","stop_id":"155290"},"type":"Feature"},{"geometry":{"coordinates":[-119.69379,36.87099],"type":"Point"},"properties":{"kind":"stop","name":"Dry Creek Trailhead","stop_id":"155292"},"type":"Feature"},{"geometry":{"coordinates":[-119.69914,36.82598],"type":"Point"},"properties":{"kind":"stop","name":"Cottage Home","stop_id":"155293"},"type":"Feature"},{"geometry":{"coordinates":[-119.72728,36.8384],"type":"Point"},"properties":{"kind":"stop","name":"The Mad Duck","stop_id":"157201"},"type":"Feature"},{"geometry":{"coordinates":[-119.70453,36.84075],"type":"Point"},"properties":{"kind":"stop","name":"Crow & Wolf Brewing Co. Taproom","stop_id":"157202"},"type":"Feature"},{"geometry":{"coordinates":[-119.66342,36.84512],"type":"Point"},"properties":{"kind":"stop","name":"Riley's Brew Pub","stop_id":"157203"},"type":"Feature"},{"geometry":{"coordinates":[-119.69161,36.82404],"type":"Point"},"properties":{"kind":"stop","name":"Bullard Ave & Sunnyside Ave WB","stop_id":"172057"},"type":"Feature"},{"geometry":{"coordinates":[-119.68265,36.82289],"type":"Point"},"properties":{"kind":"stop","name":"Bullard Ave & Fowler Ave EB","stop_id":"172058"},"type":"Feature"},{"geometry":{"coordinates":[-119.69889,36.82706],"type":"Point"},"properties":{"kind":"stop","name":"Landmark Square","stop_id":"172059"},"type":"Feature"},{"geometry":{"coordinates":[-119.70907,36.82107],"type":"Point"},"properties":{"kind":"stop","name":"SB Minnewawa & Eighth","stop_id":"172060"},"type":"Feature"},{"geometry":{"coordinates":[-119.70885,36.82106],"type":"Point"},"properties":{"kind":"stop","name":"NB Minnewawa & Eighth","stop_id":"172061"},"type":"Feature"},{"geometry":{"coordinates":[-119.69323,36.80686],"type":"Point"},"properties":{"kind":"stop","name":"Sierra Vista Mall","stop_id":"195187"},"type":"Feature"},{"geometry":{"coordinates":[-119.72936,36.83898],"type":"Point"},"properties":{"kind":"stop","name":"Willow Ave & Herndon Ave NB - Clovis Commons (Transfer)","stop_id":"196422"},"type":"Feature"},{"geometry":{"coordinates":[-119.72945,36.84127],"type":"Point"},"properties":{"kind":"stop","name":"NB Willow & Spruce (Transfer)","stop_id":"196423"},"type":"Feature"},{"geometry":{"coordinates":[-119.72649,36.84475],"type":"Point"},"properties":{"kind":"stop","name":"Alluvial Ave at Willow Creek Healthcare","stop_id":"196424"},"type":"Feature"},{"geometry":{"coordinates":[-119.72034,36.84453],"type":"Point"},"properties":{"kind":"stop","name":"Peach Ave & Alluvial Ave SB","stop_id":"196425"},"type":"Feature"},{"geometry":{"coordinates":[-119.72038,36.83904],"type":"Point"},"properties":{"kind":"stop","name":"Peach Ave & Herndon Ave SB - Clovis Chrysler Dodge Jeep RAM","stop_id":"196426"},"type":"Feature"},{"geometry":{"coordinates":[-119.68368,36.83734],"type":"Point"},"properties":{"kind":"stop","name":"Herndon Ave & Fowler Ave EB","stop_id":"196427"},"type":"Feature"},{"geometry":{"coordinates":[-119.67446,36.83727],"type":"Point"},"properties":{"kind":"stop","name":"Herndon Ave & Armstrong Ave EB","stop_id":"196428"},"type":"Feature"},{"geometry":{"coordinates":[-119.66942,36.83721],"type":"Point"},"properties":{"kind":"stop","name":"Herndon Ave & McKelvy Ave EB","stop_id":"196429"},"type":"Feature"},{"geometry":{"coordinates":[-119.66705,36.83746],"type":"Point"},"properties":{"kind":"stop","name":"Herndon Ave & Magnolia Ave WB","stop_id":"196430"},"type":"Feature"},{"geometry":{"coordinates":[-119.6757,36.83757],"type":"Point"},"properties":{"kind":"stop","name":"Herndon Ave & Armstrong Ave WB","stop_id":"196433"},"type":"Feature"},{"geometry":{"coordinates":[-119.68503,36.83766],"type":"Point"},"properties":{"kind":"stop","name":"Herndon Ave & Fowler Ave WB - Buchanan Crossroads North","stop_id":"196434"},"type":"Feature"},{"geometry":{"coordinates":[-119.68861,36.83766],"type":"Point"},"properties":{"kind":"stop","name":"Herndon Ave & Sunnyside Ave WB - Goodguys Tire","stop_id":"196435"},"type":"Feature"},{"geometry":{"coordinates":[-119.73403,36.81184],"type":"Point"},"properties":{"kind":"stop","name":"Campus Pointe","stop_id":"196436"},"type":"Feature"},{"geometry":{"coordinates":[-119.72954,36.80839],"type":"Point"},"properties":{"kind":"stop","name":"Shaw Ave & Winery Ave","stop_id":"196437"},"type":"Feature"},{"geometry":{"coordinates":[-119.72714,36.81382],"type":"Point"},"properties":{"kind":"stop","name":"Willow Ave & SR 168 NB","stop_id":"196438"},"type":"Feature"},{"geometry":{"coordinates":[-119.69415,36.82389],"type":"Point"},"properties":{"kind":"stop","name":"5th St & Music Ave EB - Clark Intermediate School","stop_id":"196439"},"type":"Feature"},{"geometry":{"coordinates":[-119.66373,36.81593],"type":"Point"},"properties":{"kind":"stop","name":"Temperance Ave & Barstow Ave NB (Transfer)","stop_id":"196440"},"type":"Feature"},{"geometry":{"coordinates":[-119.66367,36.82222],"type":"Point"},"properties":{"kind":"stop","name":"Temperance Ave & Bullard Ave NB (Transfer)","stop_id":"196441"},"type":"Feature"},{"geometry":{"coordinates":[-119.67308,36.82276],"type":"Point"},"properties":{"kind":"stop","name":"Armstrong Ave & Bullard Ave SB","stop_id":"196442"},"type":"Feature"},{"geometry":{"coordinates":[-119.68184,36.82145],"type":"Point"},"properties":{"kind":"stop","name":"Fowler Ave & Bullard Ave NB","stop_id":"196443"},"type":"Feature"},{"geometry":{"coordinates":[-119.72757,36.81546],"type":"Point"},"properties":{"kind":"stop","name":"Willow Ave & Barstow Ave SB","stop_id":"196444"},"type":"Feature"},{"geometry":{"coordinates":[-119.73718,36.8084],"type":"Point"},"properties":{"kind":"stop","name":"Shaw Ave & Chestnut Ave EB","stop_id":"196445"},"type":"Feature"},{"geometry":{"coordinates":[-119.7259,36.80837],"type":"Point"},"properties":{"kind":"stop","name":"Shaw Ave & Willow Ave EB","stop_id":"196446"},"type":"Feature"},{"geometry":{"coordinates":[-119.72166,36.80833],"type":"Point"},"properties":{"kind":"stop","name":"Shaw Ave & Sylmar Ave EB","stop_id":"196447"},"type":"Feature"},{"geometry":{"coordinates":[-119.71755,36.80835],"type":"Point"},"properties":{"kind":"stop","name":"Shaw Ave & Peach Ave EB","stop_id":"196448"},"type":"Feature"},{"geometry":{"coordinates":[-119.70523,36.80841],"type":"Point"},"properties":{"kind":"stop","name":"Shaw Ave & Dewitt Ave EB (Transfer)","stop_id":"196449"},"type":"Feature"},{"geometry":{"coordinates":[-119.69949,36.80834],"type":"Point"},"properties":{"kind":"stop","name":"Shaw Ave & Clovis Ave EB (Transfer)","stop_id":"196450"},"type":"Feature"},{"geometry":{"coordinates":[-119.6634,36.80834],"type":"Point"},"properties":{"kind":"stop","name":"Shaw Ave & Temperance Ave EB (Transfer)","stop_id":"196451"},"type":"Feature"},{"geometry":{"coordinates":[-119.66441,36.80865],"type":"Point"},"properties":{"kind":"stop","name":"Shaw Ave & Temperance Ave WB (Transfer)","stop_id":"196452"},"type":"Feature"},{"geometry":{"coordinates":[-119.68253,36.80876],"type":"Point"},"properties":{"kind":"stop","name":"Shaw Ave & Fowler Ave WB","stop_id":"196453"},"type":"Feature"},{"geometry":{"coordinates":[-119.70671,36.80862],"type":"Point"},"properties":{"kind":"stop","name":"Shaw Ave & Harvard Ave WB","stop_id":"196454"},"type":"Feature"},{"geometry":{"coordinates":[-119.70988,36.80864],"type":"Point"},"properties":{"kind":"stop","name":"Shaw Ave & Minnewawa Ave WB","stop_id":"196455"},"type":"Feature"},{"geometry":{"coordinates":[-119.71447,36.80866],"type":"Point"},"properties":{"kind":"stop","name":"Shaw Ave & Villa Ave WB","stop_id":"196456"},"type":"Feature"},{"geometry":{"coordinates":[-119.71701,36.80878],"type":"Point"},"properties":{"kind":"stop","name":"Shaw Ave & Peach Ave WB - Walmart","stop_id":"196457"},"type":"Feature"},{"geometry":{"coordinates":[-119.7243,36.80863],"type":"Point"},"properties":{"kind":"stop","name":"Shaw Ave & Helm Ave WB","stop_id":"196458"},"type":"Feature"},{"geometry":{"coordinates":[-119.73753,36.80877],"type":"Point"},"properties":{"kind":"stop","name":"Shaw Ave & Chestnut Ave WB","stop_id":"196459"},"type":"Feature"},{"geometry":{"coordinates":[-119.71806,36.7929],"type":"Point"},"properties":{"kind":"stop","name":"Peach Ave & Ashlan Ave NB - WinCo (Transfer)","stop_id":"196460"},"type":"Feature"},{"geometry":{"coordinates":[-119.71708,36.7939],"type":"Point"},"properties":{"kind":"stop","name":"Ashlan Ave & Peach Ave EB","stop_id":"196461"},"type":"Feature"},{"geometry":{"coordinates":[-119.71397,36.79379],"type":"Point"},"properties":{"kind":"stop","name":"Ashlan Ave & Villa Ave EB (Transfer)","stop_id":"196462"},"type":"Feature"},{"geometry":{"coordinates":[-119.71031,36.79422],"type":"Point"},"properties":{"kind":"stop","name":"Ashlan Ave & Minnewawa Ave EB","stop_id":"196463"},"type":"Feature"},{"geometry":{"coordinates":[-119.70642,36.79399],"type":"Point"},"properties":{"kind":"stop","name":"Ashlan Ave & Buckingham Way EB","stop_id":"196464"},"type":"Feature"},{"geometry":{"coordinates":[-119.70144,36.7931],"type":"Point"},"properties":{"kind":"stop","name":"Ashlan Ave & Clovis Ave EB","stop_id":"196465"},"type":"Feature"},{"geometry":{"coordinates":[-119.67224,36.79404],"type":"Point"},"properties":{"kind":"stop","name":"Ashlan Ave & Armstrong Ave WB (Transfer)","stop_id":"196466"},"type":"Feature"},{"geometry":{"coordinates":[-119.70065,36.79332],"type":"Point"},"properties":{"kind":"stop","name":"Ashlan Ave & Clovis Ave WB (Transfer)","stop_id":"196467"},"type":"Feature"},{"geometry":{"coordinates":[-119.70303,36.79327],"type":"Point"},"properties":{"kind":"stop","name":"Ashlan Ave & Ralph Ln","stop_id":"196468"},"type":"Feature"},{"geometry":{"coordinates":[-119.70646,36.79427],"type":"Point"},"properties":{"kind":"stop","name":"Ashlan Ave & Buckingham Way WB","stop_id":"196469"},"type":"Feature"},{"geometry":{"coordinates":[-119.7336,36.88854],"type":"Point"},"properties":{"kind":"stop","name":"International Ave & Willow Ave - Clovis Community College","stop_id":"196470"},"type":"Feature"},{"geometry":{"coordinates":[-119.73009,36.88091],"type":"Point"},"properties":{"kind":"stop","name":"Willow Ave & Behymer Ave SB","stop_id":"196471"},"type":"Feature"},{"geometry":{"coordinates":[-119.72998,36.85173],"type":"Point"},"properties":{"kind":"stop","name":"Willow Ave & Nees Ave SB","stop_id":"196472"},"type":"Feature"},{"geometry":{"coordinates":[-119.72995,36.84691],"type":"Point"},"properties":{"kind":"stop","name":"Willow Ave & Alluvial Ave SB","stop_id":"196473"},"type":"Feature"},{"geometry":{"coordinates":[-119.7298,36.83722],"type":"Point"},"properties":{"kind":"stop","name":"Willow Ave & Herndon Ave SB (Transfer)","stop_id":"196474"},"type":"Feature"},{"geometry":{"coordinates":[-119.72917,36.82275],"type":"Point"},"properties":{"kind":"stop","name":"Willow Ave & Bullard Ave SB (Transfer)","stop_id":"196475"},"type":"Feature"},{"geometry":{"coordinates":[-119.72737,36.80099],"type":"Point"},"properties":{"kind":"stop","name":"Willow Ave & Gettysburg Ave SB","stop_id":"196476"},"type":"Feature"},{"geometry":{"coordinates":[-119.72697,36.79404],"type":"Point"},"properties":{"kind":"stop","name":"Ashlan Ave & Willow Ave EB","stop_id":"196477"},"type":"Feature"},{"geometry":{"coordinates":[-119.7224,36.79399],"type":"Point"},"properties":{"kind":"stop","name":"Ashlan Ave & Helm Ave EB","stop_id":"196478"},"type":"Feature"},{"geometry":{"coordinates":[-119.72292,36.7942],"type":"Point"},"properties":{"kind":"stop","name":"Ashlan Ave & Helm Ave WB","stop_id":"196479"},"type":"Feature"},{"geometry":{"coordinates":[-119.72679,36.79426],"type":"Point"},"properties":{"kind":"stop","name":"Ashlan Ave & Willow Ave WB","stop_id":"196480"},"type":"Feature"},{"geometry":{"coordinates":[-119.72724,36.79733],"type":"Point"},"properties":{"kind":"stop","name":"Willow Ave & Holland Ave NB - Butterfly Gardens","stop_id":"196481"},"type":"Feature"},{"geometry":{"coordinates":[-119.72707,36.80146],"type":"Point"},"properties":{"kind":"stop","name":"Willow Ave & Gettysburg Ave NB","stop_id":"196482"},"type":"Feature"},{"geometry":{"coordinates":[-119.72707,36.80472],"type":"Point"},"properties":{"kind":"stop","name":"Willow Ave & Santa Ana Ave NB","stop_id":"196483"},"type":"Feature"},{"geometry":{"coordinates":[-119.72955,36.85258],"type":"Point"},"properties":{"kind":"stop","name":"Willow Ave & Nees Ave NB","stop_id":"196484"},"type":"Feature"},{"geometry":{"coordinates":[-119.7387,36.88173],"type":"Point"},"properties":{"kind":"stop","name":"Chestnut Ave & Behymer Ave","stop_id":"196485"},"type":"Feature"},{"geometry":{"coordinates":[-119.7001,36.79389],"type":"Point"},"properties":{"kind":"stop","name":"Clovis Ave & Ashlan Ave NB (Transfer)","stop_id":"196486"},"type":"Feature"},{"geometry":{"coordinates":[-119.70016,36.80526],"type":"Point"},"properties":{"kind":"stop","name":"Clovis Ave & Santa Ana Ave NB","stop_id":"196487"},"type":"Feature"},{"geometry":{"coordinates":[-119.70201,36.80928],"type":"Point"},"properties":{"kind":"stop","name":"Pollasky Ave & Shaw Ave WB (Transfer)","stop_id":"196488"},"type":"Feature"},{"geometry":{"coordinates":[-119.70196,36.81516],"type":"Point"},"properties":{"kind":"stop","name":"Pollasky Ave & Barstow Ave NB","stop_id":"196489"},"type":"Feature"},{"geometry":{"coordinates":[-119.70195,36.82029],"type":"Point"},"properties":{"kind":"stop","name":"Pollasky Ave & 8th St - Bank of America","stop_id":"196490"},"type":"Feature"},{"geometry":{"coordinates":[-119.69987,36.83088],"type":"Point"},"properties":{"kind":"stop","name":"Clovis Ave & Sierra Ave NB","stop_id":"196492"},"type":"Feature"},{"geometry":{"coordinates":[-119.69977,36.83858],"type":"Point"},"properties":{"kind":"stop","name":"Clovis Ave & Herndon Ave NB","stop_id":"196493"},"type":"Feature"},{"geometry":{"coordinates":[-119.7016,36.84507],"type":"Point"},"properties":{"kind":"stop","name":"Clovis Ave & Alluvial Ave NB (Transfer)","stop_id":"196494"},"type":"Feature"},{"geometry":{"coordinates":[-119.70466,36.85223],"type":"Point"},"properties":{"kind":"stop","name":"Nees Ave & Clovis Ave WB (Transfer)","stop_id":"196495"},"type":"Feature"},{"geometry":{"coordinates":[-119.71195,36.85218],"type":"Point"},"properties":{"kind":"stop","name":"Nees Ave & Minnewawa Ave - Buchanan Stadium","stop_id":"196496"},"type":"Feature"},{"geometry":{"coordinates":[-119.70396,36.85156],"type":"Point"},"properties":{"kind":"stop","name":"Clovis Ave & Nees Ave SB (Transfer)","stop_id":"196497"},"type":"Feature"},{"geometry":{"coordinates":[-119.70215,36.81976],"type":"Point"},"properties":{"kind":"stop","name":"Pollasky Ave & 9th St SB","stop_id":"196498"},"type":"Feature"},{"geometry":{"coordinates":[-119.70217,36.81413],"type":"Point"},"properties":{"kind":"stop","name":"Pollasky Ave & Mitchell Ave SB","stop_id":"196499"},"type":"Feature"},{"geometry":{"coordinates":[-119.70466,36.80736],"type":"Point"},"properties":{"kind":"stop","name":"Dewitt Ave & Shaw Ave SB - PetSmart","stop_id":"196500"},"type":"Feature"},{"geometry":{"coordinates":[-119.70469,36.80521],"type":"Point"},"properties":{"kind":"stop","name":"Dewitt Ave & Santa Ana Ave SB - Costco","stop_id":"196501"},"type":"Feature"},{"geometry":{"coordinates":[-119.6932,36.85159],"type":"Point"},"properties":{"kind":"stop","name":"Sunnyside Ave & Nees Ave SB","stop_id":"196502"},"type":"Feature"},{"geometry":{"coordinates":[-119.69312,36.84503],"type":"Point"},"properties":{"kind":"stop","name":"Sunnyside Ave & Alluvial Ave SB","stop_id":"196503"},"type":"Feature"},{"geometry":{"coordinates":[-119.69116,36.83709],"type":"Point"},"properties":{"kind":"stop","name":"Sunnyside Ave & Herndon Ave SB - AutoZone (Transfer)","stop_id":"196504"},"type":"Feature"},{"geometry":{"coordinates":[-119.6926,36.81404],"type":"Point"},"properties":{"kind":"stop","name":"Hoblitt Ave & Sunnyside Ave","stop_id":"196505"},"type":"Feature"},{"geometry":{"coordinates":[-119.69559,36.8132],"type":"Point"},"properties":{"kind":"stop","name":"Cole Ave & Hoblitt Ave","stop_id":"196506"},"type":"Feature"},{"geometry":{"coordinates":[-119.69563,36.81058],"type":"Point"},"properties":{"kind":"stop","name":"Cole Ave & Scott Ave","stop_id":"196507"},"type":"Feature"},{"geometry":{"coordinates":[-119.69075,36.81003],"type":"Point"},"properties":{"kind":"stop","name":"Sunnyside Ave & Shaw Ave NB","stop_id":"196508"},"type":"Feature"},{"geometry":{"coordinates":[-119.69085,36.83781],"type":"Point"},"properties":{"kind":"stop","name":"Sunnyside Ave & Herndon Ave NB (Transfer)","stop_id":"196509"},"type":"Feature"},{"geometry":{"coordinates":[-119.70345,36.85195],"type":"Point"},"properties":{"kind":"stop","name":"Nees Ave & Clovis Ave EB (Transfer)","stop_id":"196510"},"type":"Feature"},{"geometry":{"coordinates":[-119.69155,36.80875],"type":"Point"},"properties":{"kind":"stop","name":"Shaw Ave & Sunnyside Ave WB (Transfer)","stop_id":"196511"},"type":"Feature"},{"geometry":{"coordinates":[-119.72804,36.80867],"type":"Point"},"properties":{"kind":"stop","name":"Shaw Ave & Willow Ave WB (Transfer)","stop_id":"196516"},"type":"Feature"},{"geometry":{"coordinates":[-119.69476,36.80839],"type":"Point"},"properties":{"kind":"stop","name":"Shaw Ave & Cole Ave EB - IHOP (Transfer)","stop_id":"196529"},"type":"Feature"},{"geometry":{"coordinates":[-119.74116,36.80876],"type":"Point"},"properties":{"kind":"stop","name":"Shaw Ave & Woodrow Ave WB","stop_id":"198548"},"type":"Feature"},{"geometry":{"coordinates":[-119.70441,36.85216],"type":"Point"},"properties":{"kind":"stop","name":"Nees Ave & N Clovis Ave (Transfer)","stop_id":"208123"},"type":"Feature"},{"geometry":{"coordinates":[-119.6822,36.82145],"type":"Point"},"properties":{"kind":"stop","name":"Fowler Ave & Bullard Ave SB","stop_id":"209264"},"type":"Feature"},{"geometry":{"coordinates":[-119.72484,36.81585],"type":"Point"},"properties":{"kind":"stop","name":"Barstow Ave & Willow Ave WB","stop_id":"209267"},"type":"Feature"},{"geometry":{"coordinates":[-119.72928,36.82705],"type":"Point"},"properties":{"kind":"stop","name":"Willow Ave & Escalon Ave","stop_id":"209268"},"type":"Feature"},{"geometry":{"coordinates":[-119.73788,36.88846],"type":"Point"},"properties":{"kind":"stop","name":"International Ave & Chestnut Ave","stop_id":"209271"},"type":"Feature"},{"geometry":{"coordinates":[-119.70016,36.83644],"type":"Point"},"properties":{"kind":"stop","name":"Clovis Ave & Herndon Ave SB","stop_id":"209272"},"type":"Feature"},{"geometry":{"coordinates":[-119.71394,36.79388],"type":"Point"},"properties":{"kind":"stop","name":"W Ashlan Ave & Villa Ave EB (Transfer)","stop_id":"209275"},"type":"Feature"},{"geometry":{"coordinates":[-119.70345,36.85195],"type":"Point"},"properties":{"kind":"stop","name":"Nees Ave & Clovis Ave EB (Transfer)","stop_id":"209278"},"type":"Feature"},{"geometry":{"coordinates":[-119.71319,36.85929],"type":"Point"},"properties":{"kind":"stop","name":"W Teague Ave at Buchanan High School","stop_id":"209279"},"type":"Feature"},{"geometry":{"coordinates":[-119.66373,36.81635],"type":"Point"},"properties":{"kind":"stop","name":"Temperance Ave & Barstow Ave NB (Transfer)","stop_id":"209280"},"type":"Feature"},{"geometry":{"coordinates":[-119.66404,36.81473],"type":"Point"},"properties":{"kind":"stop","name":"Temperance Ave & Barstow Ave SB (Transfer)","stop_id":"209281"},"type":"Feature"},{"geometry":{"coordinates":[-119.73126,36.88161],"type":"Point"},"properties":{"kind":"stop","name":"Behymer Ave & Willow Ave","stop_id":"209283"},"type":"Feature"},{"geometry":{"coordinates":[-119.69803,36.82535],"type":"Point"},"properties":{"kind":"stop","name":"4th St & Osmun Ave WB","stop_id":"209291"},"type":"Feature"},{"geometry":{"coordinates":[-119.69796,36.82518],"type":"Point"},"properties":{"kind":"stop","name":"4th St & Osmun Ave EB - Clovis Community Center","stop_id":"209292"},"type":"Feature"},{"geometry":{"coordinates":[-119.66876,36.80108],"type":"Point"},"properties":{"kind":"stop","name":"Gettysburg Ave & McKelvy Ave","stop_id":"211426"},"type":"Feature"},{"geometry":{"coordinates":[-119.66381,36.80158],"type":"Point"},"properties":{"kind":"stop","name":"Temperance Ave & Gettysburg Ave NB","stop_id":"211427"},"type":"Feature"},{"geometry":{"coordinates":[-119.66374,36.80939],"type":"Point"},"properties":{"kind":"stop","name":"Temperance Ave & Shaw Ave NB (Transfer)","stop_id":"211428"},"type":"Feature"},{"geometry":{"coordinates":[-119.66422,36.83683],"type":"Point"},"properties":{"kind":"stop","name":"Temperance Ave & Herndon Ave SB (Transfer)","stop_id":"211429"},"type":"Feature"},{"geometry":{"coordinates":[-119.66402,36.82969],"type":"Point"},"properties":{"kind":"stop","name":"Temperance Ave & Sierra Ave SB","stop_id":"211430"},"type":"Feature"},{"geometry":{"coordinates":[-119.66398,36.82224],"type":"Point"},"properties":{"kind":"stop","name":"Temperance Ave & Bullard Ave SB (Transfer)","stop_id":"211431"},"type":"Feature"},{"geometry":{"coordinates":[-119.66409,36.80787],"type":"Point"},"properties":{"kind":"stop","name":"Temperance Ave & Shaw Ave SB (Transfer)","stop_id":"211432"},"type":"Feature"}],"type":"FeatureCollection"}
