{"features":[{"geometry":{"coordinates":[[-70.25396,43.67116],[-70.25521,43.6723],[-70.25492,43.67248],[-70.24523,43.66948],[-70.24175,43.66728],[-70.24112,43.6665],[-70.24102,43.66593],[-70.2432,43.66418],[-70.24711,43.66653],[-70.25395,43.66085],[-70.25559,43.6597],[-70.25723,43.65893],[-70.26087,43.65621],[-70.26299,43.65411],[-70.26351,43.65381],[-70.2657,43.65322],[-70.26889,43.65299],[-70.27108,43.65343],[-70.27371,43.65455],[-70.27503,43.65487],[-70.27576,43.65479],[-70.27955,43.65348],[-70.27816,43.64594],[-70.27781,43.64547],[-70.27704,43.6452],[-70.27765,43.64431],[-70.28074,43.64478],[-70.28115,43.64523],[-70.28177,43.64655],[-70.28257,43.64756],[-70.28349,43.64835],[-70.28452,43.6511],[-70.28575,43.65225],[-70.28819,43.65367],[-70.28869,43.65426],[-70.28972,43.65416],[-70.29136,43.65451],[-70.29178,43.65402],[-70.2922,43.65295],[-70.29183,43.65211],[-70.29125,43.65201],[-70.29071,43.65244],[-70.29033,43.6525],[-70.28982,43.6523],[-70.28959,43.6521],[-70.29011,43.6513]],"type":"LineString"},"properties":{"color":"#1F497D","color_name":"teal","kind":"route","label":"1","long":"Congress Street","route_id":"1","text_color":"#FFFFFF","type_label":"Bus"},"type":"Feature"},{"geometry":{"coordinates":[[-70.25967,43.65846],[-70.26109,43.65949],[-70.26252,43.65866],[-70.26271,43.65835],[-70.26617,43.65772],[-70.26741,43.65918],[-70.26729,43.65923],[-70.26926,43.66131],[-70.27253,43.66361],[-70.28417,43.67068],[-70.28445,43.67099],[-70.28468,43.67187],[-70.28546,43.67345],[-70.28894,43.67969],[-70.28894,43.67997],[-70.29151,43.68474],[-70.29385,43.68864],[-70.29845,43.69096],[-70.30132,43.69348],[-70.3038,43.69523],[-70.30755,43.69733],[-70.30973,43.69836],[-70.31158,43.69885],[-70.31985,43.70027],[-70.32284,43.70184],[-70.32537,43.70392],[-70.32591,43.70367],[-70.32671,43.70288],[-70.32789,43.70071],[-70.3292,43.69973],[-70.3369,43.69674],[-70.33795,43.69666],[-70.33927,43.697],[-70.33892,43.69742],[-70.33855,43.69922],[-70.34102,43.70246],[-70.34074,43.70392],[-70.34093,43.70489],[-70.3406,43.70569],[-70.3385,43.7077],[-70.33769,43.70873]],"type":"LineString"},"properties":{"color":"#FFC000","color_name":"yellow","kind":"route","label":"2","long":"Riverton","route_id":"2","text_color":"#000000","type_label":"Bus"},"type":"Feature"},{"geometry":{"coordinates":[[-70.3326,43.63286],[-70.33124,43.63233],[-70.3321,43.63116],[-70.3312,43.63077],[-70.33,43.63217],[-70.32988,43.63256],[-70.33022,43.63312],[-70.33132,43.63364],[-70.33149,43.63397],[-70.33079,43.63479],[-70.32938,43.63405],[-70.32881,43.63471],[-70.32965,43.63511],[-70.3301,43.6346],[-70.33068,43.63488],[-70.32976,43.6359],[-70.33364,43.6369],[-70.33652,43.63732],[-70.33903,43.63832],[-70.34027,43.63848],[-70.34271,43.63783],[-70.34515,43.63654],[-70.34351,43.63562],[-70.34337,43.63518],[-70.34356,43.63494],[-70.34538,43.63394],[-70.34581,43.63419],[-70.34682,43.63342],[-70.34899,43.63248],[-70.34932,43.63374],[-70.35297,43.64065],[-70.35785,43.6505],[-70.35792,43.65066],[-70.35774,43.65064],[-70.35792,43.65066],[-70.3596,43.65317],[-70.36018,43.65581],[-70.36118,43.6571],[-70.36169,43.6581],[-70.36183,43.66004],[-70.3602,43.66214],[-70.35878,43.66601],[-70.36087,43.67118],[-70.36319,43.67643],[-70.36483,43.6764],[-70.36776,43.67689],[-70.36711,43.67832],[-70.36762,43.67873],[-70.36407,43.68037],[-70.36373,43.67993],[-70.35997,43.68138],[-70.36014,43.68188],[-70.36161,43.68354],[-70.36428,43.68514],[-70.36241,43.68684],[-70.36091,43.68858],[-70.35908,43.69002],[-70.35888,43.69098],[-70.35899,43.69262],[-70.35774,43.69515],[-70.35453,43.69492],[-70.35094,43.69524],[-70.3487,43.69521],[-70.34031,43.69705],[-70.33927,43.697],[-70.33795,43.69666],[-70.33676,43.69672],[-70.33372,43.69804],[-70.33166,43.69863],[-70.32892,43.69987],[-70.3277,43.70094],[-70.32654,43.70309],[-70.32547,43.70386],[-70.32284,43.70184],[-70.31971,43.70013],[-70.31699,43.69982],[-70.3168,43.70048],[-70.31689,43.70103],[-70.31725,43.70138],[-70.31967,43.70225],[-70.31968,43.70208]],"type":"LineString"},"properties":{"color":"#FFFFFF","color_name":"white","kind":"route","label":"3","long":"Route 3","route_id":"3","text_color":"#000000","type_label":"Bus"},"type":"Feature"},{"geometry":{"coordinates":[[-70.38598,43.65731],[-70.3864,43.65658],[-70.3862,43.65636],[-70.38455,43.6574],[-70.38057,43.66121],[-70.37639,43.6648],[-70.37395,43.66745],[-70.37326,43.67029],[-70.37098,43.66992],[-70.36947,43.67435],[-70.3691,43.67607],[-70.36553,43.67537],[-70.36317,43.67543],[-70.36279,43.67552],[-70.36326,43.67653],[-70.36127,43.67676],[-70.35689,43.67865],[-70.35463,43.67925],[-70.35421,43.67842],[-70.35432,43.67794],[-70.35502,43.67798],[-70.35638,43.67762],[-70.356,43.67713],[-70.3567,43.67652],[-70.35586,43.67586],[-70.35506,43.67657],[-70.35596,43.67714],[-70.35626,43.67754],[-70.35491,43.67789],[-70.35438,43.67783],[-70.35421,43.67842],[-70.35463,43.67925],[-70.35357,43.67971],[-70.35087,43.68152],[-70.34959,43.68119],[-70.34668,43.6812],[-70.341,43.67915],[-70.33874,43.67853],[-70.32958,43.67701],[-70.32507,43.67565],[-70.32326,43.67475],[-70.31538,43.6734],[-70.3082,43.67119],[-70.29692,43.66693],[-70.27935,43.66185],[-70.27863,43.66154],[-70.27765,43.66069],[-70.27232,43.66328],[-70.26898,43.66093],[-70.26644,43.65806],[-70.26655,43.65799],[-70.26644,43.65806],[-70.26462,43.6562],[-70.26243,43.6547],[-70.26107,43.65599],[-70.25874,43.65773],[-70.25967,43.65846]],"type":"LineString"},"properties":{"color":"#92D050","color_name":"gray","kind":"route","label":"4","long":"Westbrook","route_id":"4","text_color":"#000000","type_label":"Bus"},"type":"Feature"},{"geometry":{"coordinates":[[-70.3326,43.63286],[-70.33124,43.63233],[-70.3321,43.63116],[-70.3312,43.63077],[-70.32996,43.63219],[-70.32986,43.63264],[-70.33018,43.63313],[-70.33135,43.63368],[-70.33148,43.63396],[-70.3307,43.63475],[-70.32936,43.63405],[-70.3289,43.63452],[-70.3298,43.63493],[-70.33014,43.63466],[-70.33059,43.63493],[-70.32989,43.6357],[-70.32763,43.63694],[-70.32479,43.63887],[-70.32541,43.63938],[-70.32529,43.63946],[-70.32541,43.63938],[-70.32937,43.64271],[-70.32974,43.64427],[-70.33061,43.64572],[-70.33044,43.64667],[-70.3298,43.6472],[-70.32666,43.64809],[-70.326,43.64769],[-70.32604,43.64755],[-70.326,43.64769],[-70.31808,43.64721],[-70.31576,43.64845],[-70.31506,43.64936],[-70.31428,43.64986],[-70.31307,43.64924],[-70.3111,43.64763],[-70.30953,43.64748],[-70.30917,43.64767],[-70.30913,43.64841],[-70.3094,43.64894],[-70.30928,43.64937],[-70.30949,43.64956],[-70.30994,43.65168],[-70.31058,43.65158],[-70.31204,43.65069],[-70.31319,43.65044],[-70.31428,43.64986],[-70.31512,43.65058],[-70.31695,43.65122],[-70.31765,43.65221],[-70.31857,43.65298],[-70.3157,43.65515],[-70.31582,43.65521],[-70.31504,43.65611],[-70.31336,43.65757],[-70.31146,43.65863],[-70.30883,43.6597],[-70.30681,43.65982],[-70.30256,43.65862],[-70.30094,43.65848],[-70.29848,43.65865],[-70.29668,43.6591],[-70.29599,43.65893],[-70.29604,43.6588],[-70.29599,43.65893],[-70.29498,43.6587],[-70.28977,43.65727],[-70.28579,43.65567],[-70.28429,43.6544],[-70.28324,43.6538],[-70.28052,43.65335],[-70.27955,43.65348],[-70.28029,43.65581],[-70.27675,43.65574],[-70.26617,43.65772],[-70.26462,43.65619],[-70.26243,43.6547],[-70.26107,43.65599],[-70.25874,43.65773],[-70.25967,43.65846]],"type":"LineString"},"properties":{"color":"#00B050","color_name":"green","kind":"route","label":"5","long":"Maine Mall","route_id":"5","text_color":"#FFFFFF","type_label":"Bus"},"type":"Feature"},{"geometry":{"coordinates":[[-70.25967,43.65846],[-70.26013,43.65877],[-70.2609,43.6583],[-70.25947,43.65716],[-70.25771,43.65851],[-70.25663,43.65902],[-70.25367,43.66098],[-70.25105,43.66328],[-70.25374,43.66842],[-70.25603,43.67164],[-70.25638,43.67745],[-70.25604,43.67915],[-70.25653,43.67974],[-70.25759,43.6803],[-70.25323,43.68485],[-70.24811,43.68809],[-70.24616,43.68981],[-70.24426,43.69269],[-70.23745,43.70515],[-70.23425,43.71012],[-70.23363,43.71362],[-70.23296,43.71921],[-70.23517,43.71936],[-70.23556,43.719],[-70.23626,43.71937],[-70.23589,43.71985],[-70.2356,43.72151],[-70.2352,43.72148],[-70.23447,43.72251],[-70.23259,43.72182],[-70.2321,43.7245],[-70.23066,43.72775],[-70.22499,43.73565],[-70.22061,43.7399],[-70.22036,43.73991],[-70.21861,43.73878],[-70.21652,43.73865],[-70.21388,43.7379],[-70.20804,43.73474],[-70.21163,43.73222],[-70.21246,43.73131],[-70.21291,43.72916],[-70.21362,43.72836],[-70.21697,43.7268],[-70.21983,43.72603],[-70.22308,43.72477],[-70.22452,43.72395],[-70.22534,43.72309],[-70.22624,43.72144],[-70.22708,43.71947],[-70.2271,43.71883],[-70.2313,43.72128],[-70.23078,43.722],[-70.23141,43.7225],[-70.23159,43.72334],[-70.23073,43.72329],[-70.23047,43.72364]],"type":"LineString"},"properties":{"color":"#FF0000","color_name":"red","kind":"route","label":"7","long":"Falmouth","route_id":"7","text_color":"#FFFFFF","type_label":"Bus"},"type":"Feature"},{"geometry":{"coordinates":[[-70.24915,43.65772],[-70.24898,43.65779],[-70.24922,43.65805],[-70.2497,43.65821],[-70.24843,43.65932],[-70.25246,43.66208],[-70.25411,43.66073],[-70.25472,43.66116],[-70.25516,43.66177],[-70.26013,43.65877],[-70.2631,43.66101],[-70.26487,43.66158],[-70.26521,43.66187],[-70.26479,43.66218],[-70.26007,43.66509],[-70.25815,43.66384],[-70.2576,43.66338],[-70.25764,43.66319],[-70.26209,43.66024],[-70.26317,43.66105],[-70.26496,43.66165],[-70.26617,43.66273],[-70.26603,43.66276],[-70.26623,43.66281],[-70.26727,43.66448],[-70.26793,43.66487],[-70.26814,43.66465],[-70.27006,43.6642],[-70.26947,43.66372],[-70.26844,43.66394],[-70.26838,43.66382],[-70.26844,43.66394],[-70.26784,43.66408],[-70.26799,43.66467],[-70.26765,43.66466],[-70.26694,43.66401],[-70.26622,43.66268],[-70.26498,43.66145],[-70.25947,43.65716],[-70.26087,43.65621],[-70.26299,43.65411],[-70.26351,43.65381],[-70.2657,43.65322],[-70.26889,43.65299],[-70.27088,43.65337],[-70.27276,43.6541],[-70.27496,43.65247]],"type":"LineString"},"properties":{"color":"#D99594","color_name":"pink","kind":"route","label":"8","long":"Peninsula Loop","route_id":"8","text_color":"#000000","type_label":"Bus"},"type":"Feature"},{"geometry":{"coordinates":[[-70.25723,43.65893],[-70.26087,43.65621],[-70.2633,43.65389],[-70.2657,43.65322],[-70.26889,43.65299],[-70.27108,43.65343],[-70.27371,43.65455],[-70.27503,43.65487],[-70.27576,43.65479],[-70.27955,43.65348],[-70.28029,43.65581],[-70.28597,43.65597],[-70.29103,43.65776],[-70.29668,43.6591],[-70.29725,43.66029],[-70.29814,43.66315],[-70.29778,43.66386],[-70.29584,43.66617],[-70.29582,43.66671],[-70.2949,43.66902],[-70.29498,43.67156],[-70.29531,43.67393],[-70.29461,43.67616],[-70.2933,43.68672],[-70.29338,43.68714],[-70.2931,43.68743],[-70.2936,43.68833],[-70.2937,43.68897],[-70.29348,43.68912],[-70.29363,43.68915],[-70.29203,43.69472],[-70.2881,43.6998],[-70.28865,43.70055],[-70.28894,43.70168],[-70.28977,43.7016],[-70.29219,43.70439],[-70.29285,43.70529],[-70.29319,43.70613],[-70.29371,43.7067],[-70.29654,43.70845],[-70.29904,43.7122],[-70.30132,43.71516],[-70.30148,43.7163],[-70.29947,43.71986],[-70.29872,43.72057],[-70.29675,43.72138],[-70.29381,43.72124]],"type":"LineString"},"properties":{"color":"#E46C0A","color_name":"orange","kind":"route","label":"9A","long":"North Deering via Stevens Ave","route_id":"9A","text_color":"#FFFFFF","type_label":"Bus"},"type":"Feature"},{"geometry":{"coordinates":[[-70.27811,43.65377],[-70.27503,43.65487],[-70.27371,43.65455],[-70.27265,43.65394],[-70.26972,43.65302],[-70.2678,43.65299],[-70.2657,43.65322],[-70.26351,43.65381],[-70.26257,43.65442],[-70.26107,43.65599],[-70.25782,43.65843],[-70.25663,43.65902],[-70.25367,43.66098],[-70.25187,43.66247],[-70.25105,43.66328],[-70.25108,43.66356],[-70.25374,43.66842],[-70.25603,43.67164],[-70.25638,43.67745],[-70.25605,43.67887],[-70.25622,43.67949],[-70.27289,43.68836],[-70.28249,43.69302],[-70.28332,43.69374],[-70.28865,43.70055],[-70.29294,43.7182],[-70.29504,43.72847],[-70.29603,43.73097],[-70.29633,43.73263],[-70.29575,43.73271],[-70.29514,43.73336],[-70.29453,43.73315],[-70.2942,43.73327],[-70.29379,43.73383],[-70.29399,43.73397]],"type":"LineString"},"properties":{"color":"#17365D","color_name":"green","kind":"route","label":"9B","long":"North Deering via Washington Ave","route_id":"9B","text_color":"#FFFFFF","type_label":"Bus"},"type":"Feature"},{"geometry":{"coordinates":[[-70.29011,43.6513],[-70.29049,43.6507],[-70.29082,43.65051],[-70.29226,43.65102],[-70.29182,43.65212],[-70.29217,43.65302],[-70.29156,43.65414],[-70.29161,43.65436],[-70.29127,43.65449],[-70.28932,43.65414],[-70.28869,43.65426],[-70.28882,43.65496],[-70.28866,43.65537],[-70.28815,43.65578],[-70.28709,43.65608],[-70.28561,43.65557],[-70.28387,43.65412],[-70.28147,43.6534],[-70.27955,43.65348],[-70.27503,43.65487],[-70.27371,43.65455],[-70.27265,43.65394],[-70.27108,43.65343],[-70.26889,43.65299],[-70.2657,43.65322],[-70.26351,43.65381],[-70.26257,43.65442],[-70.26107,43.65599],[-70.25771,43.65851],[-70.25443,43.66049],[-70.25113,43.66319],[-70.25109,43.66343],[-70.25308,43.66723],[-70.25603,43.67183],[-70.2561,43.67494],[-70.25645,43.67842],[-70.25634,43.67902],[-70.25607,43.67957],[-70.25255,43.68352],[-70.25204,43.68492],[-70.25245,43.68636],[-70.25459,43.68838],[-70.25531,43.68942],[-70.25596,43.69116],[-70.25645,43.69342],[-70.25651,43.69504],[-70.25528,43.70794],[-70.25464,43.71052],[-70.25388,43.712],[-70.25269,43.71365],[-70.24977,43.71712],[-70.24721,43.71969],[-70.24134,43.72486],[-70.23325,43.72981],[-70.23151,43.731],[-70.23027,43.73227],[-70.22606,43.73931],[-70.22217,43.74486],[-70.21982,43.74775],[-70.21252,43.75509],[-70.21113,43.75701],[-70.19571,43.78019],[-70.19468,43.78149],[-70.19328,43.78284],[-70.19001,43.78474],[-70.18941,43.78496],[-70.18849,43.78483],[-70.18814,43.78442],[-70.18829,43.78389],[-70.18909,43.78357],[-70.18967,43.78361],[-70.19,43.78385],[-70.19029,43.78442],[-70.19079,43.78725],[-70.19141,43.78721],[-70.19215,43.78603],[-70.19168,43.78587],[-70.19155,43.78604],[-70.19169,43.78669],[-70.19153,43.78698],[-70.1909,43.78721],[-70.19055,43.78838],[-70.18897,43.79115],[-70.18856,43.79362],[-70.18824,43.7981],[-70.18768,43.7995],[-70.18678,43.80065],[-70.18619,43.80109],[-70.18558,43.80092],[-70.18551,43.80064],[-70.18586,43.80026],[-70.18723,43.80083],[-70.1876,43.80045],[-70.1882,43.80072],[-70.18793,43.80107],[-70.18586,43.80022],[-70.18547,43.80068],[-70.18571,43.80125],[-70.1856,43.80165],[-70.1834,43.80292],[-70.18145,43.80356],[-70.17875,43.80395],[-70.17511,43.80476],[-70.152,43.81323],[-70.15005,43.81418],[-70.14507,43.81763],[-70.13036,43.83203],[-70.11934,43.84182],[-70.11872,43.84278],[-70.11798,43.84311],[-70.11529,43.8458],[-70.11302,43.84741],[-70.10786,43.8541],[-70.10253,43.85759],[-70.10116,43.86046],[-70.10391,43.86135],[-70.10621,43.86296],[-70.10671,43.86363],[-70.10636,43.86449],[-70.10645,43.86552],[-70.10581,43.86644],[-70.10302,43.86845],[-70.09293,43.87306],[-70.08958,43.8748],[-70.08718,43.87619],[-70.08568,43.87755],[-70.08306,43.88145],[-70.08177,43.88392],[-70.08049,43.88726],[-70.07723,43.89759],[-70.07598,43.89945],[-70.07173,43.90192],[-70.05229,43.90733],[-70.0256,43.91596],[-70.02122,43.91689],[-70.01569,43.91682],[-70.00131,43.9124],[-69.99074,43.91205],[-69.97272,43.91328],[-69.97206,43.91172],[-69.96786,43.91233],[-69.96848,43.91379],[-69.96492,43.91465],[-69.96322,43.91127],[-69.96327,43.91066],[-69.96226,43.91048],[-69.96241,43.91085],[-69.9633,43.91172],[-69.96407,43.91142],[-69.96562,43.91122]],"type":"LineString"},"properties":{"color":"#548ED5","color_name":"teal","kind":"route","label":"BRZ","long":"METRO BREEZ","route_id":"BRZ","text_color":"#000000","type_label":"Bus"},"type":"Feature"},{"geometry":{"coordinates":[[-70.25967,43.65846],[-70.2631,43.66101],[-70.26484,43.66157],[-70.26608,43.66274],[-70.26691,43.66413],[-70.26768,43.66474],[-70.26859,43.6651],[-70.27,43.66524],[-70.27084,43.66511],[-70.27087,43.66439],[-70.27132,43.66385],[-70.27765,43.66069],[-70.27882,43.66184],[-70.27935,43.66185],[-70.29583,43.66661],[-70.30991,43.67174],[-70.31571,43.67349],[-70.32294,43.67482],[-70.32493,43.67571],[-70.32859,43.67689],[-70.33158,43.67755],[-70.33419,43.67793],[-70.33473,43.67532],[-70.33572,43.67257],[-70.33608,43.67173],[-70.33698,43.67055],[-70.34216,43.6731],[-70.34334,43.67351],[-70.34535,43.6735],[-70.34795,43.67263],[-70.34897,43.67264],[-70.35,43.67293],[-70.35174,43.6741],[-70.3536,43.67743],[-70.35443,43.67796],[-70.35633,43.67765],[-70.36332,43.67551],[-70.36605,43.67545],[-70.37029,43.67634],[-70.37231,43.67694],[-70.37506,43.67945],[-70.3815,43.68342],[-70.3851,43.68532],[-70.39042,43.6869],[-70.40025,43.69071],[-70.40119,43.69087],[-70.40276,43.69089],[-70.40883,43.68969],[-70.44299,43.67973],[-70.44364,43.68057],[-70.44737,43.67945],[-70.448,43.68046],[-70.44777,43.68081],[-70.44703,43.68117],[-70.44729,43.68146],[-70.44772,43.68151],[-70.44817,43.68098],[-70.44817,43.68067]],"type":"LineString"},"properties":{"color":"#376092","color_name":"teal","kind":"route","label":"HSK","long":"Husky Line","route_id":"HSK","text_color":"#000000","type_label":"Bus"},"type":"Feature"},{"geometry":{"coordinates":[-70.23304,43.72614],"type":"Point"},"properties":{"kind":"stop","name":"BUCKNAM RD + 8 BUCKNAM RD","stop_id":"1"},"type":"Feature"},{"geometry":{"coordinates":[-70.29499,43.66632],"type":"Point"},"properties":{"kind":"stop","name":"BRIGHTON AVE + 416 BRIGHTON AVE","stop_id":"10"},"type":"Feature"},{"geometry":{"coordinates":[-70.22624,43.72144],"type":"Point"},"properties":{"kind":"stop","name":"FORESIDE RD + MUSSEL COVE LN","stop_id":"100"},"type":"Feature"},{"geometry":{"coordinates":[-70.32577,43.67603],"type":"Point"},"properties":{"kind":"stop","name":"BARRON CENTER O/B","stop_id":"102"},"type":"Feature"},{"geometry":{"coordinates":[-70.28063,43.66859],"type":"Point"},"properties":{"kind":"stop","name":"FOREST AVE + BELMONT ST","stop_id":"103"},"type":"Feature"},{"geometry":{"coordinates":[-70.31788,43.70002],"type":"Point"},"properties":{"kind":"stop","name":"FOREST AVE + 1837 FOREST AVE","stop_id":"104"},"type":"Feature"},{"geometry":{"coordinates":[-70.26601,43.65782],"type":"Point"},"properties":{"kind":"stop","name":"PORTLAND ST + FOREST AVE","stop_id":"105"},"type":"Feature"},{"geometry":{"coordinates":[-70.24988,43.7208],"type":"Point"},"properties":{"kind":"stop","name":"BLUEBERRY LN + WHIPPLE FARM LN","stop_id":"106"},"type":"Feature"},{"geometry":{"coordinates":[-70.35515,43.67639],"type":"Point"},"properties":{"kind":"stop","name":"WESTBROOK HANNAFORD","stop_id":"11"},"type":"Feature"},{"geometry":{"coordinates":[-70.30755,43.69733],"type":"Point"},"properties":{"kind":"stop","name":"FOREST AVE + NEWTON ST","stop_id":"110"},"type":"Feature"},{"geometry":{"coordinates":[-70.37005,43.67311],"type":"Point"},"properties":{"kind":"stop","name":"MECHANIC ST + WEST VALENTINE ST","stop_id":"111"},"type":"Feature"},{"geometry":{"coordinates":[-70.2882,43.67856],"type":"Point"},"properties":{"kind":"stop","name":"RSVP","stop_id":"112"},"type":"Feature"},{"geometry":{"coordinates":[-70.23492,43.71002],"type":"Point"},"properties":{"kind":"stop","name":"ROUTE 1 + ROUTE 88","stop_id":"113"},"type":"Feature"},{"geometry":{"coordinates":[-70.28153,43.69255],"type":"Point"},"properties":{"kind":"stop","name":"WASHINGTON AVE + 1133 WASHINGTON AVE","stop_id":"115"},"type":"Feature"},{"geometry":{"coordinates":[-70.29968,43.69188],"type":"Point"},"properties":{"kind":"stop","name":"FOREST AVE + AVALON ST","stop_id":"116"},"type":"Feature"},{"geometry":{"coordinates":[-70.2518,43.65915],"type":"Point"},"properties":{"kind":"stop","name":"MIDDLE ST + FRANKLIN ST","stop_id":"117"},"type":"Feature"},{"geometry":{"coordinates":[-70.29735,43.70973],"type":"Point"},"properties":{"kind":"stop","name":"WASHINGTON AVE + 1751 WASHINGTON AVE","stop_id":"118"},"type":"Feature"},{"geometry":{"coordinates":[-70.24526,43.72516],"type":"Point"},"properties":{"kind":"stop","name":"LUNT RD + COMMUNITY CENTER","stop_id":"119"},"type":"Feature"},{"geometry":{"coordinates":[-70.22398,43.72438],"type":"Point"},"properties":{"kind":"stop","name":"FORESIDE RD + MEADOW CREEK LN","stop_id":"12"},"type":"Feature"},{"geometry":{"coordinates":[-70.27834,43.69089],"type":"Point"},"properties":{"kind":"stop","name":"WASHINGTON AVE + CANCO RD","stop_id":"122"},"type":"Feature"},{"geometry":{"coordinates":[-70.25817,43.68066],"type":"Point"},"properties":{"kind":"stop","name":"WASHINGTON AVE + VERANDA ST","stop_id":"123"},"type":"Feature"},{"geometry":{"coordinates":[-70.31452,43.69938],"type":"Point"},"properties":{"kind":"stop","name":"FOREST AVE + RIVERSIDE INDUSTRIAL PWKY","stop_id":"124"},"type":"Feature"},{"geometry":{"coordinates":[-70.23342,43.7153],"type":"Point"},"properties":{"kind":"stop","name":"ROUTE 1 + 183 ROUTE 1","stop_id":"125"},"type":"Feature"},{"geometry":{"coordinates":[-70.29404,43.68263],"type":"Point"},"properties":{"kind":"stop","name":"STEVENS AVE + 716 STEVENS AVE","stop_id":"126"},"type":"Feature"},{"geometry":{"coordinates":[-70.29492,43.6757],"type":"Point"},"properties":{"kind":"stop","name":"STEVENS AVE + 500 STEVENS AVE","stop_id":"127"},"type":"Feature"},{"geometry":{"coordinates":[-70.24084,43.69882],"type":"Point"},"properties":{"kind":"stop","name":"ROUTE 1 + PHILLIPS RD","stop_id":"128"},"type":"Feature"},{"geometry":{"coordinates":[-70.26237,43.6548],"type":"Point"},"properties":{"kind":"stop","name":"CONGRESS ST + FOREST AVE","stop_id":"129"},"type":"Feature"},{"geometry":{"coordinates":[-70.25979,43.68147],"type":"Point"},"properties":{"kind":"stop","name":"WASHINGTON AVE + CHURCHILL ST","stop_id":"130"},"type":"Feature"},{"geometry":{"coordinates":[-70.27445,43.66216],"type":"Point"},"properties":{"kind":"stop","name":"BEDFORD ST USM I/B","stop_id":"132"},"type":"Feature"},{"geometry":{"coordinates":[-70.26655,43.65799],"type":"Point"},"properties":{"kind":"stop","name":"FOREST AVE + PARK AVE","stop_id":"134"},"type":"Feature"},{"geometry":{"coordinates":[-70.29506,43.66648],"type":"Point"},"properties":{"kind":"stop","name":"BRIGHTON AVE + STEVENS AVE","stop_id":"135"},"type":"Feature"},{"geometry":{"coordinates":[-70.30051,43.66841],"type":"Point"},"properties":{"kind":"stop","name":"ROSEMONT CORNER O/B","stop_id":"136"},"type":"Feature"},{"geometry":{"coordinates":[-70.29168,43.66553],"type":"Point"},"properties":{"kind":"stop","name":"BRIGHTON MEDICAL CTR O/B","stop_id":"138"},"type":"Feature"},{"geometry":{"coordinates":[-70.26525,43.64759],"type":"Point"},"properties":{"kind":"stop","name":"DANFORTH ST + SCHOOL ST","stop_id":"139"},"type":"Feature"},{"geometry":{"coordinates":[-70.36378,43.67628],"type":"Point"},"properties":{"kind":"stop","name":"MAIN ST + 800 MAIN ST","stop_id":"14"},"type":"Feature"},{"geometry":{"coordinates":[-70.25108,43.66356],"type":"Point"},"properties":{"kind":"stop","name":"WASHINGTON AVE + CONGRESS ST","stop_id":"141"},"type":"Feature"},{"geometry":{"coordinates":[-70.37141,43.67609],"type":"Point"},"properties":{"kind":"stop","name":"QUIMBY AVE + SACO ST","stop_id":"142"},"type":"Feature"},{"geometry":{"coordinates":[-70.29142,43.70357],"type":"Point"},"properties":{"kind":"stop","name":"WASHINGTON AVE + SANBORN ST","stop_id":"143"},"type":"Feature"},{"geometry":{"coordinates":[-70.27688,43.66602],"type":"Point"},"properties":{"kind":"stop","name":"FOREST AVE + WILLIAM ST","stop_id":"144"},"type":"Feature"},{"geometry":{"coordinates":[-70.28142,43.66255],"type":"Point"},"properties":{"kind":"stop","name":"BRIGHTON AVE + PITT ST","stop_id":"145"},"type":"Feature"},{"geometry":{"coordinates":[-70.2949,43.66902],"type":"Point"},"properties":{"kind":"stop","name":"STEVENS AVE + RACKLEFF ST","stop_id":"146"},"type":"Feature"},{"geometry":{"coordinates":[-70.25978,43.65686],"type":"Point"},"properties":{"kind":"stop","name":"CONGRESS ST + CENTER ST","stop_id":"147"},"type":"Feature"},{"geometry":{"coordinates":[-70.30256,43.65862],"type":"Point"},"properties":{"kind":"stop","name":"CONGRESS ST + HOBART ST","stop_id":"148"},"type":"Feature"},{"geometry":{"coordinates":[-70.21983,43.72603],"type":"Point"},"properties":{"kind":"stop","name":"FORESIDE RD + 154 FORESIDE RD","stop_id":"149"},"type":"Feature"},{"geometry":{"coordinates":[-70.28925,43.7009],"type":"Point"},"properties":{"kind":"stop","name":"WASHINGTON AVE + BREWSTER ST","stop_id":"15"},"type":"Feature"},{"geometry":{"coordinates":[-70.23112,43.72126],"type":"Point"},"properties":{"kind":"stop","name":"DEPOT RD + 33 DEPOT RD","stop_id":"150"},"type":"Feature"},{"geometry":{"coordinates":[-70.33589,43.67801],"type":"Point"},"properties":{"kind":"stop","name":"MAIN ST + 140 MAIN ST","stop_id":"151"},"type":"Feature"},{"geometry":{"coordinates":[-70.32566,43.64857],"type":"Point"},"properties":{"kind":"stop","name":"JOHNSON RD + TIME WARNER CABLE","stop_id":"152"},"type":"Feature"},{"geometry":{"coordinates":[-70.25035,43.66071],"type":"Point"},"properties":{"kind":"stop","name":"INDIA ST + 65 INDIA ST","stop_id":"153"},"type":"Feature"},{"geometry":{"coordinates":[-70.36711,43.67832],"type":"Point"},"properties":{"kind":"stop","name":"BRIDGE ST + DANA CT","stop_id":"154"},"type":"Feature"},{"geometry":{"coordinates":[-70.29995,43.7191],"type":"Point"},"properties":{"kind":"stop","name":"WASHINGTON AVE + STONECREST DR","stop_id":"155"},"type":"Feature"},{"geometry":{"coordinates":[-70.29108,43.70296],"type":"Point"},"properties":{"kind":"stop","name":"WASHINGTON AVE + MUGWHY","stop_id":"156"},"type":"Feature"},{"geometry":{"coordinates":[-70.26087,43.65621],"type":"Point"},"properties":{"kind":"stop","name":"CONGRESS ST + CASCO ST","stop_id":"157"},"type":"Feature"},{"geometry":{"coordinates":[-70.27556,43.65471],"type":"Point"},"properties":{"kind":"stop","name":"CONGRESS ST + WEYMOUTH ST","stop_id":"158"},"type":"Feature"},{"geometry":{"coordinates":[-70.33862,43.67861],"type":"Point"},"properties":{"kind":"stop","name":"WESTBROOK CITY HALL","stop_id":"16"},"type":"Feature"},{"geometry":{"coordinates":[-70.27275,43.66348],"type":"Point"},"properties":{"kind":"stop","name":"FOREST AVE + BEDFORD ST","stop_id":"162"},"type":"Feature"},{"geometry":{"coordinates":[-70.2688,43.68621],"type":"Point"},"properties":{"kind":"stop","name":"WASHINGTON AVE + OCEAN AVE","stop_id":"163"},"type":"Feature"},{"geometry":{"coordinates":[-70.29375,43.72183],"type":"Point"},"properties":{"kind":"stop","name":"AUBURN ST + GARSOE DR","stop_id":"164"},"type":"Feature"},{"geometry":{"coordinates":[-70.23469,43.71929],"type":"Point"},"properties":{"kind":"stop","name":"FALMOUTH WALMART I/B","stop_id":"165"},"type":"Feature"},{"geometry":{"coordinates":[-70.27828,43.66688],"type":"Point"},"properties":{"kind":"stop","name":"FOREST AVE + DARTMOUTH ST","stop_id":"166"},"type":"Feature"},{"geometry":{"coordinates":[-70.35079,43.68175],"type":"Point"},"properties":{"kind":"stop","name":"HARNOIS AVE + MAIN ST","stop_id":"167"},"type":"Feature"},{"geometry":{"coordinates":[-70.25522,43.67024],"type":"Point"},"properties":{"kind":"stop","name":"WASHINGTON AVE + E. PROMENADE","stop_id":"168"},"type":"Feature"},{"geometry":{"coordinates":[-70.28911,43.70251],"type":"Point"},"properties":{"kind":"stop","name":"AUBURN ST + 92 AUBURN ST","stop_id":"169"},"type":"Feature"},{"geometry":{"coordinates":[-70.35968,43.6775],"type":"Point"},"properties":{"kind":"stop","name":"MAIN ST + DUNN ST","stop_id":"17"},"type":"Feature"},{"geometry":{"coordinates":[-70.28216,43.66955],"type":"Point"},"properties":{"kind":"stop","name":"FOREST AVE + ARLINGTON ST","stop_id":"170"},"type":"Feature"},{"geometry":{"coordinates":[-70.32539,43.63841],"type":"Point"},"properties":{"kind":"stop","name":"FODEN RD + WESTERN AVE","stop_id":"171"},"type":"Feature"},{"geometry":{"coordinates":[-70.26506,43.65332],"type":"Point"},"properties":{"kind":"stop","name":"CONGRESS ST + PARK ST","stop_id":"172"},"type":"Feature"},{"geometry":{"coordinates":[-70.2749,43.66476],"type":"Point"},"properties":{"kind":"stop","name":"FOREST AVE + FALMOUTH ST","stop_id":"173"},"type":"Feature"},{"geometry":{"coordinates":[-70.27821,43.65393],"type":"Point"},"properties":{"kind":"stop","name":"CONGRESS ST + VALLEY ST","stop_id":"175"},"type":"Feature"},{"geometry":{"coordinates":[-70.24926,43.66466],"type":"Point"},"properties":{"kind":"stop","name":"CONGRESS ST + SHERIDAN ST","stop_id":"176"},"type":"Feature"},{"geometry":{"coordinates":[-70.27805,43.69092],"type":"Point"},"properties":{"kind":"stop","name":"WASHINGTON AVE + RAY ST","stop_id":"177"},"type":"Feature"},{"geometry":{"coordinates":[-70.31462,43.67308],"type":"Point"},"properties":{"kind":"stop","name":"BRIGHTON AVE + CAPISIC ST I/B","stop_id":"178"},"type":"Feature"},{"geometry":{"coordinates":[-70.341,43.67915],"type":"Point"},"properties":{"kind":"stop","name":"MAIN ST + 250 MAIN ST","stop_id":"179"},"type":"Feature"},{"geometry":{"coordinates":[-70.27675,43.65574],"type":"Point"},"properties":{"kind":"stop","name":"PARK AVE + WEYMOUTH ST","stop_id":"182"},"type":"Feature"},{"geometry":{"coordinates":[-70.32162,43.67461],"type":"Point"},"properties":{"kind":"stop","name":"SAGAMORE VILLAGE O/B","stop_id":"183"},"type":"Feature"},{"geometry":{"coordinates":[-70.37266,43.66208],"type":"Point"},"properties":{"kind":"stop","name":"IDEXX","stop_id":"184"},"type":"Feature"},{"geometry":{"coordinates":[-70.36837,43.67589],"type":"Point"},"properties":{"kind":"stop","name":"WILLIAM CLARKE DR + CENTRAL ST","stop_id":"185"},"type":"Feature"},{"geometry":{"coordinates":[-70.35784,43.67816],"type":"Point"},"properties":{"kind":"stop","name":"MAIN ST + 668 MAIN ST","stop_id":"186"},"type":"Feature"},{"geometry":{"coordinates":[-70.29449,43.72605],"type":"Point"},"properties":{"kind":"stop","name":"GRAY RD + 25 GRAY RD","stop_id":"187"},"type":"Feature"},{"geometry":{"coordinates":[-70.28575,43.65225],"type":"Point"},"properties":{"kind":"stop","name":"FORE RIVER PARKWAY + FEDERIC ST","stop_id":"188"},"type":"Feature"},{"geometry":{"coordinates":[-70.29349,43.68673],"type":"Point"},"properties":{"kind":"stop","name":"MORRILL'S CORNER","stop_id":"189"},"type":"Feature"},{"geometry":{"coordinates":[-70.3013,43.7154],"type":"Point"},"properties":{"kind":"stop","name":"WASHINGTON AVE + RIVERSIDE DR","stop_id":"19"},"type":"Feature"},{"geometry":{"coordinates":[-70.25349,43.66766],"type":"Point"},"properties":{"kind":"stop","name":"WASHINGTON AVE + FOX ST","stop_id":"190"},"type":"Feature"},{"geometry":{"coordinates":[-70.28641,43.66403],"type":"Point"},"properties":{"kind":"stop","name":"BRIGHTON AVE + BEACON ST","stop_id":"192"},"type":"Feature"},{"geometry":{"coordinates":[-70.25367,43.66098],"type":"Point"},"properties":{"kind":"stop","name":"CONGRESS ST + HAMPSHIRE ST","stop_id":"193"},"type":"Feature"},{"geometry":{"coordinates":[-70.27576,43.65479],"type":"Point"},"properties":{"kind":"stop","name":"CONGRESS ST + WEYMOUTH ST","stop_id":"194"},"type":"Feature"},{"geometry":{"coordinates":[-70.23295,43.72632],"type":"Point"},"properties":{"kind":"stop","name":"BUCKNAM RD + 4 BUCKNAM RD","stop_id":"195"},"type":"Feature"},{"geometry":{"coordinates":[-70.28215,43.66929],"type":"Point"},"properties":{"kind":"stop","name":"FOREST AVE + LINCOLN ST","stop_id":"196"},"type":"Feature"},{"geometry":{"coordinates":[-70.31818,43.65275],"type":"Point"},"properties":{"kind":"stop","name":"INTERNATIONAL PKWY + CONGRESS ST","stop_id":"197"},"type":"Feature"},{"geometry":{"coordinates":[-70.29158,43.68441],"type":"Point"},"properties":{"kind":"stop","name":"FOREST AVE + POLAND ST","stop_id":"198"},"type":"Feature"},{"geometry":{"coordinates":[-70.33285,43.67753],"type":"Point"},"properties":{"kind":"stop","name":"ROCK ROW","stop_id":"2"},"type":"Feature"},{"geometry":{"coordinates":[-70.25504,43.67033],"type":"Point"},"properties":{"kind":"stop","name":"WASHINGTON AVE + EASTERN PROMENADE","stop_id":"20"},"type":"Feature"},{"geometry":{"coordinates":[-70.2678,43.65299],"type":"Point"},"properties":{"kind":"stop","name":"CONGRESS ST + 690 CONGRESS ST","stop_id":"200"},"type":"Feature"},{"geometry":{"coordinates":[-70.29319,43.70613],"type":"Point"},"properties":{"kind":"stop","name":"WASHINGTON AVE + REGAN LN","stop_id":"202"},"type":"Feature"},{"geometry":{"coordinates":[-70.25511,43.68299],"type":"Point"},"properties":{"kind":"stop","name":"VERANDA ST + KENSINGTON ST","stop_id":"203"},"type":"Feature"},{"geometry":{"coordinates":[-70.26526,43.65001],"type":"Point"},"properties":{"kind":"stop","name":"BRACKETT ST + SPRING ST","stop_id":"204"},"type":"Feature"},{"geometry":{"coordinates":[-70.23335,43.71744],"type":"Point"},"properties":{"kind":"stop","name":"ROUTE 1 + 196 ROUTE 1","stop_id":"205"},"type":"Feature"},{"geometry":{"coordinates":[-70.29308,43.71936],"type":"Point"},"properties":{"kind":"stop","name":"AUBURN ST + LONGVIEW ST","stop_id":"207"},"type":"Feature"},{"geometry":{"coordinates":[-70.27816,43.64594],"type":"Point"},"properties":{"kind":"stop","name":"ST JOHN ST + 70 ST JOHN ST","stop_id":"208"},"type":"Feature"},{"geometry":{"coordinates":[-70.37652,43.66488],"type":"Point"},"properties":{"kind":"stop","name":"SACO ST + 345 SACO ST","stop_id":"209"},"type":"Feature"},{"geometry":{"coordinates":[-70.36149,43.68809],"type":"Point"},"properties":{"kind":"stop","name":"BRIDGE ST + CUMBERLAND ST","stop_id":"21"},"type":"Feature"},{"geometry":{"coordinates":[-70.28995,43.70623],"type":"Point"},"properties":{"kind":"stop","name":"AUBURN ST + LYSETH MOORE ST","stop_id":"211"},"type":"Feature"},{"geometry":{"coordinates":[-70.26996,43.66425],"type":"Point"},"properties":{"kind":"stop","name":"BAXTER BLVD + 43 BAXTER BLVD","stop_id":"212"},"type":"Feature"},{"geometry":{"coordinates":[-70.26974,43.65075],"type":"Point"},"properties":{"kind":"stop","name":"WEST ST + CARLETON ST","stop_id":"213"},"type":"Feature"},{"geometry":{"coordinates":[-70.24987,43.66434],"type":"Point"},"properties":{"kind":"stop","name":"CONGRESS ST + 181 CONGRESS ST","stop_id":"214"},"type":"Feature"},{"geometry":{"coordinates":[-70.29596,43.66642],"type":"Point"},"properties":{"kind":"stop","name":"STEVENS AVE + BRIGHTON AVE","stop_id":"215"},"type":"Feature"},{"geometry":{"coordinates":[-70.31446,43.6732],"type":"Point"},"properties":{"kind":"stop","name":"BRIGHTON AVE + CAPISIC ST O/B","stop_id":"216"},"type":"Feature"},{"geometry":{"coordinates":[-70.26735,43.65897],"type":"Point"},"properties":{"kind":"stop","name":"FOREST AVE + HIGH ST","stop_id":"217"},"type":"Feature"},{"geometry":{"coordinates":[-70.27848,43.6478],"type":"Point"},"properties":{"kind":"stop","name":"ST JOHN ST + 117 ST JOHN ST","stop_id":"218"},"type":"Feature"},{"geometry":{"coordinates":[-70.28324,43.6538],"type":"Point"},"properties":{"kind":"stop","name":"CONGRESS ST + FREDERIC ST","stop_id":"219"},"type":"Feature"},{"geometry":{"coordinates":[-70.3182,43.67386],"type":"Point"},"properties":{"kind":"stop","name":"BRIGHTON AVE + ROWE AVE","stop_id":"22"},"type":"Feature"},{"geometry":{"coordinates":[-70.36398,43.68487],"type":"Point"},"properties":{"kind":"stop","name":"MYRTLE ST + BRIDGE ST","stop_id":"220"},"type":"Feature"},{"geometry":{"coordinates":[-70.26032,43.66487],"type":"Point"},"properties":{"kind":"stop","name":"MARGINAL WAY + FRANKLIN ST","stop_id":"221"},"type":"Feature"},{"geometry":{"coordinates":[-70.25007,43.66751],"type":"Point"},"properties":{"kind":"stop","name":"NORTH ST + QUEBEC ST","stop_id":"222"},"type":"Feature"},{"geometry":{"coordinates":[-70.24908,43.67061],"type":"Point"},"properties":{"kind":"stop","name":"EASTERN PROMENADE + WALNUT ST","stop_id":"223"},"type":"Feature"},{"geometry":{"coordinates":[-70.29077,43.7096],"type":"Point"},"properties":{"kind":"stop","name":"AUBURN ST + RUSTIC ST","stop_id":"224"},"type":"Feature"},{"geometry":{"coordinates":[-70.24136,43.69785],"type":"Point"},"properties":{"kind":"stop","name":"ROUTE 1 + ANDREWS AVE","stop_id":"225"},"type":"Feature"},{"geometry":{"coordinates":[-70.28438,43.69529],"type":"Point"},"properties":{"kind":"stop","name":"WASHINGTON AVE + MAINE AVE","stop_id":"226"},"type":"Feature"},{"geometry":{"coordinates":[-70.24041,43.70015],"type":"Point"},"properties":{"kind":"stop","name":"ROUTE 1 + 64 ROUTE 1","stop_id":"227"},"type":"Feature"},{"geometry":{"coordinates":[-70.36242,43.68396],"type":"Point"},"properties":{"kind":"stop","name":"MYRTLE ST + PRINCE ST","stop_id":"228"},"type":"Feature"},{"geometry":{"coordinates":[-70.22364,43.73694],"type":"Point"},"properties":{"kind":"stop","name":"ROUTE 1 + NORTHBROOK DR","stop_id":"229"},"type":"Feature"},{"geometry":{"coordinates":[-70.24865,43.66616],"type":"Point"},"properties":{"kind":"stop","name":"NORTH ST + CUMBERLAND AVE","stop_id":"230"},"type":"Feature"},{"geometry":{"coordinates":[-70.27496,43.65247],"type":"Point"},"properties":{"kind":"stop","name":"MAINE MEDICAL CENTER","stop_id":"231"},"type":"Feature"},{"geometry":{"coordinates":[-70.29151,43.68474],"type":"Point"},"properties":{"kind":"stop","name":"FOREST AVE + READ ST","stop_id":"232"},"type":"Feature"},{"geometry":{"coordinates":[-70.25396,43.67116],"type":"Point"},"properties":{"kind":"stop","name":"EAST END SCHOOL","stop_id":"233"},"type":"Feature"},{"geometry":{"coordinates":[-70.26333,43.68329],"type":"Point"},"properties":{"kind":"stop","name":"WASHINGTON AVE + OAKLEY ST","stop_id":"234"},"type":"Feature"},{"geometry":{"coordinates":[-70.26288,43.65489],"type":"Point"},"properties":{"kind":"stop","name":"FOREST AVE + CONGRESS ST","stop_id":"235"},"type":"Feature"},{"geometry":{"coordinates":[-70.30567,43.65948],"type":"Point"},"properties":{"kind":"stop","name":"CONGRESS ST + FROST ST","stop_id":"236"},"type":"Feature"},{"geometry":{"coordinates":[-70.26257,43.65442],"type":"Point"},"properties":{"kind":"stop","name":"CONGRESS ST + FOREST AVE","stop_id":"237"},"type":"Feature"},{"geometry":{"coordinates":[-70.35357,43.67971],"type":"Point"},"properties":{"kind":"stop","name":"MAIN ST + HASKELL ST","stop_id":"238"},"type":"Feature"},{"geometry":{"coordinates":[-70.21163,43.73222],"type":"Point"},"properties":{"kind":"stop","name":"FORESIDE RD + OLD POWERHOUSE RD","stop_id":"239"},"type":"Feature"},{"geometry":{"coordinates":[-70.3675,43.67882],"type":"Point"},"properties":{"kind":"stop","name":"BROWN ST + BRIDGE ST","stop_id":"24"},"type":"Feature"},{"geometry":{"coordinates":[-70.35605,43.67883],"type":"Point"},"properties":{"kind":"stop","name":"MAIN ST + SCHOOL ST","stop_id":"240"},"type":"Feature"},{"geometry":{"coordinates":[-70.37105,43.67005],"type":"Point"},"properties":{"kind":"stop","name":"MECHANIC ST + PROSPECT ST","stop_id":"241"},"type":"Feature"},{"geometry":{"coordinates":[-70.26943,43.64815],"type":"Point"},"properties":{"kind":"stop","name":"EMERY ST + SPRUCE ST","stop_id":"242"},"type":"Feature"},{"geometry":{"coordinates":[-70.2954,43.7076],"type":"Point"},"properties":{"kind":"stop","name":"WASHINGTON AVE + GREENWOOD LN","stop_id":"243"},"type":"Feature"},{"geometry":{"coordinates":[-70.34444,43.6805],"type":"Point"},"properties":{"kind":"stop","name":"MAIN ST + MASON ST","stop_id":"244"},"type":"Feature"},{"geometry":{"coordinates":[-70.36388,43.68497],"type":"Point"},"properties":{"kind":"stop","name":"MYRTLE ST + BRIDGE ST","stop_id":"245"},"type":"Feature"},{"geometry":{"coordinates":[-70.29677,43.72144],"type":"Point"},"properties":{"kind":"stop","name":"WASHINGTON AVE + LAMBERT ST","stop_id":"246"},"type":"Feature"},{"geometry":{"coordinates":[-70.29853,43.73399],"type":"Point"},"properties":{"kind":"stop","name":"TD BANK FALMOUTH","stop_id":"247"},"type":"Feature"},{"geometry":{"coordinates":[-70.33585,43.67819],"type":"Point"},"properties":{"kind":"stop","name":"MAIN ST + LIZA HARMON DR","stop_id":"248"},"type":"Feature"},{"geometry":{"coordinates":[-70.24173,43.66544],"type":"Point"},"properties":{"kind":"stop","name":"EASTERN PROMENADE + VESPER ST","stop_id":"25"},"type":"Feature"},{"geometry":{"coordinates":[-70.29017,43.7063],"type":"Point"},"properties":{"kind":"stop","name":"AUBURN ST + CROQUET LN","stop_id":"251"},"type":"Feature"},{"geometry":{"coordinates":[-70.29259,43.68676],"type":"Point"},"properties":{"kind":"stop","name":"FOREST AVE + MORRILL ST","stop_id":"253"},"type":"Feature"},{"geometry":{"coordinates":[-70.33158,43.67755],"type":"Point"},"properties":{"kind":"stop","name":"MAIN ST + RIVERSIDE ST","stop_id":"254"},"type":"Feature"},{"geometry":{"coordinates":[-70.25401,43.66089],"type":"Point"},"properties":{"kind":"stop","name":"CONGRESS ST + FRANKLIN ST","stop_id":"255"},"type":"Feature"},{"geometry":{"coordinates":[-70.25967,43.65846],"type":"Point"},"properties":{"kind":"stop","name":"PULSE","stop_id":"256"},"type":"Feature"},{"geometry":{"coordinates":[-70.24209,43.72913],"type":"Point"},"properties":{"kind":"stop","name":"MIDDLE RD + FALMOUTH RD","stop_id":"257"},"type":"Feature"},{"geometry":{"coordinates":[-70.32763,43.63694],"type":"Point"},"properties":{"kind":"stop","name":"FODEN RD + DARLING AVE","stop_id":"258"},"type":"Feature"},{"geometry":{"coordinates":[-70.3189,43.65289],"type":"Point"},"properties":{"kind":"stop","name":"CONGRESS ST + 1945 CONGRESS ST","stop_id":"259"},"type":"Feature"},{"geometry":{"coordinates":[-70.2992,43.72028],"type":"Point"},"properties":{"kind":"stop","name":"WASHINGTON AVE + SUMMITT ST","stop_id":"26"},"type":"Feature"},{"geometry":{"coordinates":[-70.24411,43.66869],"type":"Point"},"properties":{"kind":"stop","name":"EASTERN PROMENADE + CONGRESS ST","stop_id":"261"},"type":"Feature"},{"geometry":{"coordinates":[-70.28186,43.69257],"type":"Point"},"properties":{"kind":"stop","name":"WASHINGTON AVE + HARVARD ST","stop_id":"262"},"type":"Feature"},{"geometry":{"coordinates":[-70.29533,43.66771],"type":"Point"},"properties":{"kind":"stop","name":"STEVENS AVE + PROSPECT ST","stop_id":"263"},"type":"Feature"},{"geometry":{"coordinates":[-70.28414,43.67075],"type":"Point"},"properties":{"kind":"stop","name":"WOODFORD O/B","stop_id":"264"},"type":"Feature"},{"geometry":{"coordinates":[-70.29537,43.70771],"type":"Point"},"properties":{"kind":"stop","name":"WASHINGTON AVE + GREENWOOD LN","stop_id":"265"},"type":"Feature"},{"geometry":{"coordinates":[-70.26406,43.66253],"type":"Point"},"properties":{"kind":"stop","name":"MARGINAL WAY + 87 MARGINAL WAY","stop_id":"268"},"type":"Feature"},{"geometry":{"coordinates":[-70.29446,43.67907],"type":"Point"},"properties":{"kind":"stop","name":"MOTHERHOUSE I/B","stop_id":"269"},"type":"Feature"},{"geometry":{"coordinates":[-70.28546,43.67345],"type":"Point"},"properties":{"kind":"stop","name":"FOREST AVE + PLEASANT ST","stop_id":"27"},"type":"Feature"},{"geometry":{"coordinates":[-70.26346,43.68321],"type":"Point"},"properties":{"kind":"stop","name":"WASHINGTON AVE + JOHANSEN ST","stop_id":"271"},"type":"Feature"},{"geometry":{"coordinates":[-70.25573,43.6571],"type":"Point"},"properties":{"kind":"stop","name":"MIDDLE ST + 188 MIDDLE ST","stop_id":"272"},"type":"Feature"},{"geometry":{"coordinates":[-70.30397,43.66953],"type":"Point"},"properties":{"kind":"stop","name":"BRIGHTON AVE + MACHIGONNE ST","stop_id":"274"},"type":"Feature"},{"geometry":{"coordinates":[-70.23477,43.72225],"type":"Point"},"properties":{"kind":"stop","name":"HAT TRICK DR + DEPOT RD","stop_id":"275"},"type":"Feature"},{"geometry":{"coordinates":[-70.30151,43.71594],"type":"Point"},"properties":{"kind":"stop","name":"WASHINGTON AVE + RIVERSIDE ST","stop_id":"276"},"type":"Feature"},{"geometry":{"coordinates":[-70.36292,43.68644],"type":"Point"},"properties":{"kind":"stop","name":"BRIDGE ST + FALMOUTH ST","stop_id":"277"},"type":"Feature"},{"geometry":{"coordinates":[-70.27453,43.66228],"type":"Point"},"properties":{"kind":"stop","name":"BEDFORD ST USM O/B","stop_id":"278"},"type":"Feature"},{"geometry":{"coordinates":[-70.29376,43.68449],"type":"Point"},"properties":{"kind":"stop","name":"STEVENS AVE + POLAND ST","stop_id":"279"},"type":"Feature"},{"geometry":{"coordinates":[-70.29225,43.71577],"type":"Point"},"properties":{"kind":"stop","name":"AUBURN ST + HILLSIDE ST","stop_id":"28"},"type":"Feature"},{"geometry":{"coordinates":[-70.36217,43.68397],"type":"Point"},"properties":{"kind":"stop","name":"MYRTLE ST + PRINCE ST","stop_id":"282"},"type":"Feature"},{"geometry":{"coordinates":[-70.31165,43.65843],"type":"Point"},"properties":{"kind":"stop","name":"CONGRESS ST + WALDO ST","stop_id":"283"},"type":"Feature"},{"geometry":{"coordinates":[-70.26252,43.65866],"type":"Point"},"properties":{"kind":"stop","name":"OXFORD ST + ALDER ST","stop_id":"284"},"type":"Feature"},{"geometry":{"coordinates":[-70.31162,43.65863],"type":"Point"},"properties":{"kind":"stop","name":"CONGRESS ST + 1717 CONGRESS ST","stop_id":"285"},"type":"Feature"},{"geometry":{"coordinates":[-70.35331,43.68005],"type":"Point"},"properties":{"kind":"stop","name":"MAIN ST + LOCUST ST","stop_id":"287"},"type":"Feature"},{"geometry":{"coordinates":[-70.29103,43.65776],"type":"Point"},"properties":{"kind":"stop","name":"CONGRESS ST + WHITNEY ST","stop_id":"288"},"type":"Feature"},{"geometry":{"coordinates":[-70.31874,43.65274],"type":"Point"},"properties":{"kind":"stop","name":"CONGRESS ST + INTERNATIONAL PKWY","stop_id":"289"},"type":"Feature"},{"geometry":{"coordinates":[-70.25428,43.68364],"type":"Point"},"properties":{"kind":"stop","name":"VERANDA ST + FAIRFIELD ST","stop_id":"29"},"type":"Feature"},{"geometry":{"coordinates":[-70.21385,43.72831],"type":"Point"},"properties":{"kind":"stop","name":"FORESIDE RD + RICKER RD","stop_id":"290"},"type":"Feature"},{"geometry":{"coordinates":[-70.2892,43.68001],"type":"Point"},"properties":{"kind":"stop","name":"FOREST AVE + WALTON ST","stop_id":"291"},"type":"Feature"},{"geometry":{"coordinates":[-70.28852,43.65691],"type":"Point"},"properties":{"kind":"stop","name":"CONGRESS ST + 1189 CONGRESS ST","stop_id":"292"},"type":"Feature"},{"geometry":{"coordinates":[-70.32604,43.64755],"type":"Point"},"properties":{"kind":"stop","name":"JETPORT ACCESS RD + JOHNSON RD","stop_id":"293"},"type":"Feature"},{"geometry":{"coordinates":[-70.29461,43.67616],"type":"Point"},"properties":{"kind":"stop","name":"STEVENS AVE + PERCIVAL ST","stop_id":"294"},"type":"Feature"},{"geometry":{"coordinates":[-70.21246,43.73131],"type":"Point"},"properties":{"kind":"stop","name":"FORESIDE RD + APPLEGATE LN","stop_id":"295"},"type":"Feature"},{"geometry":{"coordinates":[-70.34959,43.68119],"type":"Point"},"properties":{"kind":"stop","name":"MAIN ST + 458 MAIN ST","stop_id":"296"},"type":"Feature"},{"geometry":{"coordinates":[-70.20894,43.73413],"type":"Point"},"properties":{"kind":"stop","name":"FORESIDE RD + 266 FORESIDE RD","stop_id":"297"},"type":"Feature"},{"geometry":{"coordinates":[-70.28575,43.67353],"type":"Point"},"properties":{"kind":"stop","name":"FOREST AVE + PLEASANT ST","stop_id":"299"},"type":"Feature"},{"geometry":{"coordinates":[-70.27253,43.65409],"type":"Point"},"properties":{"kind":"stop","name":"CONGRESS ST + DEERING AVE","stop_id":"300"},"type":"Feature"},{"geometry":{"coordinates":[-70.2906,43.68299],"type":"Point"},"properties":{"kind":"stop","name":"FOREST AVE + 1037 FOREST AVE","stop_id":"301"},"type":"Feature"},{"geometry":{"coordinates":[-70.28648,43.67529],"type":"Point"},"properties":{"kind":"stop","name":"FOREST AVE + HARTLEY ST","stop_id":"303"},"type":"Feature"},{"geometry":{"coordinates":[-70.24583,43.66961],"type":"Point"},"properties":{"kind":"stop","name":"EASTERN PROMENADE + TURNER ST","stop_id":"304"},"type":"Feature"},{"geometry":{"coordinates":[-70.33552,43.65088],"type":"Point"},"properties":{"kind":"stop","name":"CONGRESS ST + HUTCHINS DR","stop_id":"306"},"type":"Feature"},{"geometry":{"coordinates":[-70.2571,43.65783],"type":"Point"},"properties":{"kind":"stop","name":"TEMPLE ST + FEDERAL ST","stop_id":"307"},"type":"Feature"},{"geometry":{"coordinates":[-70.27737,43.65594],"type":"Point"},"properties":{"kind":"stop","name":"PORTLAND EXPO/HADLOCK FIELD","stop_id":"308"},"type":"Feature"},{"geometry":{"coordinates":[-70.32551,43.64908],"type":"Point"},"properties":{"kind":"stop","name":"JOHNSON RD + 94 JOHNSON RD","stop_id":"309"},"type":"Feature"},{"geometry":{"coordinates":[-70.29498,43.67156],"type":"Point"},"properties":{"kind":"stop","name":"DEERING HS OUTBOUND","stop_id":"31"},"type":"Feature"},{"geometry":{"coordinates":[-70.29349,43.68508],"type":"Point"},"properties":{"kind":"stop","name":"STEVENS AVE + ARBOR ST","stop_id":"310"},"type":"Feature"},{"geometry":{"coordinates":[-70.31598,43.65515],"type":"Point"},"properties":{"kind":"stop","name":"CONGRESS ST + GARRISON ST","stop_id":"311"},"type":"Feature"},{"geometry":{"coordinates":[-70.29538,43.67357],"type":"Point"},"properties":{"kind":"stop","name":"STEVENS AVE + PLEASANT AVE","stop_id":"312"},"type":"Feature"},{"geometry":{"coordinates":[-70.26226,43.66044],"type":"Point"},"properties":{"kind":"stop","name":"ELM ST + LANCASTER ST","stop_id":"313"},"type":"Feature"},{"geometry":{"coordinates":[-70.29735,43.66025],"type":"Point"},"properties":{"kind":"stop","name":"STEVENS AVE + TWIN KNOLLS LN","stop_id":"314"},"type":"Feature"},{"geometry":{"coordinates":[-70.35155,43.68108],"type":"Point"},"properties":{"kind":"stop","name":"MAIN ST + TRAMWAY LN","stop_id":"318"},"type":"Feature"},{"geometry":{"coordinates":[-70.26729,43.65923],"type":"Point"},"properties":{"kind":"stop","name":"FOREST AVE + KENNEBEC ST","stop_id":"319"},"type":"Feature"},{"geometry":{"coordinates":[-70.34611,43.68091],"type":"Point"},"properties":{"kind":"stop","name":"MAIN ST + 380 MAIN ST","stop_id":"32"},"type":"Feature"},{"geometry":{"coordinates":[-70.26698,43.65745],"type":"Point"},"properties":{"kind":"stop","name":"PARK AVE + HIGH ST","stop_id":"320"},"type":"Feature"},{"geometry":{"coordinates":[-70.24915,43.65772],"type":"Point"},"properties":{"kind":"stop","name":"CASCO BAY LINES","stop_id":"321"},"type":"Feature"},{"geometry":{"coordinates":[-70.3601,43.68152],"type":"Point"},"properties":{"kind":"stop","name":"MYRTLE ST + BROWN ST","stop_id":"322"},"type":"Feature"},{"geometry":{"coordinates":[-70.2536,43.68455],"type":"Point"},"properties":{"kind":"stop","name":"VERANDA ST + HAWTHORNE ST","stop_id":"323"},"type":"Feature"},{"geometry":{"coordinates":[-70.29383,43.68256],"type":"Point"},"properties":{"kind":"stop","name":"STEVENS AVE + ELMWOOD ST","stop_id":"324"},"type":"Feature"},{"geometry":{"coordinates":[-70.37278,43.67028],"type":"Point"},"properties":{"kind":"stop","name":"PROSPECT ST + SACO ST","stop_id":"325"},"type":"Feature"},{"geometry":{"coordinates":[-70.25583,43.66144],"type":"Point"},"properties":{"kind":"stop","name":"FRANKLIN TOWERS","stop_id":"327"},"type":"Feature"},{"geometry":{"coordinates":[-70.25635,43.68149],"type":"Point"},"properties":{"kind":"stop","name":"VERANDA ST + SHERWOOD ST","stop_id":"328"},"type":"Feature"},{"geometry":{"coordinates":[-70.26588,43.68446],"type":"Point"},"properties":{"kind":"stop","name":"WASHINGTON AVE + W. KIDDER ST","stop_id":"33"},"type":"Feature"},{"geometry":{"coordinates":[-70.32824,43.64181],"type":"Point"},"properties":{"kind":"stop","name":"WESTERN AVE + 371 WESTERN AVE","stop_id":"330"},"type":"Feature"},{"geometry":{"coordinates":[-70.36134,43.67691],"type":"Point"},"properties":{"kind":"stop","name":"MAIN ST + 741 MAIN ST","stop_id":"331"},"type":"Feature"},{"geometry":{"coordinates":[-70.24811,43.68809],"type":"Point"},"properties":{"kind":"stop","name":"VERANDA ST + MARINE HOSPITAL RD","stop_id":"332"},"type":"Feature"},{"geometry":{"coordinates":[-70.31158,43.69885],"type":"Point"},"properties":{"kind":"stop","name":"FOREST AVE + BAILEY ST","stop_id":"333"},"type":"Feature"},{"geometry":{"coordinates":[-70.26108,43.682],"type":"Point"},"properties":{"kind":"stop","name":"WASHINGTON AVE + W. PRESUMPSCOT ST WEST","stop_id":"335"},"type":"Feature"},{"geometry":{"coordinates":[-70.26078,43.65811],"type":"Point"},"properties":{"kind":"stop","name":"PREBLE ST + CUMBERLAND AVE","stop_id":"336"},"type":"Feature"},{"geometry":{"coordinates":[-70.21291,43.72955],"type":"Point"},"properties":{"kind":"stop","name":"FORESIDE RD + 213 FORESIDE RD","stop_id":"337"},"type":"Feature"},{"geometry":{"coordinates":[-70.30928,43.64937],"type":"Point"},"properties":{"kind":"stop","name":"WESTBROOK ST + 1025 WESTBROOK ST","stop_id":"338"},"type":"Feature"},{"geometry":{"coordinates":[-70.36127,43.67676],"type":"Point"},"properties":{"kind":"stop","name":"MAIN ST + STROUDWATER ST","stop_id":"339"},"type":"Feature"},{"geometry":{"coordinates":[-70.30136,43.66855],"type":"Point"},"properties":{"kind":"stop","name":"ROSEMONT CORNER I/B","stop_id":"340"},"type":"Feature"},{"geometry":{"coordinates":[-70.26296,43.65982],"type":"Point"},"properties":{"kind":"stop","name":"PREBLE ST + LANCASTER ST","stop_id":"341"},"type":"Feature"},{"geometry":{"coordinates":[-70.28679,43.67546],"type":"Point"},"properties":{"kind":"stop","name":"FOREST AVE + HARTLEY ST","stop_id":"343"},"type":"Feature"},{"geometry":{"coordinates":[-70.29044,43.70825],"type":"Point"},"properties":{"kind":"stop","name":"AUBURN ST + BARTLEY ST","stop_id":"344"},"type":"Feature"},{"geometry":{"coordinates":[-70.29171,43.71356],"type":"Point"},"properties":{"kind":"stop","name":"AUBURN ST + JACKSON ST","stop_id":"347"},"type":"Feature"},{"geometry":{"coordinates":[-70.2943,43.67872],"type":"Point"},"properties":{"kind":"stop","name":"MOTHERHOUSE O/B","stop_id":"349"},"type":"Feature"},{"geometry":{"coordinates":[-70.25639,43.68163],"type":"Point"},"properties":{"kind":"stop","name":"VERANDA ST + SHERWOOD ST","stop_id":"35"},"type":"Feature"},{"geometry":{"coordinates":[-70.23763,43.70517],"type":"Point"},"properties":{"kind":"stop","name":"ROUTE 1 + GILSLAND FARM RD","stop_id":"351"},"type":"Feature"},{"geometry":{"coordinates":[-70.2933,43.68672],"type":"Point"},"properties":{"kind":"stop","name":"STEVENS AVE + 825 STEVENS AVE","stop_id":"352"},"type":"Feature"},{"geometry":{"coordinates":[-70.28894,43.67997],"type":"Point"},"properties":{"kind":"stop","name":"FOREST AVE + WALTON ST","stop_id":"353"},"type":"Feature"},{"geometry":{"coordinates":[-70.25187,43.66247],"type":"Point"},"properties":{"kind":"stop","name":"CONGRESS ST + INDIA ST","stop_id":"354"},"type":"Feature"},{"geometry":{"coordinates":[-70.29692,43.66693],"type":"Point"},"properties":{"kind":"stop","name":"BRIGHTON AVE + 460 BRIGHTON AVE","stop_id":"355"},"type":"Feature"},{"geometry":{"coordinates":[-70.27811,43.65377],"type":"Point"},"properties":{"kind":"stop","name":"CONGRESS ST + VALLEY ST","stop_id":"357"},"type":"Feature"},{"geometry":{"coordinates":[-70.24004,43.70039],"type":"Point"},"properties":{"kind":"stop","name":"ROUTE 1 + WINSLOW RD","stop_id":"359"},"type":"Feature"},{"geometry":{"coordinates":[-70.26199,43.66378],"type":"Point"},"properties":{"kind":"stop","name":"MARGINAL WAY + 161 MARGINAL WAY","stop_id":"360"},"type":"Feature"},{"geometry":{"coordinates":[-70.27911,43.65577],"type":"Point"},"properties":{"kind":"stop","name":"PARK AVE + GILMAN ST","stop_id":"361"},"type":"Feature"},{"geometry":{"coordinates":[-70.32749,43.65122],"type":"Point"},"properties":{"kind":"stop","name":"CONGRESS ST + UNUM WEST","stop_id":"363"},"type":"Feature"},{"geometry":{"coordinates":[-70.2875,43.6989],"type":"Point"},"properties":{"kind":"stop","name":"WASHINGTON AVE + 1364 WASHINGTON AVE","stop_id":"364"},"type":"Feature"},{"geometry":{"coordinates":[-70.29436,43.689],"type":"Point"},"properties":{"kind":"stop","name":"FOREST AVE + ALLEN AVE","stop_id":"365"},"type":"Feature"},{"geometry":{"coordinates":[-70.28457,43.69526],"type":"Point"},"properties":{"kind":"stop","name":"WASHINGTON AVE + BERNARD RD","stop_id":"366"},"type":"Feature"},{"geometry":{"coordinates":[-70.31058,43.65158],"type":"Point"},"properties":{"kind":"stop","name":"WESTBROOK ST + 1050 WESTBROOK ST","stop_id":"367"},"type":"Feature"},{"geometry":{"coordinates":[-70.3326,43.63286],"type":"Point"},"properties":{"kind":"stop","name":"MAINE MALL JC PENNEY","stop_id":"368"},"type":"Feature"},{"geometry":{"coordinates":[-70.26838,43.66382],"type":"Point"},"properties":{"kind":"stop","name":"BACK COVE HANNAFORD","stop_id":"369"},"type":"Feature"},{"geometry":{"coordinates":[-70.29339,43.69024],"type":"Point"},"properties":{"kind":"stop","name":"ALLEN AVE + 50 ALLEN AVE","stop_id":"37"},"type":"Feature"},{"geometry":{"coordinates":[-70.32733,43.65108],"type":"Point"},"properties":{"kind":"stop","name":"UNUM I/B","stop_id":"370"},"type":"Feature"},{"geometry":{"coordinates":[-70.21732,43.73864],"type":"Point"},"properties":{"kind":"stop","name":"JOHNSON RD + VALLEY AVE","stop_id":"371"},"type":"Feature"},{"geometry":{"coordinates":[-70.28118,43.66232],"type":"Point"},"properties":{"kind":"stop","name":"BRIGHTON AVE + KENWOOD ST","stop_id":"374"},"type":"Feature"},{"geometry":{"coordinates":[-70.23915,43.70244],"type":"Point"},"properties":{"kind":"stop","name":"ROUTE 1 + FORESIDE COMMON RD","stop_id":"375"},"type":"Feature"},{"geometry":{"coordinates":[-70.29047,43.70756],"type":"Point"},"properties":{"kind":"stop","name":"AUBURN ST + 206 AUBURN ST","stop_id":"377"},"type":"Feature"},{"geometry":{"coordinates":[-70.29156,43.65414],"type":"Point"},"properties":{"kind":"stop","name":"PTC O/B","stop_id":"378"},"type":"Feature"},{"geometry":{"coordinates":[-70.23425,43.71012],"type":"Point"},"properties":{"kind":"stop","name":"ROUTE 1 + ROUTE 88","stop_id":"379"},"type":"Feature"},{"geometry":{"coordinates":[-70.29348,43.68912],"type":"Point"},"properties":{"kind":"stop","name":"ALLEN AVE + FOREST AVE","stop_id":"38"},"type":"Feature"},{"geometry":{"coordinates":[-70.29184,43.66539],"type":"Point"},"properties":{"kind":"stop","name":"BRIGHTON MEDICAL CTR I/B","stop_id":"380"},"type":"Feature"},{"geometry":{"coordinates":[-70.37639,43.6648],"type":"Point"},"properties":{"kind":"stop","name":"SACO ST + EISENHOWER DR","stop_id":"381"},"type":"Feature"},{"geometry":{"coordinates":[-70.22992,43.72526],"type":"Point"},"properties":{"kind":"stop","name":"ROUTE 1 + 251 ROUTE 1","stop_id":"382"},"type":"Feature"},{"geometry":{"coordinates":[-70.29358,43.72184],"type":"Point"},"properties":{"kind":"stop","name":"AUBURN ST + GARSOE DR","stop_id":"384"},"type":"Feature"},{"geometry":{"coordinates":[-70.22904,43.72],"type":"Point"},"properties":{"kind":"stop","name":"DEPOT RD + 13 DEPOT RD","stop_id":"385"},"type":"Feature"},{"geometry":{"coordinates":[-70.25219,43.66531],"type":"Point"},"properties":{"kind":"stop","name":"WASHINGTON AVE + OXFORD ST","stop_id":"387"},"type":"Feature"},{"geometry":{"coordinates":[-70.29686,43.65962],"type":"Point"},"properties":{"kind":"stop","name":"WESTGATE","stop_id":"388"},"type":"Feature"},{"geometry":{"coordinates":[-70.27116,43.6569],"type":"Point"},"properties":{"kind":"stop","name":"PARK AVE + MELLEN ST","stop_id":"389"},"type":"Feature"},{"geometry":{"coordinates":[-70.29604,43.6588],"type":"Point"},"properties":{"kind":"stop","name":"WESTGATE I/B","stop_id":"39"},"type":"Feature"},{"geometry":{"coordinates":[-70.27286,43.68811],"type":"Point"},"properties":{"kind":"stop","name":"WASHINGTON AVE + PHEASANT HILL DR","stop_id":"391"},"type":"Feature"},{"geometry":{"coordinates":[-70.28371,43.64902],"type":"Point"},"properties":{"kind":"stop","name":"MERCY AT THE FORE","stop_id":"392"},"type":"Feature"},{"geometry":{"coordinates":[-70.30562,43.65967],"type":"Point"},"properties":{"kind":"stop","name":"CONGRESS ST + 1577 CONGRESS ST","stop_id":"395"},"type":"Feature"},{"geometry":{"coordinates":[-70.25239,43.66972],"type":"Point"},"properties":{"kind":"stop","name":"NORTH ST + 143 NORTH ST","stop_id":"397"},"type":"Feature"},{"geometry":{"coordinates":[-70.35768,43.67842],"type":"Point"},"properties":{"kind":"stop","name":"MAIN ST + RIVERBANK PARK","stop_id":"398"},"type":"Feature"},{"geometry":{"coordinates":[-70.25114,43.68648],"type":"Point"},"properties":{"kind":"stop","name":"VERANDA ST + OLYMPIA ST","stop_id":"4"},"type":"Feature"},{"geometry":{"coordinates":[-70.31832,43.65261],"type":"Point"},"properties":{"kind":"stop","name":"INTERNATIONAL PKWY + CONGRESS ST","stop_id":"40"},"type":"Feature"},{"geometry":{"coordinates":[-70.32908,43.64216],"type":"Point"},"properties":{"kind":"stop","name":"WESTERN AVE + 400 WESTERN AVE","stop_id":"400"},"type":"Feature"},{"geometry":{"coordinates":[-70.29399,43.73397],"type":"Point"},"properties":{"kind":"stop","name":"WEST FALMOUTH HANNAFORD","stop_id":"401"},"type":"Feature"},{"geometry":{"coordinates":[-70.23363,43.71362],"type":"Point"},"properties":{"kind":"stop","name":"ROUTE 1 + 172 ROUTE 1","stop_id":"402"},"type":"Feature"},{"geometry":{"coordinates":[-70.29237,43.68593],"type":"Point"},"properties":{"kind":"stop","name":"FOREST AVE + 1124 FOREST AVE","stop_id":"403"},"type":"Feature"},{"geometry":{"coordinates":[-70.29784,43.66241],"type":"Point"},"properties":{"kind":"stop","name":"STEVENS AVE + ANSON ST","stop_id":"405"},"type":"Feature"},{"geometry":{"coordinates":[-70.29981,43.71903],"type":"Point"},"properties":{"kind":"stop","name":"WASHINGTON AVE + STONECREST DR","stop_id":"406"},"type":"Feature"},{"geometry":{"coordinates":[-70.26148,43.65304],"type":"Point"},"properties":{"kind":"stop","name":"HIGH ST + SPRING ST","stop_id":"408"},"type":"Feature"},{"geometry":{"coordinates":[-70.25047,43.66365],"type":"Point"},"properties":{"kind":"stop","name":"CONGRESS ST + 206 CONGRESS ST","stop_id":"409"},"type":"Feature"},{"geometry":{"coordinates":[-70.32529,43.63946],"type":"Point"},"properties":{"kind":"stop","name":"WESTERN AVE + FODEN RD","stop_id":"41"},"type":"Feature"},{"geometry":{"coordinates":[-70.33394,43.65078],"type":"Point"},"properties":{"kind":"stop","name":"CONGRESS ST + BLUEBERRY LN","stop_id":"410"},"type":"Feature"},{"geometry":{"coordinates":[-70.32892,43.63445],"type":"Point"},"properties":{"kind":"stop","name":"HANNAFORD MAINE MALL","stop_id":"411"},"type":"Feature"},{"geometry":{"coordinates":[-70.28103,43.65587],"type":"Point"},"properties":{"kind":"stop","name":"PARK AVE + ST JOHN ST","stop_id":"412"},"type":"Feature"},{"geometry":{"coordinates":[-70.31443,43.69922],"type":"Point"},"properties":{"kind":"stop","name":"FOREST AVE + CASTINE AVE","stop_id":"413"},"type":"Feature"},{"geometry":{"coordinates":[-70.29025,43.70226],"type":"Point"},"properties":{"kind":"stop","name":"WASHINGTON AVE + 1476 WASHINGTON AVE","stop_id":"414"},"type":"Feature"},{"geometry":{"coordinates":[-70.26714,43.64664],"type":"Point"},"properties":{"kind":"stop","name":"HARBOR TERRACE","stop_id":"415"},"type":"Feature"},{"geometry":{"coordinates":[-70.29512,43.67438],"type":"Point"},"properties":{"kind":"stop","name":"STEVENS AVE + PLEASANT AVE","stop_id":"416"},"type":"Feature"},{"geometry":{"coordinates":[-70.26389,43.6493],"type":"Point"},"properties":{"kind":"stop","name":"BRACKETT ST + GRAY ST","stop_id":"417"},"type":"Feature"},{"geometry":{"coordinates":[-70.2442,43.66485],"type":"Point"},"properties":{"kind":"stop","name":"ATLANTIC ST + 27 ATLANTIC ST","stop_id":"419"},"type":"Feature"},{"geometry":{"coordinates":[-70.33634,43.65071],"type":"Point"},"properties":{"kind":"stop","name":"CONGRESS ST + HUTCHINS DR","stop_id":"42"},"type":"Feature"},{"geometry":{"coordinates":[-70.3038,43.69523],"type":"Point"},"properties":{"kind":"stop","name":"FOREST AVE + LIBBY ST","stop_id":"420"},"type":"Feature"},{"geometry":{"coordinates":[-70.23744,43.70502],"type":"Point"},"properties":{"kind":"stop","name":"ROUTE 1 + GILSLAND  FARM RD","stop_id":"421"},"type":"Feature"},{"geometry":{"coordinates":[-70.34667,43.6813],"type":"Point"},"properties":{"kind":"stop","name":"MAIN ST + 389 MAIN ST","stop_id":"422"},"type":"Feature"},{"geometry":{"coordinates":[-70.2837,43.6702],"type":"Point"},"properties":{"kind":"stop","name":"WOODFORD I/B","stop_id":"423"},"type":"Feature"},{"geometry":{"coordinates":[-70.28916,43.70182],"type":"Point"},"properties":{"kind":"stop","name":"AUBURN ST + 46 AUBURN ST","stop_id":"424"},"type":"Feature"},{"geometry":{"coordinates":[-70.21303,43.73731],"type":"Point"},"properties":{"kind":"stop","name":"JOHNSON RD + 44 JOHNSON RD","stop_id":"425"},"type":"Feature"},{"geometry":{"coordinates":[-70.24021,43.72911],"type":"Point"},"properties":{"kind":"stop","name":"BUCKNAM RD + 119 BUCKNAM RD","stop_id":"426"},"type":"Feature"},{"geometry":{"coordinates":[-70.22146,43.73901],"type":"Point"},"properties":{"kind":"stop","name":"ROUTE 1 + 374 ROUTE 1","stop_id":"427"},"type":"Feature"},{"geometry":{"coordinates":[-70.25247,43.66619],"type":"Point"},"properties":{"kind":"stop","name":"WASHINGTON AVE + MARION ST","stop_id":"428"},"type":"Feature"},{"geometry":{"coordinates":[-70.27778,43.64922],"type":"Point"},"properties":{"kind":"stop","name":"VALLEY ST + D ST","stop_id":"429"},"type":"Feature"},{"geometry":{"coordinates":[-70.29272,43.69192],"type":"Point"},"properties":{"kind":"stop","name":"ALLEN AVE + 97 ALLEN AVE","stop_id":"43"},"type":"Feature"},{"geometry":{"coordinates":[-70.23902,43.70211],"type":"Point"},"properties":{"kind":"stop","name":"ROUTE 1 + FORESIDE COMMON RD","stop_id":"431"},"type":"Feature"},{"geometry":{"coordinates":[-70.25342,43.65825],"type":"Point"},"properties":{"kind":"stop","name":"MIDDLE ST + PEARL ST","stop_id":"432"},"type":"Feature"},{"geometry":{"coordinates":[-70.24817,43.66575],"type":"Point"},"properties":{"kind":"stop","name":"CONGRESS ST + NORTH ST","stop_id":"433"},"type":"Feature"},{"geometry":{"coordinates":[-70.24941,43.68743],"type":"Point"},"properties":{"kind":"stop","name":"VERANDA ST + OREGON ST","stop_id":"434"},"type":"Feature"},{"geometry":{"coordinates":[-70.34447,43.68034],"type":"Point"},"properties":{"kind":"stop","name":"MAIN ST + MASON ST","stop_id":"435"},"type":"Feature"},{"geometry":{"coordinates":[-70.32336,43.67506],"type":"Point"},"properties":{"kind":"stop","name":"BRIGHTON AVE + TAFT AVE","stop_id":"436"},"type":"Feature"},{"geometry":{"coordinates":[-70.29307,43.71836],"type":"Point"},"properties":{"kind":"stop","name":"AUBURN ST + SUMMIT ST","stop_id":"437"},"type":"Feature"},{"geometry":{"coordinates":[-70.25983,43.65183],"type":"Point"},"properties":{"kind":"stop","name":"DANFORTH ST + HIGH ST","stop_id":"438"},"type":"Feature"},{"geometry":{"coordinates":[-70.29094,43.70938],"type":"Point"},"properties":{"kind":"stop","name":"AUBURN ST + 246 AUBURN ST","stop_id":"439"},"type":"Feature"},{"geometry":{"coordinates":[-70.27056,43.6568],"type":"Point"},"properties":{"kind":"stop","name":"PARK AVE + MELLEN ST","stop_id":"44"},"type":"Feature"},{"geometry":{"coordinates":[-70.24847,43.65915],"type":"Point"},"properties":{"kind":"stop","name":"COMMERCIAL ST + INDIA ST","stop_id":"440"},"type":"Feature"},{"geometry":{"coordinates":[-70.26804,43.65012],"type":"Point"},"properties":{"kind":"stop","name":"PINE ST + LEWIS ST","stop_id":"441"},"type":"Feature"},{"geometry":{"coordinates":[-70.31911,43.64717],"type":"Point"},"properties":{"kind":"stop","name":"DHHS I/B","stop_id":"443"},"type":"Feature"},{"geometry":{"coordinates":[-70.28434,43.66343],"type":"Point"},"properties":{"kind":"stop","name":"BRIGHTON AVE + NOYES ST","stop_id":"444"},"type":"Feature"},{"geometry":{"coordinates":[-70.29512,43.66903],"type":"Point"},"properties":{"kind":"stop","name":"STEVENS AVE + MONTROSE ST","stop_id":"445"},"type":"Feature"},{"geometry":{"coordinates":[-70.29461,43.65869],"type":"Point"},"properties":{"kind":"stop","name":"CONGRESS ST + 1329 CONGRESS ST","stop_id":"446"},"type":"Feature"},{"geometry":{"coordinates":[-70.24449,43.72454],"type":"Point"},"properties":{"kind":"stop","name":"MIDDLE RD + LUNT RD","stop_id":"447"},"type":"Feature"},{"geometry":{"coordinates":[-70.30773,43.69726],"type":"Point"},"properties":{"kind":"stop","name":"FOREST AVE + NEWTON ST","stop_id":"448"},"type":"Feature"},{"geometry":{"coordinates":[-70.27538,43.65612],"type":"Point"},"properties":{"kind":"stop","name":"IRIS NETWORK","stop_id":"45"},"type":"Feature"},{"geometry":{"coordinates":[-70.32554,43.67576],"type":"Point"},"properties":{"kind":"stop","name":"BARRON CENTER I/B","stop_id":"450"},"type":"Feature"},{"geometry":{"coordinates":[-70.26966,43.65315],"type":"Point"},"properties":{"kind":"stop","name":"CONGRESS ST + MELLEN ST","stop_id":"452"},"type":"Feature"},{"geometry":{"coordinates":[-70.364,43.67639],"type":"Point"},"properties":{"kind":"stop","name":"MAIN ST + 795 MAIN ST","stop_id":"453"},"type":"Feature"},{"geometry":{"coordinates":[-70.25238,43.66226],"type":"Point"},"properties":{"kind":"stop","name":"CONGRESS ST + INDIA ST","stop_id":"455"},"type":"Feature"},{"geometry":{"coordinates":[-70.25889,43.68086],"type":"Point"},"properties":{"kind":"stop","name":"WASHINGTON AVE + GALVIN ST","stop_id":"456"},"type":"Feature"},{"geometry":{"coordinates":[-70.27539,43.68941],"type":"Point"},"properties":{"kind":"stop","name":"WASHINGTON AVE + 975 WASHINGTON AVE","stop_id":"457"},"type":"Feature"},{"geometry":{"coordinates":[-70.36463,43.68009],"type":"Point"},"properties":{"kind":"stop","name":"BROWN ST + WALKER ST","stop_id":"458"},"type":"Feature"},{"geometry":{"coordinates":[-70.24141,43.69821],"type":"Point"},"properties":{"kind":"stop","name":"ROUTE 1 + GREENWAY DR","stop_id":"46"},"type":"Feature"},{"geometry":{"coordinates":[-70.25155,43.72136],"type":"Point"},"properties":{"kind":"stop","name":"BLUEBERRY LN + 29 BLUEBERRY LN","stop_id":"460"},"type":"Feature"},{"geometry":{"coordinates":[-70.20874,43.73505],"type":"Point"},"properties":{"kind":"stop","name":"JOHNSON RD + FORESIDE RD","stop_id":"461"},"type":"Feature"},{"geometry":{"coordinates":[-70.27565,43.68972],"type":"Point"},"properties":{"kind":"stop","name":"WASHINGTON AVE + MALILLY RD","stop_id":"462"},"type":"Feature"},{"geometry":{"coordinates":[-70.3415,43.6795],"type":"Point"},"properties":{"kind":"stop","name":"MAIN ST + DEER HILL AVE","stop_id":"464"},"type":"Feature"},{"geometry":{"coordinates":[-70.2796,43.65396],"type":"Point"},"properties":{"kind":"stop","name":"ST JOHN ST + 325 ST JOHN ST","stop_id":"465"},"type":"Feature"},{"geometry":{"coordinates":[-70.27465,43.66492],"type":"Point"},"properties":{"kind":"stop","name":"FOREST AVE + PREBLE ST EXT","stop_id":"466"},"type":"Feature"},{"geometry":{"coordinates":[-70.27371,43.65624],"type":"Point"},"properties":{"kind":"stop","name":"PARK AVE + DEERING AVE","stop_id":"467"},"type":"Feature"},{"geometry":{"coordinates":[-70.29848,43.65865],"type":"Point"},"properties":{"kind":"stop","name":"CONGRESS ST + 1412 CONGRESS ST","stop_id":"469"},"type":"Feature"},{"geometry":{"coordinates":[-70.26159,43.65874],"type":"Point"},"properties":{"kind":"stop","name":"PREBLE ST + PORTLAND ST","stop_id":"472"},"type":"Feature"},{"geometry":{"coordinates":[-70.2807,43.66839],"type":"Point"},"properties":{"kind":"stop","name":"FOREST AVE + 550 FOREST AVE","stop_id":"473"},"type":"Feature"},{"geometry":{"coordinates":[-70.28415,43.66321],"type":"Point"},"properties":{"kind":"stop","name":"BRIGHTON AVE + DARTMOUTH ST","stop_id":"474"},"type":"Feature"},{"geometry":{"coordinates":[-70.23365,43.71499],"type":"Point"},"properties":{"kind":"stop","name":"ROUTE 1 + 178 ROUTE 1","stop_id":"475"},"type":"Feature"},{"geometry":{"coordinates":[-70.27265,43.65394],"type":"Point"},"properties":{"kind":"stop","name":"CONGRESS ST + BRAMHALL ST","stop_id":"476"},"type":"Feature"},{"geometry":{"coordinates":[-70.29468,43.72603],"type":"Point"},"properties":{"kind":"stop","name":"GRAY RD + 18 GRAY RD","stop_id":"478"},"type":"Feature"},{"geometry":{"coordinates":[-70.26437,43.65115],"type":"Point"},"properties":{"kind":"stop","name":"SPRING ST + STATE ST","stop_id":"480"},"type":"Feature"},{"geometry":{"coordinates":[-70.31146,43.69868],"type":"Point"},"properties":{"kind":"stop","name":"FOREST AVE + BAILEY ST","stop_id":"481"},"type":"Feature"},{"geometry":{"coordinates":[-70.29535,43.68925],"type":"Point"},"properties":{"kind":"stop","name":"FOREST AVE + 1250 FOREST AVE","stop_id":"482"},"type":"Feature"},{"geometry":{"coordinates":[-70.23398,43.71284],"type":"Point"},"properties":{"kind":"stop","name":"ROUTE 1 + 170 ROUTE 1","stop_id":"483"},"type":"Feature"},{"geometry":{"coordinates":[-70.32033,43.7006],"type":"Point"},"properties":{"kind":"stop","name":"RIVERTON PARK O/B","stop_id":"485"},"type":"Feature"},{"geometry":{"coordinates":[-70.29722,43.6672],"type":"Point"},"properties":{"kind":"stop","name":"BRIGHTON AVE + BELFIELD ST","stop_id":"486"},"type":"Feature"},{"geometry":{"coordinates":[-70.27479,43.65076],"type":"Point"},"properties":{"kind":"stop","name":"WEST ST + CHADWICK ST","stop_id":"487"},"type":"Feature"},{"geometry":{"coordinates":[-70.29009,43.65727],"type":"Point"},"properties":{"kind":"stop","name":"CONGRESS ST + SEWALL ST","stop_id":"488"},"type":"Feature"},{"geometry":{"coordinates":[-70.29672,43.68995],"type":"Point"},"properties":{"kind":"stop","name":"FOREST AVE + 1300 FOREST AVE","stop_id":"49"},"type":"Feature"},{"geometry":{"coordinates":[-70.26495,43.65349],"type":"Point"},"properties":{"kind":"stop","name":"CONGRESS ST + PARK ST","stop_id":"490"},"type":"Feature"},{"geometry":{"coordinates":[-70.31516,43.64911],"type":"Point"},"properties":{"kind":"stop","name":"JETPORT HILTON I/B","stop_id":"491"},"type":"Feature"},{"geometry":{"coordinates":[-70.24207,43.66742],"type":"Point"},"properties":{"kind":"stop","name":"EASTERN PROMENADE + WILSON ST","stop_id":"492"},"type":"Feature"},{"geometry":{"coordinates":[-70.27932,43.65207],"type":"Point"},"properties":{"kind":"stop","name":"ST JOHN ST + 274 ST JOHN ST","stop_id":"494"},"type":"Feature"},{"geometry":{"coordinates":[-70.26762,43.65313],"type":"Point"},"properties":{"kind":"stop","name":"CONGRESS ST + STATE ST","stop_id":"495"},"type":"Feature"},{"geometry":{"coordinates":[-70.29381,43.72124],"type":"Point"},"properties":{"kind":"stop","name":"WASHINGTON AVE + AUBURN ST","stop_id":"496"},"type":"Feature"},{"geometry":{"coordinates":[-70.25126,43.66316],"type":"Point"},"properties":{"kind":"stop","name":"CONGRESS ST + WASHINGTON AVE","stop_id":"497"},"type":"Feature"},{"geometry":{"coordinates":[-70.25828,43.65799],"type":"Point"},"properties":{"kind":"stop","name":"CONGRESS ST + ELM ST","stop_id":"498"},"type":"Feature"},{"geometry":{"coordinates":[-70.25663,43.65902],"type":"Point"},"properties":{"kind":"stop","name":"CONGRESS ST + EXCHANGE ST","stop_id":"499"},"type":"Feature"},{"geometry":{"coordinates":[-70.23047,43.72364],"type":"Point"},"properties":{"kind":"stop","name":"FALMOUTH SHAWS","stop_id":"500"},"type":"Feature"},{"geometry":{"coordinates":[-70.31971,43.70013],"type":"Point"},"properties":{"kind":"stop","name":"RIVERTON PARK","stop_id":"501"},"type":"Feature"},{"geometry":{"coordinates":[-70.36241,43.68684],"type":"Point"},"properties":{"kind":"stop","name":"BRIDGE ST + EVERETT ST","stop_id":"502"},"type":"Feature"},{"geometry":{"coordinates":[-70.31789,43.67396],"type":"Point"},"properties":{"kind":"stop","name":"BRIGHTON AVE + WARWICK ST","stop_id":"503"},"type":"Feature"},{"geometry":{"coordinates":[-70.25723,43.65893],"type":"Point"},"properties":{"kind":"stop","name":"PORTLAND CITY HALL","stop_id":"504"},"type":"Feature"},{"geometry":{"coordinates":[-70.26903,43.68617],"type":"Point"},"properties":{"kind":"stop","name":"WASHINGTON AVE + OCEAN AVE","stop_id":"505"},"type":"Feature"},{"geometry":{"coordinates":[-70.28378,43.65589],"type":"Point"},"properties":{"kind":"stop","name":"PARK AVE + ST JAMES ST","stop_id":"506"},"type":"Feature"},{"geometry":{"coordinates":[-70.29806,43.6636],"type":"Point"},"properties":{"kind":"stop","name":"STEVENS AVE + REDLON ST","stop_id":"507"},"type":"Feature"},{"geometry":{"coordinates":[-70.32152,43.67435],"type":"Point"},"properties":{"kind":"stop","name":"BRIGHTON AVE + RAND RD","stop_id":"509"},"type":"Feature"},{"geometry":{"coordinates":[-70.29345,43.70623],"type":"Point"},"properties":{"kind":"stop","name":"WASHINGTON AVE + REGAN LN","stop_id":"51"},"type":"Feature"},{"geometry":{"coordinates":[-70.30132,43.69348],"type":"Point"},"properties":{"kind":"stop","name":"FOREST AVE + WALL ST","stop_id":"510"},"type":"Feature"},{"geometry":{"coordinates":[-70.3157,43.65515],"type":"Point"},"properties":{"kind":"stop","name":"CONGRESS ST + GARRISON ST","stop_id":"511"},"type":"Feature"},{"geometry":{"coordinates":[-70.26117,43.6822],"type":"Point"},"properties":{"kind":"stop","name":"WASHINGTON AVE + PRESUMPSCOT ST","stop_id":"512"},"type":"Feature"},{"geometry":{"coordinates":[-70.25905,43.65758],"type":"Point"},"properties":{"kind":"stop","name":"PORTLAND PUBLIC LIBRARY","stop_id":"513"},"type":"Feature"},{"geometry":{"coordinates":[-70.31497,43.64949],"type":"Point"},"properties":{"kind":"stop","name":"JETPORT BLVD + GARDEN INN O/B","stop_id":"514"},"type":"Feature"},{"geometry":{"coordinates":[-70.30852,43.67124],"type":"Point"},"properties":{"kind":"stop","name":"BRIGHTON AVE + LUCAS ST","stop_id":"515"},"type":"Feature"},{"geometry":{"coordinates":[-70.25794,43.66016],"type":"Point"},"properties":{"kind":"stop","name":"CUMBERLAND AVE + 255 CUMBERLAND AVE","stop_id":"517"},"type":"Feature"},{"geometry":{"coordinates":[-70.27289,43.68836],"type":"Point"},"properties":{"kind":"stop","name":"WASHINGTON AVE + PHEASANT HILL DR","stop_id":"518"},"type":"Feature"},{"geometry":{"coordinates":[-70.31055,43.64752],"type":"Point"},"properties":{"kind":"stop","name":"PORTLAND JETPORT","stop_id":"519"},"type":"Feature"},{"geometry":{"coordinates":[-70.28969,43.70414],"type":"Point"},"properties":{"kind":"stop","name":"AUBURN ST + SANBORN ST","stop_id":"52"},"type":"Feature"},{"geometry":{"coordinates":[-70.35992,43.68158],"type":"Point"},"properties":{"kind":"stop","name":"MYRTLE ST + BROWN ST","stop_id":"520"},"type":"Feature"},{"geometry":{"coordinates":[-70.27664,43.66612],"type":"Point"},"properties":{"kind":"stop","name":"FOREST AVE PLAZA O/B","stop_id":"522"},"type":"Feature"},{"geometry":{"coordinates":[-70.30825,43.67129],"type":"Point"},"properties":{"kind":"stop","name":"BRIGHTON AVE + WAYSIDE RD","stop_id":"524"},"type":"Feature"},{"geometry":{"coordinates":[-70.30241,43.65876],"type":"Point"},"properties":{"kind":"stop","name":"CONGRESS ST + HOBART ST","stop_id":"527"},"type":"Feature"},{"geometry":{"coordinates":[-70.29229,43.71513],"type":"Point"},"properties":{"kind":"stop","name":"AUBURN ST + LAMBERT ST","stop_id":"528"},"type":"Feature"},{"geometry":{"coordinates":[-70.29067,43.71397],"type":"Point"},"properties":{"kind":"stop","name":"JACKSON ST + KENNETH ST","stop_id":"529"},"type":"Feature"},{"geometry":{"coordinates":[-70.26972,43.65302],"type":"Point"},"properties":{"kind":"stop","name":"CONGRESS ST + WALKER ST","stop_id":"53"},"type":"Feature"},{"geometry":{"coordinates":[-70.28822,43.71501],"type":"Point"},"properties":{"kind":"stop","name":"SUMMIT ST + 276 SUMMIT ST","stop_id":"530"},"type":"Feature"},{"geometry":{"coordinates":[-70.28578,43.71302],"type":"Point"},"properties":{"kind":"stop","name":"SUMMIT ST + ALPINE ST","stop_id":"531"},"type":"Feature"},{"geometry":{"coordinates":[-70.28402,43.71137],"type":"Point"},"properties":{"kind":"stop","name":"SUMMIT ST + 140 SUMMIT ST","stop_id":"532"},"type":"Feature"},{"geometry":{"coordinates":[-70.28017,43.70755],"type":"Point"},"properties":{"kind":"stop","name":"ALLEN AVE + MEADOW LN","stop_id":"533"},"type":"Feature"},{"geometry":{"coordinates":[-70.28164,43.70555],"type":"Point"},"properties":{"kind":"stop","name":"ALLEN AVE + 558 ALLEN AVE","stop_id":"534"},"type":"Feature"},{"geometry":{"coordinates":[-70.28188,43.7034],"type":"Point"},"properties":{"kind":"stop","name":"RAY ST + MERRYMEETING DR IB","stop_id":"535"},"type":"Feature"},{"geometry":{"coordinates":[-70.27781,43.69903],"type":"Point"},"properties":{"kind":"stop","name":"RAY ST + MAINE AVE","stop_id":"536"},"type":"Feature"},{"geometry":{"coordinates":[-70.27801,43.69698],"type":"Point"},"properties":{"kind":"stop","name":"RAY ST + DAKOTA ST","stop_id":"537"},"type":"Feature"},{"geometry":{"coordinates":[-70.27716,43.69326],"type":"Point"},"properties":{"kind":"stop","name":"RAY ST + IVALOO ST","stop_id":"538"},"type":"Feature"},{"geometry":{"coordinates":[-70.2777,43.69146],"type":"Point"},"properties":{"kind":"stop","name":"RAY ST + JOSEPH AVE","stop_id":"539"},"type":"Feature"},{"geometry":{"coordinates":[-70.26578,43.68454],"type":"Point"},"properties":{"kind":"stop","name":"WASHINGTON AVE + EAST KIDDER ST","stop_id":"54"},"type":"Feature"},{"geometry":{"coordinates":[-70.28347,43.69551],"type":"Point"},"properties":{"kind":"stop","name":"MAINE AVE + 17 MAINE AVE","stop_id":"540"},"type":"Feature"},{"geometry":{"coordinates":[-70.28074,43.69731],"type":"Point"},"properties":{"kind":"stop","name":"MAINE AVE + 95 MAINE AVE","stop_id":"541"},"type":"Feature"},{"geometry":{"coordinates":[-70.27797,43.69914],"type":"Point"},"properties":{"kind":"stop","name":"MAINE AVE + RAY ST","stop_id":"542"},"type":"Feature"},{"geometry":{"coordinates":[-70.27973,43.70123],"type":"Point"},"properties":{"kind":"stop","name":"RAY ST + 355 RAY ST","stop_id":"543"},"type":"Feature"},{"geometry":{"coordinates":[-70.28161,43.70332],"type":"Point"},"properties":{"kind":"stop","name":"RAY ST + MERRYMEETING DR","stop_id":"544"},"type":"Feature"},{"geometry":{"coordinates":[-70.281,43.70606],"type":"Point"},"properties":{"kind":"stop","name":"ALLEN AVE + VIRGINIA ST","stop_id":"545"},"type":"Feature"},{"geometry":{"coordinates":[-70.28252,43.71017],"type":"Point"},"properties":{"kind":"stop","name":"SUMMIT ST + 83 SUMMIT ST","stop_id":"546"},"type":"Feature"},{"geometry":{"coordinates":[-70.28399,43.7115],"type":"Point"},"properties":{"kind":"stop","name":"SUMMIT ST + PINELOCH DR","stop_id":"547"},"type":"Feature"},{"geometry":{"coordinates":[-70.28529,43.71275],"type":"Point"},"properties":{"kind":"stop","name":"SUMMIT ST + OAK NUTS PARK","stop_id":"548"},"type":"Feature"},{"geometry":{"coordinates":[-70.28732,43.71459],"type":"Point"},"properties":{"kind":"stop","name":"SUMMIT ST + CURTIS RD","stop_id":"549"},"type":"Feature"},{"geometry":{"coordinates":[-70.29932,43.69181],"type":"Point"},"properties":{"kind":"stop","name":"FOREST AVE + AVALON RD","stop_id":"55"},"type":"Feature"},{"geometry":{"coordinates":[-70.2906,43.71415],"type":"Point"},"properties":{"kind":"stop","name":"JACKSON ST + KENNETH ST","stop_id":"550"},"type":"Feature"},{"geometry":{"coordinates":[-70.28272,43.71019],"type":"Point"},"properties":{"kind":"stop","name":"SUMMIT ST + SUMAC ST","stop_id":"551"},"type":"Feature"},{"geometry":{"coordinates":[-70.28016,43.70845],"type":"Point"},"properties":{"kind":"stop","name":"SUMMIT ST + ALLEN AVE","stop_id":"552"},"type":"Feature"},{"geometry":{"coordinates":[-70.23517,43.71936],"type":"Point"},"properties":{"kind":"stop","name":"FALMOUTH WALMART O/B","stop_id":"553"},"type":"Feature"},{"geometry":{"coordinates":[-70.23226,43.72339],"type":"Point"},"properties":{"kind":"stop","name":"ROUTE 1 + SHAWS FALMOUTH","stop_id":"554"},"type":"Feature"},{"geometry":{"coordinates":[-70.19155,43.78604],"type":"Point"},"properties":{"kind":"stop","name":"ROUTE 1 + YARMOUTH P&R","stop_id":"555"},"type":"Feature"},{"geometry":{"coordinates":[-70.18744,43.80063],"type":"Point"},"properties":{"kind":"stop","name":"YARMOUTH TOWN HALL","stop_id":"556"},"type":"Feature"},{"geometry":{"coordinates":[-70.17875,43.80395],"type":"Point"},"properties":{"kind":"stop","name":"YARMOUTH HANNAFORD O/B","stop_id":"557"},"type":"Feature"},{"geometry":{"coordinates":[-70.12153,43.83986],"type":"Point"},"properties":{"kind":"stop","name":"MAINE BEER PARK/RIDE  O/B","stop_id":"558"},"type":"Feature"},{"geometry":{"coordinates":[-70.11168,43.84903],"type":"Point"},"properties":{"kind":"stop","name":"LL BEAN HEADQUARTERS O/B","stop_id":"559"},"type":"Feature"},{"geometry":{"coordinates":[-70.28709,43.6987],"type":"Point"},"properties":{"kind":"stop","name":"WASHINGTON AVE + NORTHPORT DR","stop_id":"56"},"type":"Feature"},{"geometry":{"coordinates":[-70.10583,43.85549],"type":"Point"},"properties":{"kind":"stop","name":"MAIN ST + GROVE ST","stop_id":"560"},"type":"Feature"},{"geometry":{"coordinates":[-70.10253,43.85759],"type":"Point"},"properties":{"kind":"stop","name":"LL BEAN O/B","stop_id":"561"},"type":"Feature"},{"geometry":{"coordinates":[-70.10277,43.85755],"type":"Point"},"properties":{"kind":"stop","name":"LL BEAN I/B","stop_id":"563"},"type":"Feature"},{"geometry":{"coordinates":[-70.10598,43.85555],"type":"Point"},"properties":{"kind":"stop","name":"FREEPORT TOWN HALL I/B","stop_id":"564"},"type":"Feature"},{"geometry":{"coordinates":[-70.11194,43.84895],"type":"Point"},"properties":{"kind":"stop","name":"LL BEAN HEADQUARTERS I/B","stop_id":"565"},"type":"Feature"},{"geometry":{"coordinates":[-70.17979,43.80402],"type":"Point"},"properties":{"kind":"stop","name":"YARMOUTH HANNAFORD I/B","stop_id":"566"},"type":"Feature"},{"geometry":{"coordinates":[-70.23246,43.72336],"type":"Point"},"properties":{"kind":"stop","name":"ROUTE 1 + SHAWS FALMOUTH","stop_id":"567"},"type":"Feature"},{"geometry":{"coordinates":[-70.28922,43.69828],"type":"Point"},"properties":{"kind":"stop","name":"ALLEN AVE + ABBOTT ST","stop_id":"568"},"type":"Feature"},{"geometry":{"coordinates":[-70.29181,43.69497],"type":"Point"},"properties":{"kind":"stop","name":"CBHS OUTBOUND","stop_id":"569"},"type":"Feature"},{"geometry":{"coordinates":[-70.21075,43.73616],"type":"Point"},"properties":{"kind":"stop","name":"JOHNSON RD + BARTLETT WAY","stop_id":"57"},"type":"Feature"},{"geometry":{"coordinates":[-70.29228,43.69358],"type":"Point"},"properties":{"kind":"stop","name":"ALLEN AVE + PLYMOUTH ST","stop_id":"570"},"type":"Feature"},{"geometry":{"coordinates":[-70.28887,43.69904],"type":"Point"},"properties":{"kind":"stop","name":"ALLEN AVE + 320 ALLEN AVE","stop_id":"571"},"type":"Feature"},{"geometry":{"coordinates":[-70.2921,43.69476],"type":"Point"},"properties":{"kind":"stop","name":"CBHS INBOUND","stop_id":"572"},"type":"Feature"},{"geometry":{"coordinates":[-70.29241,43.69377],"type":"Point"},"properties":{"kind":"stop","name":"ALLEN AVE + PLYMOUTH ST","stop_id":"573"},"type":"Feature"},{"geometry":{"coordinates":[-70.27253,43.66361],"type":"Point"},"properties":{"kind":"stop","name":"FOREST AVE + BAXTER BLVD","stop_id":"58"},"type":"Feature"},{"geometry":{"coordinates":[-70.32326,43.67475],"type":"Point"},"properties":{"kind":"stop","name":"BRIGHTON AVE + 1072 BRIGHTON AVE","stop_id":"59"},"type":"Feature"},{"geometry":{"coordinates":[-70.23299,43.71841],"type":"Point"},"properties":{"kind":"stop","name":"211 ROUTE 1","stop_id":"596"},"type":"Feature"},{"geometry":{"coordinates":[-70.36184,43.68075],"type":"Point"},"properties":{"kind":"stop","name":"BROWN ST + KING ST","stop_id":"61"},"type":"Feature"},{"geometry":{"coordinates":[-70.25815,43.66288],"type":"Point"},"properties":{"kind":"stop","name":"WHOLEFOODS","stop_id":"618"},"type":"Feature"},{"geometry":{"coordinates":[-70.26119,43.66089],"type":"Point"},"properties":{"kind":"stop","name":"LANCASTER + CHESTNUT ST","stop_id":"619"},"type":"Feature"},{"geometry":{"coordinates":[-70.30382,43.69503],"type":"Point"},"properties":{"kind":"stop","name":"FOREST AVE + 1494 FOREST AVE","stop_id":"62"},"type":"Feature"},{"geometry":{"coordinates":[-70.29631,43.73137],"type":"Point"},"properties":{"kind":"stop","name":"GRAY RD + 60 GRAY RD","stop_id":"63"},"type":"Feature"},{"geometry":{"coordinates":[-70.32591,43.70367],"type":"Point"},"properties":{"kind":"stop","name":"EAST BRIDGE ST + BRIDGTON RD","stop_id":"634"},"type":"Feature"},{"geometry":{"coordinates":[-70.33226,43.69851],"type":"Point"},"properties":{"kind":"stop","name":"EAST BRIDGE ST + CARLSON ST","stop_id":"635"},"type":"Feature"},{"geometry":{"coordinates":[-70.33486,43.69764],"type":"Point"},"properties":{"kind":"stop","name":"EAST BRIDGE ST + CONSTITUTION DR","stop_id":"636"},"type":"Feature"},{"geometry":{"coordinates":[-70.33684,43.69681],"type":"Point"},"properties":{"kind":"stop","name":"EAST BRIDGE ST + SETTLERS RD","stop_id":"637"},"type":"Feature"},{"geometry":{"coordinates":[-70.33892,43.69742],"type":"Point"},"properties":{"kind":"stop","name":"AUSTIN ST + EAST BRIDGE ST","stop_id":"638"},"type":"Feature"},{"geometry":{"coordinates":[-70.33941,43.70047],"type":"Point"},"properties":{"kind":"stop","name":"AUSTIN ST + WOODLAND RD","stop_id":"639"},"type":"Feature"},{"geometry":{"coordinates":[-70.34074,43.70392],"type":"Point"},"properties":{"kind":"stop","name":"PRIDE ST + AUSTIN ST","stop_id":"640"},"type":"Feature"},{"geometry":{"coordinates":[-70.33769,43.70873],"type":"Point"},"properties":{"kind":"stop","name":"PRIDES CHURCH","stop_id":"641"},"type":"Feature"},{"geometry":{"coordinates":[-70.3357,43.71146],"type":"Point"},"properties":{"kind":"stop","name":"PRIDE ST + 337 PRIDE ST","stop_id":"642"},"type":"Feature"},{"geometry":{"coordinates":[-70.33333,43.71328],"type":"Point"},"properties":{"kind":"stop","name":"BRIDGTON RD + PRIDE ST","stop_id":"643"},"type":"Feature"},{"geometry":{"coordinates":[-70.33187,43.71184],"type":"Point"},"properties":{"kind":"stop","name":"BRIDGTON RD + GRANDVIEW DR","stop_id":"644"},"type":"Feature"},{"geometry":{"coordinates":[-70.3293,43.70892],"type":"Point"},"properties":{"kind":"stop","name":"BRIDGTON RD + 216 BRIDGTON RD","stop_id":"645"},"type":"Feature"},{"geometry":{"coordinates":[-70.32768,43.70689],"type":"Point"},"properties":{"kind":"stop","name":"BRIDGTON RD + REED ST","stop_id":"646"},"type":"Feature"},{"geometry":{"coordinates":[-70.32633,43.70492],"type":"Point"},"properties":{"kind":"stop","name":"BRIDGTON RD + EAST BRIDGE ST","stop_id":"647"},"type":"Feature"},{"geometry":{"coordinates":[-70.23455,43.72232],"type":"Point"},"properties":{"kind":"stop","name":"HAT TRICK DR + DEPOT RD","stop_id":"648"},"type":"Feature"},{"geometry":{"coordinates":[-70.29511,43.67095],"type":"Point"},"properties":{"kind":"stop","name":"DEERING HS INBOUND","stop_id":"65"},"type":"Feature"},{"geometry":{"coordinates":[-70.25374,43.66842],"type":"Point"},"properties":{"kind":"stop","name":"WASHINGTON AVE + WALNUT ST","stop_id":"66"},"type":"Feature"},{"geometry":{"coordinates":[-70.23247,43.7221],"type":"Point"},"properties":{"kind":"stop","name":"ROUTE 1 + DEPOT RD O/B","stop_id":"672"},"type":"Feature"},{"geometry":{"coordinates":[-70.27935,43.70065],"type":"Point"},"properties":{"kind":"stop","name":"344 RAY ST","stop_id":"673"},"type":"Feature"},{"geometry":{"coordinates":[-70.22708,43.71947],"type":"Point"},"properties":{"kind":"stop","name":"FORESIDE RD + OLD MILL RD","stop_id":"674"},"type":"Feature"},{"geometry":{"coordinates":[-70.29233,43.70445],"type":"Point"},"properties":{"kind":"stop","name":"WASHINGTON AVE EXT + SKYLARK DR","stop_id":"675"},"type":"Feature"},{"geometry":{"coordinates":[-70.28717,43.6641],"type":"Point"},"properties":{"kind":"stop","name":"BRIGHTON AVE + BOLTON ST","stop_id":"68"},"type":"Feature"},{"geometry":{"coordinates":[-69.96562,43.91122],"type":"Point"},"properties":{"kind":"stop","name":"BRUNSWICK TRAIN STATION","stop_id":"680"},"type":"Feature"},{"geometry":{"coordinates":[-69.98815,43.91222],"type":"Point"},"properties":{"kind":"stop","name":"PLEASANT AVE + CHURCH RD","stop_id":"681"},"type":"Feature"},{"geometry":{"coordinates":[-69.96248,43.9104],"type":"Point"},"properties":{"kind":"stop","name":"BOWDOIN COLLEGE","stop_id":"682"},"type":"Feature"},{"geometry":{"coordinates":[-69.98135,43.91277],"type":"Point"},"properties":{"kind":"stop","name":"MAINE ST + SCHOOL ST","stop_id":"683"},"type":"Feature"},{"geometry":{"coordinates":[-69.96461,43.91379],"type":"Point"},"properties":{"kind":"stop","name":"MAINE ST + EVERETT ST","stop_id":"686"},"type":"Feature"},{"geometry":{"coordinates":[-70.34242,43.63784],"type":"Point"},"properties":{"kind":"stop","name":"RUNNING HILL RD + 82 RUNNING HIL","stop_id":"692"},"type":"Feature"},{"geometry":{"coordinates":[-70.32531,43.70362],"type":"Point"},"properties":{"kind":"stop","name":"BRIDGTON RD + EAST BRIDGE ST","stop_id":"693"},"type":"Feature"},{"geometry":{"coordinates":[-70.33166,43.69863],"type":"Point"},"properties":{"kind":"stop","name":"EAST BRIDGE ST + CARLSON ST","stop_id":"694"},"type":"Feature"},{"geometry":{"coordinates":[-70.33507,43.69743],"type":"Point"},"properties":{"kind":"stop","name":"EAST BRIDGE ST + CONSTITUTION ST","stop_id":"695"},"type":"Feature"},{"geometry":{"coordinates":[-70.33676,43.69672],"type":"Point"},"properties":{"kind":"stop","name":"EAST BRIDGE ST + INDEPENDENCE ST","stop_id":"696"},"type":"Feature"},{"geometry":{"coordinates":[-70.34009,43.69713],"type":"Point"},"properties":{"kind":"stop","name":"EAST BRIDGE ST + AUSTIN ST","stop_id":"697"},"type":"Feature"},{"geometry":{"coordinates":[-70.31968,43.70208],"type":"Point"},"properties":{"kind":"stop","name":"RIVERSIDE ST + HANNAFORD","stop_id":"698"},"type":"Feature"},{"geometry":{"coordinates":[-70.34412,43.6963],"type":"Point"},"properties":{"kind":"stop","name":"EAST BRIDGE ST + MILLBROOK","stop_id":"699"},"type":"Feature"},{"geometry":{"coordinates":[-70.37325,43.66986],"type":"Point"},"properties":{"kind":"stop","name":"SACO ST + PROSPECT ST","stop_id":"7"},"type":"Feature"},{"geometry":{"coordinates":[-70.25198,43.66184],"type":"Point"},"properties":{"kind":"stop","name":"INDIA ST + 103 INDIA ST","stop_id":"70"},"type":"Feature"},{"geometry":{"coordinates":[-70.34392,43.69622],"type":"Point"},"properties":{"kind":"stop","name":"E BRIDGE ST + PURITAN DR","stop_id":"700"},"type":"Feature"},{"geometry":{"coordinates":[-70.34729,43.69558],"type":"Point"},"properties":{"kind":"stop","name":"EAST BRDIGE ST + DOLLEY FARM","stop_id":"701"},"type":"Feature"},{"geometry":{"coordinates":[-70.3468,43.69557],"type":"Point"},"properties":{"kind":"stop","name":"E BRIDGE ST + HALIDON RD","stop_id":"702"},"type":"Feature"},{"geometry":{"coordinates":[-70.35275,43.69514],"type":"Point"},"properties":{"kind":"stop","name":"EAST BRIDGE ST + 96 EAST BRIDGE","stop_id":"703"},"type":"Feature"},{"geometry":{"coordinates":[-70.35122,43.69516],"type":"Point"},"properties":{"kind":"stop","name":"E BRIDGE ST + STERLING DR","stop_id":"704"},"type":"Feature"},{"geometry":{"coordinates":[-70.35866,43.69349],"type":"Point"},"properties":{"kind":"stop","name":"BRIDGE ST + 556 BRIDGE ST","stop_id":"705"},"type":"Feature"},{"geometry":{"coordinates":[-70.35866,43.69321],"type":"Point"},"properties":{"kind":"stop","name":"BRIDGE ST + LUGRIN ST","stop_id":"706"},"type":"Feature"},{"geometry":{"coordinates":[-70.35936,43.68987],"type":"Point"},"properties":{"kind":"stop","name":"WESTBROOK COMMUNITY CENTER","stop_id":"707"},"type":"Feature"},{"geometry":{"coordinates":[-70.35908,43.69002],"type":"Point"},"properties":{"kind":"stop","name":"W COMMUNITY CENTER O/B","stop_id":"708"},"type":"Feature"},{"geometry":{"coordinates":[-70.36922,43.67572],"type":"Point"},"properties":{"kind":"stop","name":"MECHANIC & QUIMBY","stop_id":"709"},"type":"Feature"},{"geometry":{"coordinates":[-70.36113,43.68827],"type":"Point"},"properties":{"kind":"stop","name":"BRIDGE ST + CUMBERLAND ST","stop_id":"71"},"type":"Feature"},{"geometry":{"coordinates":[-70.36262,43.67652],"type":"Point"},"properties":{"kind":"stop","name":"MAIN ST & SPRING ST","stop_id":"710"},"type":"Feature"},{"geometry":{"coordinates":[-70.36328,43.67536],"type":"Point"},"properties":{"kind":"stop","name":"WILLIAM CLARK DR + SPRING ST I/B","stop_id":"711"},"type":"Feature"},{"geometry":{"coordinates":[-70.36333,43.67555],"type":"Point"},"properties":{"kind":"stop","name":"WILLIAM CLARK DR + SPRING ST","stop_id":"712"},"type":"Feature"},{"geometry":{"coordinates":[-70.36087,43.67118],"type":"Point"},"properties":{"kind":"stop","name":"SPRING ST + GLENWOOD AVE","stop_id":"713"},"type":"Feature"},{"geometry":{"coordinates":[-70.36086,43.67074],"type":"Point"},"properties":{"kind":"stop","name":"SPRING ST + 165 SPRING ST","stop_id":"714"},"type":"Feature"},{"geometry":{"coordinates":[-70.35899,43.66575],"type":"Point"},"properties":{"kind":"stop","name":"SPRING ST + BLUE SPRUCE","stop_id":"715"},"type":"Feature"},{"geometry":{"coordinates":[-70.35878,43.66601],"type":"Point"},"properties":{"kind":"stop","name":"SPRING ST + LANDING RD","stop_id":"716"},"type":"Feature"},{"geometry":{"coordinates":[-70.35793,43.65031],"type":"Point"},"properties":{"kind":"stop","name":"SPRING ST + HUSSON UNIVERSITY","stop_id":"717"},"type":"Feature"},{"geometry":{"coordinates":[-70.35774,43.65064],"type":"Point"},"properties":{"kind":"stop","name":"SPRING ST + COUNTY RD","stop_id":"718"},"type":"Feature"},{"geometry":{"coordinates":[-70.3499,43.63423],"type":"Point"},"properties":{"kind":"stop","name":"CUMMINGS RD + RUNNING HILL RD","stop_id":"719"},"type":"Feature"},{"geometry":{"coordinates":[-70.26006,43.65886],"type":"Point"},"properties":{"kind":"stop","name":"CUMBERLAND AVE + ELM ST","stop_id":"72"},"type":"Feature"},{"geometry":{"coordinates":[-70.34932,43.63374],"type":"Point"},"properties":{"kind":"stop","name":"CUMMINGS RD + RUNNING HILL RD","stop_id":"720"},"type":"Feature"},{"geometry":{"coordinates":[-70.3471,43.63324],"type":"Point"},"properties":{"kind":"stop","name":"TARGET I/B","stop_id":"721"},"type":"Feature"},{"geometry":{"coordinates":[-70.34727,43.63325],"type":"Point"},"properties":{"kind":"stop","name":"TARGET O/B","stop_id":"722"},"type":"Feature"},{"geometry":{"coordinates":[-70.33371,43.63668],"type":"Point"},"properties":{"kind":"stop","name":"GORHAM RD + MALL I/B","stop_id":"723"},"type":"Feature"},{"geometry":{"coordinates":[-70.33364,43.6369],"type":"Point"},"properties":{"kind":"stop","name":"GORHAM RD + MCDONALDS","stop_id":"724"},"type":"Feature"},{"geometry":{"coordinates":[-70.32951,43.63614],"type":"Point"},"properties":{"kind":"stop","name":"FODEN RD + GORHAM RD","stop_id":"725"},"type":"Feature"},{"geometry":{"coordinates":[-70.32533,43.63917],"type":"Point"},"properties":{"kind":"stop","name":"WESTERN AVE + FODEN RD","stop_id":"726"},"type":"Feature"},{"geometry":{"coordinates":[-70.38598,43.65731],"type":"Point"},"properties":{"kind":"stop","name":"HAMLET PARK","stop_id":"727"},"type":"Feature"},{"geometry":{"coordinates":[-70.37122,43.6699],"type":"Point"},"properties":{"kind":"stop","name":"PROSPEC ST + MECHANIC ST","stop_id":"728"},"type":"Feature"},{"geometry":{"coordinates":[-70.36947,43.67435],"type":"Point"},"properties":{"kind":"stop","name":"MECHANIC ST + W VALENTINE ST","stop_id":"729"},"type":"Feature"},{"geometry":{"coordinates":[-70.44817,43.68067],"type":"Point"},"properties":{"kind":"stop","name":"USM CAMPUS GORHAM","stop_id":"730"},"type":"Feature"},{"geometry":{"coordinates":[-70.43952,43.68072],"type":"Point"},"properties":{"kind":"stop","name":"MAIN ST + ELM ST","stop_id":"731"},"type":"Feature"},{"geometry":{"coordinates":[-70.44085,43.68047],"type":"Point"},"properties":{"kind":"stop","name":"MAIN ST + WATER ST","stop_id":"732"},"type":"Feature"},{"geometry":{"coordinates":[-70.12173,43.83992],"type":"Point"},"properties":{"kind":"stop","name":"MAINE BEER PARK/RIDE  I/B","stop_id":"733"},"type":"Feature"},{"geometry":{"coordinates":[-70.24059,43.72933],"type":"Point"},"properties":{"kind":"stop","name":"BUCKNAM RD + MIDDLE RD","stop_id":"74"},"type":"Feature"},{"geometry":{"coordinates":[-70.38203,43.65974],"type":"Point"},"properties":{"kind":"stop","name":"SACO ST + SPILLER DR","stop_id":"742"},"type":"Feature"},{"geometry":{"coordinates":[-70.27837,43.64785],"type":"Point"},"properties":{"kind":"stop","name":"STOP 1","stop_id":"746"},"type":"Feature"},{"geometry":{"coordinates":[-70.27863,43.64942],"type":"Point"},"properties":{"kind":"stop","name":"STOP 2","stop_id":"747"},"type":"Feature"},{"geometry":{"coordinates":[-70.27786,43.64951],"type":"Point"},"properties":{"kind":"stop","name":"STOP 3","stop_id":"748"},"type":"Feature"},{"geometry":{"coordinates":[-70.27711,43.64586],"type":"Point"},"properties":{"kind":"stop","name":"STOP 4","stop_id":"749"},"type":"Feature"},{"geometry":{"coordinates":[-70.2674,43.65758],"type":"Point"},