{"features":[{"geometry":{"coordinates":[[-122.90854,44.54597],[-122.90265,44.54595],[-122.90255,44.53646],[-122.90705,44.53645],[-122.90706,44.52372],[-122.90666,44.52271],[-122.90598,44.52209],[-122.90671,44.52155],[-122.90448,44.51991],[-122.90413,44.52016],[-122.9036,44.51989],[-122.90316,44.52022],[-122.89866,44.51731],[-122.89878,44.5169],[-122.89903,44.51693],[-122.89977,44.51755],[-122.89986,44.51617],[-122.89934,44.51577],[-122.89904,44.51576],[-122.89933,44.51565],[-122.89929,44.51453],[-122.89843,44.51453],[-122.8975,44.51485],[-122.89629,44.5158],[-122.90581,44.52196],[-122.90666,44.52271],[-122.90697,44.52329],[-122.90708,44.52682],[-122.90558,44.52682],[-122.90564,44.52775],[-122.90708,44.52752],[-122.90704,44.53436],[-122.90598,44.535],[-122.90557,44.53554],[-122.9056,44.54357],[-122.90706,44.54359],[-122.90709,44.54712],[-122.90761,44.54875],[-122.90592,44.54873],[-122.90592,44.54856],[-122.90762,44.54877],[-122.90977,44.5536],[-122.91458,44.55359],[-122.91459,44.5529],[-122.91424,44.55225],[-122.91307,44.55143],[-122.91286,44.55099],[-122.91281,44.54506],[-122.91005,44.54508],[-122.90973,44.54521],[-122.90952,44.54593],[-122.90855,44.54597]],"type":"LineString"},"properties":{"color":"#4E6E2C","color_name":"green","kind":"route","label":"LINX Loop","long":"LINX Loop","route_id":"14246","text_color":"#FFFFFF","type_label":"Bus"},"type":"Feature"},{"geometry":{"coordinates":[[-123.10308,44.63032],[-123.10238,44.63075],[-123.10291,44.63098],[-123.10234,44.63108],[-123.10082,44.63203],[-123.09999,44.63235],[-123.0979,44.63257],[-123.094,44.63223],[-123.08142,44.63373],[-123.07728,44.63279],[-123.07713,44.62864],[-123.08338,44.62873],[-123.08355,44.63417],[-123.10039,44.63233],[-123.10316,44.63144],[-123.10348,44.63149],[-123.10495,44.6375],[-123.10712,44.64137],[-123.10802,44.64202],[-123.10911,44.64233],[-123.11309,44.64205],[-123.11373,44.64424],[-123.11481,44.6443],[-123.11472,44.64505],[-123.1144,44.64525],[-123.11452,44.64545],[-123.11476,44.64534],[-123.11481,44.6443],[-123.11373,44.64424],[-123.11309,44.64205],[-123.11765,44.64162],[-123.12026,44.64181],[-123.12364,44.64157],[-123.12737,44.64158],[-123.13418,44.64198],[-123.13698,44.64303],[-123.13892,44.64317],[-123.1427,44.64267],[-123.14984,44.64045],[-123.15362,44.63977],[-123.17157,44.63923],[-123.17387,44.63901],[-123.18789,44.63413],[-123.2063,44.62445],[-123.20802,44.62328],[-123.21049,44.62065],[-123.21229,44.61801],[-123.21865,44.60659],[-123.22242,44.59917],[-123.22545,44.59607],[-123.22943,44.59053],[-123.2311,44.58877],[-123.23164,44.58855],[-123.23315,44.58899],[-123.2549,44.58883],[-123.25518,44.58831],[-123.25555,44.58824],[-123.25536,44.58799],[-123.26489,44.5708],[-123.26728,44.566],[-123.26372,44.56509],[-123.26374,44.56488],[-123.26312,44.56473],[-123.26302,44.56491],[-123.26088,44.56438],[-123.25991,44.56633],[-123.25487,44.56509],[-123.24855,44.56415],[-123.24141,44.56389],[-123.19627,44.56408],[-123.19456,44.56433],[-123.19363,44.56467],[-123.19059,44.56633],[-123.18886,44.56702],[-123.18655,44.56723],[-123.17246,44.56726],[-123.16555,44.56615],[-123.15122,44.56576],[-123.14836,44.56517],[-123.1469,44.5646],[-123.14252,44.56192],[-123.14031,44.56116],[-123.12225,44.5608],[-123.12042,44.56024],[-123.1155,44.5568],[-123.11195,44.55477],[-123.11129,44.5545],[-123.11008,44.55443],[-123.10984,44.58924],[-123.11159,44.58924],[-123.1116,44.58888],[-123.11193,44.58859],[-123.11505,44.58862],[-123.11514,44.58608],[-123.11389,44.58605],[-123.11513,44.58608],[-123.11505,44.58862],[-123.11193,44.58859],[-123.1116,44.58888],[-123.11159,44.58924],[-123.10984,44.58924],[-123.10989,44.59122],[-123.11013,44.59216],[-123.11084,44.59326],[-123.11297,44.59561],[-123.1133,44.59685],[-123.11382,44.616],[-123.11322,44.61856],[-123.11212,44.62048],[-123.10484,44.62944],[-123.10303,44.63059],[-123.10291,44.63098],[-123.10257,44.63071],[-123.10312,44.6303]],"type":"LineString"},"properties":{"color":"#009C57","color_name":"green","kind":"route","label":"Saturday Shopper","long":"Saturday Shopper","route_id":"16627","text_color":"#FFFFFF","type_label":"Bus"},"type":"Feature"},{"geometry":{"coordinates":[[-123.11394,44.58607],[-123.11513,44.58608],[-123.11516,44.58465],[-123.10991,44.58459],[-123.11009,44.55728],[-123.11158,44.55727],[-123.11362,44.55662],[-123.11455,44.5567],[-123.1154,44.55702],[-123.12012,44.56014],[-123.12241,44.56092],[-123.14031,44.56119],[-123.14149,44.56145],[-123.14252,44.56192],[-123.1469,44.5646],[-123.14964,44.56551],[-123.15197,44.56581],[-123.16498,44.56613],[-123.1719,44.56723],[-123.18793,44.56714],[-123.18974,44.56673],[-123.19458,44.56441],[-123.19671,44.56406],[-123.24141,44.56389],[-123.24762,44.56406],[-123.25224,44.56472],[-123.25424,44.56525],[-123.25761,44.56681],[-123.26045,44.56757],[-123.26298,44.56267],[-123.27058,44.56459],[-123.27368,44.56467],[-123.2738,44.56483],[-123.27227,44.56702],[-123.27181,44.56712],[-123.26091,44.56437],[-123.25991,44.56633],[-123.25487,44.5651],[-123.24947,44.56427],[-123.24515,44.56391],[-123.19627,44.56408],[-123.19456,44.56433],[-123.19363,44.56467],[-123.19059,44.56633],[-123.18886,44.56702],[-123.18655,44.56723],[-123.17246,44.56726],[-123.16555,44.56615],[-123.15122,44.56576],[-123.14836,44.56517],[-123.1469,44.5646],[-123.14252,44.56192],[-123.14031,44.56116],[-123.12225,44.5608],[-123.12042,44.56024],[-123.1155,44.5568],[-123.11195,44.55477],[-123.11129,44.5545],[-123.11008,44.55443],[-123.10984,44.58924],[-123.11159,44.58924],[-123.1116,44.58888],[-123.11193,44.58859],[-123.11505,44.58862],[-123.11514,44.58608],[-123.11392,44.58608]],"type":"LineString"},"properties":{"color":"#9C237C","color_name":"purple","kind":"route","label":"Campus Connector","long":"Campus Connector","route_id":"18888","text_color":"#FFFFFF","type_label":"Bus"},"type":"Feature"},{"geometry":{"coordinates":[[-123.10384,44.62979],[-123.10448,44.62916],[-123.10454,44.62903],[-123.10429,44.62904],[-123.10333,44.62994],[-123.10344,44.6301],[-123.10238,44.63078],[-123.1029,44.63098],[-123.10365,44.63166],[-123.10495,44.6375],[-123.10712,44.64137],[-123.10802,44.64202],[-123.10911,44.64233],[-123.11309,44.64205],[-123.11373,44.64424],[-123.11481,44.6443],[-123.11472,44.64505],[-123.1144,44.64525],[-123.11452,44.64545],[-123.11476,44.64534],[-123.11481,44.6443],[-123.11373,44.64424],[-123.11309,44.64205],[-123.11765,44.64162],[-123.12026,44.64181],[-123.12364,44.64157],[-123.12737,44.64158],[-123.13418,44.64198],[-123.13698,44.64303],[-123.13892,44.64317],[-123.1427,44.64267],[-123.14984,44.64045],[-123.15362,44.63977],[-123.17157,44.63923],[-123.17387,44.63901],[-123.18789,44.63413],[-123.2063,44.62445],[-123.20802,44.62328],[-123.21049,44.62065],[-123.21229,44.61801],[-123.21865,44.60659],[-123.22242,44.59917],[-123.22545,44.59607],[-123.22943,44.59053],[-123.2311,44.58877],[-123.23164,44.58855],[-123.23315,44.58899],[-123.2549,44.58883],[-123.25518,44.58831],[-123.25555,44.58824],[-123.25536,44.58799],[-123.26488,44.5708],[-123.26728,44.566],[-123.26091,44.56437],[-123.25991,44.56633],[-123.25487,44.5651],[-123.24947,44.56427],[-123.24515,44.56391],[-123.24141,44.56389],[-123.19627,44.56408],[-123.19456,44.56433],[-123.19363,44.56467],[-123.19059,44.56633],[-123.18886,44.56702],[-123.18655,44.56723],[-123.17246,44.56726],[-123.16555,44.56615],[-123.15122,44.56576],[-123.14836,44.56517],[-123.1469,44.5646],[-123.14252,44.56192],[-123.14031,44.56116],[-123.12225,44.5608],[-123.12042,44.56024],[-123.1155,44.5568],[-123.11195,44.55477],[-123.11129,44.5545],[-123.11008,44.55443],[-123.10984,44.58924],[-123.11159,44.58924],[-123.1116,44.58888],[-123.11193,44.58859],[-123.11505,44.58862],[-123.11514,44.58608],[-123.11389,44.58605],[-123.11513,44.58608],[-123.11505,44.58862],[-123.11193,44.58859],[-123.1116,44.58888],[-123.11159,44.58924],[-123.10984,44.58924],[-123.10989,44.59122],[-123.11013,44.59216],[-123.11084,44.59326],[-123.11297,44.59561],[-123.1133,44.59685],[-123.11382,44.616],[-123.11322,44.61856],[-123.11212,44.62048],[-123.10568,44.62842],[-123.10519,44.6282],[-123.10385,44.62979],[-123.1024,44.63072],[-123.10221,44.63096],[-123.10234,44.63108],[-123.10113,44.63188],[-123.09999,44.63235],[-123.09703,44.63259],[-123.094,44.63223],[-123.08092,44.6337],[-123.07728,44.63279],[-123.07713,44.62864],[-123.08338,44.62873],[-123.08355,44.63417],[-123.10039,44.63233],[-123.10336,44.63145],[-123.10365,44.63166],[-123.1047,44.63639]],"type":"LineString"},"properties":{"color":"#9C237C","color_name":"purple","kind":"route","label":"Saturday","long":"Saturday","route_id":"18890","text_color":"#FFFFFF","type_label":"Bus"},"type":"Feature"},{"geometry":{"coordinates":[[-123.10384,44.62979],[-123.10448,44.62916],[-123.10454,44.62903],[-123.10429,44.62904],[-123.10333,44.62994],[-123.10344,44.6301],[-123.10238,44.63078],[-123.1029,44.63098],[-123.10365,44.63166],[-123.10495,44.6375],[-123.10712,44.64137],[-123.10802,44.64202],[-123.10911,44.64233],[-123.11309,44.64205],[-123.11373,44.64424],[-123.11481,44.6443],[-123.11472,44.64505],[-123.1144,44.64525],[-123.11452,44.64545],[-123.11476,44.64534],[-123.11481,44.6443],[-123.11373,44.64424],[-123.11309,44.64205],[-123.11765,44.64162],[-123.12026,44.64181],[-123.12364,44.64157],[-123.12737,44.64158],[-123.13418,44.64198],[-123.13698,44.64303],[-123.13892,44.64317],[-123.1427,44.64267],[-123.14984,44.64045],[-123.15362,44.63977],[-123.17157,44.63923],[-123.17387,44.63901],[-123.18686,44.63452],[-123.18996,44.63316],[-123.2063,44.62445],[-123.20802,44.62328],[-123.21049,44.62065],[-123.21229,44.61801],[-123.21865,44.60659],[-123.22242,44.59917],[-123.22545,44.59607],[-123.22943,44.59053],[-123.2311,44.58877],[-123.23164,44.58855],[-123.23315,44.58899],[-123.2549,44.58883],[-123.25518,44.58831],[-123.25555,44.58824],[-123.25536,44.58799],[-123.26488,44.5708],[-123.26728,44.566],[-123.26197,44.56464],[-123.26299,44.56267],[-123.2706,44.5646],[-123.27409,44.56458],[-123.27312,44.56566],[-123.27227,44.56702],[-123.27199,44.5671],[-123.26728,44.566],[-123.26488,44.5708],[-123.2549,44.58883],[-123.24434,44.58899],[-123.24443,44.58796],[-123.24623,44.58561],[-123.24428,44.58548],[-123.24425,44.58506],[-123.24325,44.58509],[-123.24314,44.58529],[-123.24331,44.58547],[-123.24623,44.58561],[-123.24443,44.58796],[-123.24434,44.58899],[-123.23301,44.58899],[-123.23152,44.58837],[-123.22943,44.59053],[-123.22545,44.59607],[-123.22242,44.59917],[-123.21865,44.60659],[-123.21229,44.61801],[-123.21049,44.62065],[-123.20802,44.62328],[-123.2063,44.62445],[-123.19641,44.62956],[-123.18996,44.63316],[-123.18686,44.63452],[-123.17387,44.63901],[-123.17157,44.63923],[-123.15362,44.63977],[-123.14984,44.64045],[-123.1427,44.64267],[-123.13892,44.64317],[-123.13698,44.64303],[-123.13418,44.64198],[-123.12737,44.64158],[-123.12364,44.64157],[-123.12026,44.64181],[-123.11765,44.64162],[-123.11309,44.64205],[-123.11373,44.64424],[-123.11481,44.6443],[-123.11472,44.64505],[-123.1144,44.64525],[-123.11458,44.64545],[-123.11477,44.64522],[-123.11481,44.6443],[-123.11373,44.64424],[-123.11309,44.64205],[-123.10911,44.64233],[-123.10802,44.64202],[-123.1072,44.64127],[-123.10694,44.6407],[-123.1048,44.63104],[-123.10326,44.63116],[-123.10259,44.63082],[-123.10384,44.62979]],"type":"LineString"},"properties":{"color":"#9C237C","color_name":"purple","kind":"route","label":"US 20 Commuter","long":"US 20 Commuter","route_id":"32385","text_color":"#FFFFFF","type_label":"Bus"},"type":"Feature"},{"geometry":{"coordinates":[[-123.27363,44.56504],[-123.27227,44.56702],[-123.27181,44.56712],[-123.26199,44.56463],[-123.26447,44.55966],[-123.26768,44.56049],[-123.27399,44.55985],[-123.27414,44.55695],[-123.26761,44.55623],[-123.26486,44.55691],[-123.26318,44.55754],[-123.2586,44.55831],[-123.25737,44.55888],[-123.25261,44.56413],[-123.2519,44.56455],[-123.24515,44.56391],[-123.19671,44.56406],[-123.19458,44.56441],[-123.18974,44.56673],[-123.18793,44.56714],[-123.1719,44.56723],[-123.16498,44.56613],[-123.15197,44.56581],[-123.14964,44.56551],[-123.1469,44.5646],[-123.14252,44.56192],[-123.14149,44.56145],[-123.14031,44.56119],[-123.12636,44.561],[-123.12216,44.56077],[-123.12097,44.56042],[-123.11969,44.55976],[-123.11545,44.55673],[-123.11188,44.55468],[-123.1103,44.55441],[-123.11015,44.55447],[-123.11006,44.55894],[-123.10984,44.58924],[-123.11159,44.58924],[-123.1116,44.58888],[-123.11193,44.58859],[-123.11505,44.58862],[-123.11514,44.58608],[-123.11392,44.58608],[-123.11514,44.58604],[-123.11508,44.58862],[-123.11193,44.58859],[-123.11161,44.58891],[-123.11159,44.58924],[-123.10984,44.58924],[-123.10989,44.59122],[-123.11013,44.59216],[-123.11084,44.59326],[-123.11277,44.59532],[-123.11327,44.59684],[-123.11379,44.616],[-123.11338,44.61807],[-123.11212,44.62048],[-123.10568,44.62842],[-123.10519,44.6282],[-123.10385,44.62979]],"type":"LineString"},"properties":{"color":"#9C237C","color_name":"purple","kind":"route","label":"Heart-to-Hub Uniter","long":"Heart-to-Hub Uniter","route_id":"32386","text_color":"#FFFFFF","type_label":"Bus"},"type":"Feature"},{"geometry":{"coordinates":[[-123.07719,44.63034],[-123.07713,44.62864],[-123.08338,44.62873],[-123.08328,44.62522],[-123.09857,44.62503],[-123.0983,44.62542],[-123.09767,44.62813],[-123.09857,44.63236],[-123.09588,44.63358],[-123.09377,44.63385],[-123.09358,44.63305],[-123.09999,44.63235],[-123.10178,44.63176],[-123.10273,44.63126],[-123.10402,44.63021],[-123.10567,44.62842],[-123.10515,44.62819],[-123.10454,44.62902],[-123.10432,44.62903],[-123.10332,44.62995],[-123.10344,44.63011],[-123.1024,44.63072],[-123.10221,44.63096],[-123.10234,44.63108],[-123.10081,44.63203],[-123.1,44.63231],[-123.09776,44.63258],[-123.0962,44.63242],[-123.09608,44.63222],[-123.09629,44.63199],[-123.09846,44.63173],[-123.09772,44.62815],[-123.09823,44.62559],[-123.09858,44.62504],[-123.08328,44.62522],[-123.08338,44.62873],[-123.07713,44.62864],[-123.07728,44.63279],[-123.07322,44.63211],[-123.06665,44.63055],[-123.05479,44.62938],[-123.0482,44.62934],[-123.04821,44.62838],[-123.0517,44.62818],[-123.05195,44.62859],[-123.05233,44.62858],[-123.05213,44.62798],[-123.05127,44.62826],[-123.04821,44.62838],[-123.04815,44.64393],[-123.04265,44.64366],[-123.0416,44.64341],[-123.04134,44.64366],[-123.04815,44.64393],[-123.04818,44.62839],[-123.0517,44.62823],[-123.05206,44.62842],[-123.05232,44.6282],[-123.05218,44.62798],[-123.05134,44.62826],[-123.04821,44.62838],[-123.0482,44.62934],[-123.05479,44.62938],[-123.06665,44.63055],[-123.07322,44.63211],[-123.07728,44.63279],[-123.07719,44.63034]],"type":"LineString"},"properties":{"color":"#3753D5","color_name":"blue","kind":"route","label":"Route A","long":"Route A","route_id":"76413","text_color":"#FFFFFF","type_label":"Bus"},"type":"Feature"},{"geometry":{"coordinates":[[-123.07719,44.63034],[-123.07713,44.62864],[-123.08338,44.62873],[-123.08351,44.63342],[-123.08233,44.63379],[-123.08091,44.63506],[-123.07438,44.63707],[-123.07184,44.63807],[-123.06864,44.63982],[-123.06638,44.64165],[-123.06604,44.64145],[-123.06447,44.64144],[-123.06366,44.64119],[-123.06312,44.64063],[-123.06303,44.63921],[-123.06875,44.63908],[-123.06934,44.63937],[-123.06638,44.64165],[-123.06707,44.64274],[-123.07003,44.64122],[-123.07348,44.63993],[-123.08626,44.63795],[-123.0918,44.63754],[-123.09245,44.63964],[-123.09877,44.63894],[-123.0986,44.63813],[-123.11,44.63685],[-123.10896,44.63215],[-123.11503,44.63145],[-123.11411,44.62722],[-123.11399,44.62373],[-123.10936,44.62388],[-123.10565,44.62839],[-123.10515,44.62819],[-123.10435,44.62933],[-123.10238,44.63075],[-123.10365,44.63166],[-123.10475,44.63666],[-123.0923,44.63803],[-123.0921,44.63791],[-123.09212,44.63735],[-123.09187,44.63725],[-123.09125,44.63759],[-123.08688,44.63788],[-123.07637,44.63936],[-123.07348,44.63993],[-123.07194,44.64047],[-123.07003,44.64122],[-123.06707,44.64274],[-123.06616,44.6415],[-123.06424,44.64141],[-123.06331,44.64091],[-123.06305,44.64027],[-123.06303,44.63921],[-123.06875,44.63908],[-123.06934,44.63937],[-123.07338,44.63743],[-123.07322,44.63211],[-123.07728,44.63279],[-123.07719,44.63034]],"type":"LineString"},"properties":{"color":"#8E11AA","color_name":"purple","kind":"route","label":"Route B","long":"Route B","route_id":"76414","text_color":"#FFFFFF","type_label":"Bus"},"type":"Feature"},{"geometry":{"coordinates":[[-123.07719,44.63034],[-123.07713,44.62864],[-123.07303,44.62861],[-123.07338,44.63743],[-123.06934,44.63937],[-123.06476,44.64278],[-123.06108,44.64429],[-123.05967,44.64454],[-123.04265,44.64366],[-123.0416,44.64341],[-123.04136,44.64349],[-123.04145,44.64376],[-123.04252,44.64365],[-123.05565,44.64427],[-123.06153,44.6448],[-123.06303,44.64453],[-123.06864,44.63982],[-123.0704,44.63879],[-123.07338,44.63743],[-123.07316,44.62861],[-123.07713,44.62864],[-123.07728,44.63279],[-123.07904,44.63312],[-123.08223,44.63421],[-123.10039,44.63233],[-123.10316,44.63144],[-123.10348,44.63149],[-123.10495,44.6375],[-123.10703,44.64124],[-123.10766,44.64182],[-123.1058,44.64375],[-123.11481,44.6443],[-123.11471,44.64505],[-123.1144,44.64526],[-123.11452,44.64545],[-123.11475,44.64534],[-123.1148,44.64429],[-123.11373,44.64424],[-123.11309,44.64205],[-123.10885,44.6423],[-123.10767,44.64182],[-123.10714,44.64114],[-123.1048,44.63104],[-123.10325,44.63116],[-123.10257,44.63071],[-123.10344,44.6301],[-123.10332,44.62995],[-123.10429,44.62905],[-123.10453,44.62902],[-123.10366,44.62995],[-123.1024,44.63072],[-123.10221,44.63096],[-123.10234,44.63108],[-123.10113,44.63188],[-123.1,44.63231],[-123.09703,44.63259],[-123.094,44.63223],[-123.08684,44.63296],[-123.08142,44.63373],[-123.07728,44.63279],[-123.07719,44.63034]],"type":"LineString"},"properties":{"color":"#7BDB6B","color_name":"gray","kind":"route","label":"Route C","long":"Route C","route_id":"76415","text_color":"#FFFFFF","type_label":"Bus"},"type":"Feature"},{"geometry":{"coordinates":[[-123.09024,44.61493],[-123.09053,44.62513],[-123.08328,44.62522],[-123.08351,44.63342],[-123.08092,44.6337],[-123.07728,44.63279],[-123.07713,44.62864],[-123.07316,44.62861],[-123.07262,44.61527],[-123.07326,44.61337],[-123.07332,44.60359],[-123.07353,44.60276],[-123.07505,44.60175],[-123.07597,44.60231],[-123.07957,44.60235],[-123.07967,44.61042],[-123.11369,44.61],[-123.1133,44.59685],[-123.11277,44.59532],[-123.11068,44.59306],[-123.11,44.59173],[-123.10985,44.59025],[-123.10991,44.58459],[-123.11274,44.58461],[-123.11273,44.58606],[-123.11514,44.58604],[-123.11508,44.58862],[-123.11193,44.58859],[-123.11161,44.58891],[-123.11159,44.58924],[-123.10984,44.58924],[-123.10989,44.59122],[-123.11013,44.59216],[-123.11084,44.59326],[-123.11277,44.59532],[-123.11322,44.59648],[-123.11368,44.60968],[-123.11271,44.60974],[-123.11368,44.60968],[-123.11368,44.61],[-123.07321,44.61041],[-123.07318,44.61376],[-123.07262,44.61527],[-123.07303,44.62861],[-123.08338,44.62873],[-123.08317,44.62314],[-123.08373,44.62311],[-123.08376,44.62292],[-123.08374,44.62263],[-123.08314,44.62263],[-123.08293,44.61727],[-123.08311,44.61728],[-123.08293,44.61727],[-123.08292,44.61498],[-123.08516,44.61495]],"type":"LineString"},"properties":{"color":"#A80B0B","color_name":"red","kind":"route","label":"Route D","long":"Route D","route_id":"76416","text_color":"#FFFFFF","type_label":"Bus"},"type":"Feature"},{"geometry":{"coordinates":[-123.11008,44.63664],"type":"Point"},"properties":{"kind":"stop","name":"1st & Washington","stop_id":"2440150"},"type":"Feature"},{"geometry":{"coordinates":[-123.10459,44.63641],"type":"Point"},"properties":{"kind":"stop","name":"2nd & Lyon","stop_id":"2501898"},"type":"Feature"},{"geometry":{"coordinates":[-123.10584,44.63522],"type":"Point"},"properties":{"kind":"stop","name":"4th & Ellsworth","stop_id":"2501899"},"type":"Feature"},{"geometry":{"coordinates":[-123.10392,44.62984],"type":"Point"},"properties":{"kind":"stop","name":"Albany Amtrak Station","stop_id":"2555781"},"type":"Feature"},{"geometry":{"coordinates":[-123.10364,44.62989],"type":"Point"},"properties":{"kind":"stop","name":"Albany Amtrak Station","stop_id":"2555782"},"type":"Feature"},{"geometry":{"coordinates":[-123.10366,44.62987],"type":"Point"},"properties":{"kind":"stop","name":"Albany Amtrak Station","stop_id":"2555784"},"type":"Feature"},{"geometry":{"coordinates":[-122.89925,44.51571],"type":"Point"},"properties":{"kind":"stop","name":"Walmart (3290 S Santiam Hwy)","stop_id":"2559237"},"type":"Feature"},{"geometry":{"coordinates":[-122.90539,44.52059],"type":"Point"},"properties":{"kind":"stop","name":"Dollar Tree/Bi-Mart (Lebanon Plaza)","stop_id":"2559238"},"type":"Feature"},{"geometry":{"coordinates":[-122.90563,44.52749],"type":"Point"},"properties":{"kind":"stop","name":"Safeway (1983 S Main St)","stop_id":"2559240"},"type":"Feature"},{"geometry":{"coordinates":[-122.90552,44.53674],"type":"Point"},"properties":{"kind":"stop","name":"S Park St & E Oak St (Northbound)","stop_id":"2559243"},"type":"Feature"},{"geometry":{"coordinates":[-122.90855,44.54591],"type":"Point"},"properties":{"kind":"stop","name":"Lebanon Senior Center","stop_id":"2559244"},"type":"Feature"},{"geometry":{"coordinates":[-122.91315,44.55415],"type":"Point"},"properties":{"kind":"stop","name":"Cascade Ridge Apartments","stop_id":"2559245"},"type":"Feature"},{"geometry":{"coordinates":[-122.90548,44.53651],"type":"Point"},"properties":{"kind":"stop","name":"E Oak St & S Park St (Southbound)","stop_id":"2559311"},"type":"Feature"},{"geometry":{"coordinates":[-123.08649,44.63293],"type":"Point"},"properties":{"kind":"stop","name":"9th Ave at Lowes","stop_id":"2729451"},"type":"Feature"},{"geometry":{"coordinates":[-123.12667,44.65688],"type":"Point"},"properties":{"kind":"stop","name":"Gibson Hill & Crocker Lane","stop_id":"2729611"},"type":"Feature"},{"geometry":{"coordinates":[-123.10297,44.63039],"type":"Point"},"properties":{"kind":"stop","name":"Albany Amtrak Station","stop_id":"2734000"},"type":"Feature"},{"geometry":{"coordinates":[-123.1028,44.63052],"type":"Point"},"properties":{"kind":"stop","name":"Albany Amtrak Station","stop_id":"2734001"},"type":"Feature"},{"geometry":{"coordinates":[-123.10369,44.62963],"type":"Point"},"properties":{"kind":"stop","name":"Albany Amtrak Station","stop_id":"2734002"},"type":"Feature"},{"geometry":{"coordinates":[-123.10329,44.63011],"type":"Point"},"properties":{"kind":"stop","name":"Albany Amtrak Station","stop_id":"2734003"},"type":"Feature"},{"geometry":{"coordinates":[-123.11057,44.64416],"type":"Point"},"properties":{"kind":"stop","name":"Hickory and Peacock Ln.","stop_id":"2736337"},"type":"Feature"},{"geometry":{"coordinates":[-122.90636,44.54868],"type":"Point"},"properties":{"kind":"stop","name":"Linn-Benton Community College (LBCC) - Lebanon Center","stop_id":"2751345"},"type":"Feature"},{"geometry":{"coordinates":[-123.04434,44.64367],"type":"Point"},"properties":{"kind":"stop","name":"Knox Butte Rd & Bride Springs St","stop_id":"4212190"},"type":"Feature"},{"geometry":{"coordinates":[-123.04251,44.6437],"type":"Point"},"properties":{"kind":"stop","name":"Timber Ridge","stop_id":"4212191"},"type":"Feature"},{"geometry":{"coordinates":[-123.04809,44.63953],"type":"Point"},"properties":{"kind":"stop","name":"Goldfish Farm Rd & Dogwood Ave","stop_id":"4212192"},"type":"Feature"},{"geometry":{"coordinates":[-123.07714,44.63063],"type":"Point"},"properties":{"kind":"stop","name":"Clay at Fred Meyer","stop_id":"4212193"},"type":"Feature"},{"geometry":{"coordinates":[-123.0979,44.62736],"type":"Point"},"properties":{"kind":"stop","name":"Marian St & 14th Ave (SB)","stop_id":"4212194"},"type":"Feature"},{"geometry":{"coordinates":[-123.08607,44.6251],"type":"Point"},"properties":{"kind":"stop","name":"Queen Ave & Oak St","stop_id":"4212195"},"type":"Feature"},{"geometry":{"coordinates":[-123.08048,44.62873],"type":"Point"},"properties":{"kind":"stop","name":"14th & Heritage Mall","stop_id":"4212197"},"type":"Feature"},{"geometry":{"coordinates":[-123.07169,44.64067],"type":"Point"},"properties":{"kind":"stop","name":"Lake St & Salem Ave","stop_id":"4212201"},"type":"Feature"},{"geometry":{"coordinates":[-123.08023,44.63893],"type":"Point"},"properties":{"kind":"stop","name":"Salem Ave & Burkhart St","stop_id":"4212202"},"type":"Feature"},{"geometry":{"coordinates":[-123.0866,44.63789],"type":"Point"},"properties":{"kind":"stop","name":"South Salem Ave & Mason St","stop_id":"4212203"},"type":"Feature"},{"geometry":{"coordinates":[-123.09211,44.63848],"type":"Point"},"properties":{"kind":"stop","name":"Main St & 1st Ave","stop_id":"4212204"},"type":"Feature"},{"geometry":{"coordinates":[-123.10042,44.63796],"type":"Point"},"properties":{"kind":"stop","name":"1st Ave & Jackson St","stop_id":"4212205"},"type":"Feature"},{"geometry":{"coordinates":[-123.10257,44.6377],"type":"Point"},"properties":{"kind":"stop","name":"1st Ave & Montgomery St","stop_id":"4212206"},"type":"Feature"},{"geometry":{"coordinates":[-123.11298,44.62371],"type":"Point"},"properties":{"kind":"stop","name":"Queen & Walnut","stop_id":"4212207"},"type":"Feature"},{"geometry":{"coordinates":[-123.09238,44.63788],"type":"Point"},"properties":{"kind":"stop","name":"2nd Ave & Main St","stop_id":"4212209"},"type":"Feature"},{"geometry":{"coordinates":[-123.07533,44.62854],"type":"Point"},"properties":{"kind":"stop","name":"Albany Public Library","stop_id":"4212211"},"type":"Feature"},{"geometry":{"coordinates":[-123.073,44.62969],"type":"Point"},"properties":{"kind":"stop","name":"Waverly Dr & 14th Ave","stop_id":"4212212"},"type":"Feature"},{"geometry":{"coordinates":[-123.05016,44.64411],"type":"Point"},"properties":{"kind":"stop","name":"Knox Butte Rd & Clover Ridge Rd","stop_id":"4212213"},"type":"Feature"},{"geometry":{"coordinates":[-123.09787,44.61013],"type":"Point"},"properties":{"kind":"stop","name":"34th Ave & Marion St","stop_id":"4212214"},"type":"Feature"},{"geometry":{"coordinates":[-123.09,44.61023],"type":"Point"},"properties":{"kind":"stop","name":"34th Ave & Hill St","stop_id":"4212215"},"type":"Feature"},{"geometry":{"coordinates":[-123.07314,44.61301],"type":"Point"},"properties":{"kind":"stop","name":"Waverly Dr & Grand Prairie Rd","stop_id":"4212216"},"type":"Feature"},{"geometry":{"coordinates":[-123.07269,44.62098],"type":"Point"},"properties":{"kind":"stop","name":"Waverly Dr & 21st Ave","stop_id":"4212217"},"type":"Feature"},{"geometry":{"coordinates":[-123.08329,44.62272],"type":"Point"},"properties":{"kind":"stop","name":"Geary St & 21 st Ave","stop_id":"4212218"},"type":"Feature"},{"geometry":{"coordinates":[-123.08309,44.61737],"type":"Point"},"properties":{"kind":"stop","name":"Geary St & Grand Prairie Rd","stop_id":"4212219"},"type":"Feature"},{"geometry":{"coordinates":[-123.09017,44.61493],"type":"Point"},"properties":{"kind":"stop","name":"28th Ave & Hill St","stop_id":"4212220"},"type":"Feature"},{"geometry":{"coordinates":[-123.08516,44.61501],"type":"Point"},"properties":{"kind":"stop","name":"28th Ave & Oak St","stop_id":"4212221"},"type":"Feature"},{"geometry":{"coordinates":[-123.10524,44.61018],"type":"Point"},"properties":{"kind":"stop","name":"34th & Calapooia","stop_id":"4212222"},"type":"Feature"},{"geometry":{"coordinates":[-123.07711,44.62973],"type":"Point"},"properties":{"kind":"stop","name":"Clay at Medicap Pharmacy","stop_id":"4226616"},"type":"Feature"},{"geometry":{"coordinates":[-123.07955,44.62887],"type":"Point"},"properties":{"kind":"stop","name":"14th at Heritage Mall","stop_id":"801494"},"type":"Feature"},{"geometry":{"coordinates":[-123.091,44.61474],"type":"Point"},"properties":{"kind":"stop","name":"28th & Madison","stop_id":"801510"},"type":"Feature"},{"geometry":{"coordinates":[-123.10298,44.6368],"type":"Point"},"properties":{"kind":"stop","name":"2nd & Baker","stop_id":"801525"},"type":"Feature"},{"geometry":{"coordinates":[-123.11194,44.61015],"type":"Point"},"properties":{"kind":"stop","name":"34th & Pacific Blvd","stop_id":"801544"},"type":"Feature"},{"geometry":{"coordinates":[-123.08071,44.61049],"type":"Point"},"properties":{"kind":"stop","name":"34th & Chicago St","stop_id":"801545"},"type":"Feature"},{"geometry":{"coordinates":[-123.09861,44.61031],"type":"Point"},"properties":{"kind":"stop","name":"34th & Marion","stop_id":"801547"},"type":"Feature"},{"geometry":{"coordinates":[-123.08546,44.61047],"type":"Point"},"properties":{"kind":"stop","name":"34th & Oak","stop_id":"801548"},"type":"Feature"},{"geometry":{"coordinates":[-123.10511,44.61006],"type":"Point"},"properties":{"kind":"stop","name":"34th & Calapooia","stop_id":"801549"},"type":"Feature"},{"geometry":{"coordinates":[-123.11269,44.60987],"type":"Point"},"properties":{"kind":"stop","name":"34th & Pacific","stop_id":"801550"},"type":"Feature"},{"geometry":{"coordinates":[-123.11489,44.63154],"type":"Point"},"properties":{"kind":"stop","name":"7th & Elm at Albany General Hospital","stop_id":"801604"},"type":"Feature"},{"geometry":{"coordinates":[-123.10932,44.63215],"type":"Point"},"properties":{"kind":"stop","name":"7th & Washington","stop_id":"801605"},"type":"Feature"},{"geometry":{"coordinates":[-123.25458,44.58914],"type":"Point"},"properties":{"kind":"stop","name":"9th & Circle","stop_id":"801609"},"type":"Feature"},{"geometry":{"coordinates":[-123.0904,44.63255],"type":"Point"},"properties":{"kind":"stop","name":"9th & Main","stop_id":"801622"},"type":"Feature"},{"geometry":{"coordinates":[-123.10317,44.63026],"type":"Point"},"properties":{"kind":"stop","name":"Albany Amtrak Station","stop_id":"801640"},"type":"Feature"},{"geometry":{"coordinates":[-123.0773,44.63034],"type":"Point"},"properties":{"kind":"stop","name":"Clay at Heritage Mall","stop_id":"801677"},"type":"Feature"},{"geometry":{"coordinates":[-123.07945,44.60818],"type":"Point"},"properties":{"kind":"stop","name":"Columbus & Columbus Pl (South Albany High School)","stop_id":"801678"},"type":"Feature"},{"geometry":{"coordinates":[-123.07946,44.60262],"type":"Point"},"properties":{"kind":"stop","name":"Del Rio & Columbus","stop_id":"801700"},"type":"Feature"},{"geometry":{"coordinates":[-123.07513,44.60199],"type":"Point"},"properties":{"kind":"stop","name":"Del Rio Ave & Waverly","stop_id":"801701"},"type":"Feature"},{"geometry":{"coordinates":[-123.11438,44.62816],"type":"Point"},"properties":{"kind":"stop","name":"Elm & 11th","stop_id":"801709"},"type":"Feature"},{"geometry":{"coordinates":[-123.11418,44.62274],"type":"Point"},"properties":{"kind":"stop","name":"Elm & Queen Ave","stop_id":"801710"},"type":"Feature"},{"geometry":{"coordinates":[-123.11398,44.61955],"type":"Point"},"properties":{"kind":"stop","name":"Elm & 24th","stop_id":"801711"},"type":"Feature"},{"geometry":{"coordinates":[-123.08343,44.62772],"type":"Point"},"properties":{"kind":"stop","name":"Geary & 15th","stop_id":"801716"},"type":"Feature"},{"geometry":{"coordinates":[-123.11867,44.657],"type":"Point"},"properties":{"kind":"stop","name":"Gibson Hill & Gibson Way","stop_id":"801717"},"type":"Feature"},{"geometry":{"coordinates":[-123.04827,44.63991],"type":"Point"},"properties":{"kind":"stop","name":"Goldfish Farm Rd & Azalea St","stop_id":"801718"},"type":"Feature"},{"geometry":{"coordinates":[-123.10819,44.64404],"type":"Point"},"properties":{"kind":"stop","name":"Toms Garden Center - Across from Old Park & Ride","stop_id":"801744"},"type":"Feature"},{"geometry":{"coordinates":[-123.09044,44.62369],"type":"Point"},"properties":{"kind":"stop","name":"Hill & 19th","stop_id":"801763"},"type":"Feature"},{"geometry":{"coordinates":[-123.09026,44.61836],"type":"Point"},"properties":{"kind":"stop","name":"Hill & 24th","stop_id":"801764"},"type":"Feature"},{"geometry":{"coordinates":[-123.09019,44.61524],"type":"Point"},"properties":{"kind":"stop","name":"Hill & 28th","stop_id":"801765"},"type":"Feature"},{"geometry":{"coordinates":[-123.09803,44.63025],"type":"Point"},"properties":{"kind":"stop","name":"Jackson & 11th","stop_id":"801769"},"type":"Feature"},{"geometry":{"coordinates":[-123.0961,44.61192],"type":"Point"},"properties":{"kind":"stop","name":"Jackson & 32nd","stop_id":"801770"},"type":"Feature"},{"geometry":{"coordinates":[-123.06498,44.63921],"type":"Point"},"properties":{"kind":"stop","name":"Killdeer at Costco","stop_id":"801777"},"type":"Feature"},{"geometry":{"coordinates":[-123.05738,44.64428],"type":"Point"},"properties":{"kind":"stop","name":"Knox Butte & Opal","stop_id":"801796"},"type":"Feature"},{"geometry":{"coordinates":[-123.05315,44.64404],"type":"Point"},"properties":{"kind":"stop","name":"Knox Butte & Timber","stop_id":"801797"},"type":"Feature"},{"geometry":{"coordinates":[-123.11393,44.58615],"type":"Point"},"properties":{"kind":"stop","name":"LBCC - Linn Benton Community College","stop_id":"801798"},"type":"Feature"},{"geometry":{"coordinates":[-123.26345,44.56476],"type":"Point"},"properties":{"kind":"stop","name":"Downtown Transit Center/City Hall [Shelter]","stop_id":"801812"},"type":"Feature"},{"geometry":{"coordinates":[-123.13472,44.65671],"type":"Point"},"properties":{"kind":"stop","name":"North Albany Fire Station","stop_id":"801820"},"type":"Feature"},{"geometry":{"coordinates":[-123.11414,44.64578],"type":"Point"},"properties":{"kind":"stop","name":"North Albany & North Albany Village","stop_id":"801822"},"type":"Feature"},{"geometry":{"coordinates":[-123.1102,44.62261],"type":"Point"},"properties":{"kind":"stop","name":"Taco Bell on Pacific Blvd before Albany Station","stop_id":"801824"},"type":"Feature"},{"geometry":{"coordinates":[-123.11361,44.61504],"type":"Point"},"properties":{"kind":"stop","name":"Pacific Blvd & 29th","stop_id":"801825"},"type":"Feature"},{"geometry":{"coordinates":[-123.11355,44.61104],"type":"Point"},"properties":{"kind":"stop","name":"YMCA on Pacific Blvd","stop_id":"801826"},"type":"Feature"},{"geometry":{"coordinates":[-123.11312,44.59865],"type":"Point"},"properties":{"kind":"stop","name":"College Park","stop_id":"801827"},"type":"Feature"},{"geometry":{"coordinates":[-123.10965,44.59028],"type":"Point"},"properties":{"kind":"stop","name":"Pacific & Ellingson","stop_id":"801828"},"type":"Feature"},{"geometry":{"coordinates":[-123.11296,44.61871],"type":"Point"},"properties":{"kind":"stop","name":"Pacific & 24th","stop_id":"801829"},"type":"Feature"},{"geometry":{"coordinates":[-123.11374,44.60864],"type":"Point"},"properties":{"kind":"stop","name":"35th & Pacific","stop_id":"801833"},"type":"Feature"},{"geometry":{"coordinates":[-123.11327,44.59588],"type":"Point"},"properties":{"kind":"stop","name":"Pacific & 53rd","stop_id":"801834"},"type":"Feature"},{"geometry":{"coordinates":[-123.11003,44.58896],"type":"Point"},"properties":{"kind":"stop","name":"Pacific & Ellingson","stop_id":"801835"},"type":"Feature"},{"geometry":{"coordinates":[-123.08402,44.6253],"type":"Point"},"properties":{"kind":"stop","name":"Queen & Geary","stop_id":"801849"},"type":"Feature"},{"geometry":{"coordinates":[-123.08848,44.62521],"type":"Point"},"properties":{"kind":"stop","name":"Queen & Main","stop_id":"801850"},"type":"Feature"},{"geometry":{"coordinates":[-123.09773,44.62765],"type":"Point"},"properties":{"kind":"stop","name":"Marion St & 14th Ave (NB)","stop_id":"801851"},"type":"Feature"},{"geometry":{"coordinates":[-123.09273,44.62515],"type":"Point"},"properties":{"kind":"stop","name":"Queen & Powell","stop_id":"801852"},"type":"Feature"},{"geometry":{"coordinates":[-123.07869,44.63901],"type":"Point"},"properties":{"kind":"stop","name":"Salem & Columbus","stop_id":"801863"},"type":"Feature"},{"geometry":{"coordinates":[-123.08641,44.638],"type":"Point"},"properties":{"kind":"stop","name":"Salem & Mason","stop_id":"801864"},"type":"Feature"},{"geometry":{"coordinates":[-123.09039,44.63758],"type":"Point"},"properties":{"kind":"stop","name":"Salem & Sherman","stop_id":"801865"},"type":"Feature"},{"geometry":{"coordinates":[-123.07407,44.63976],"type":"Point"},"properties":{"kind":"stop","name":"Salem & Waverly","stop_id":"801866"},"type":"Feature"},{"geometry":{"coordinates":[-123.06983,44.63141],"type":"Point"},"properties":{"kind":"stop","name":"Santiam Hwy & Bain","stop_id":"801871"},"type":"Feature"},{"geometry":{"coordinates":[-123.07956,44.63324],"type":"Point"},"properties":{"kind":"stop","name":"Santiam Hwy & Columbus","stop_id":"801873"},"type":"Feature"},{"geometry":{"coordinates":[-123.10982,44.63557],"type":"Point"},"properties":{"kind":"stop","name":"Washington & 3rd","stop_id":"801915"},"type":"Feature"},{"geometry":{"coordinates":[-123.07334,44.62835],"type":"Point"},"properties":{"kind":"stop","name":"Waverly & 14th","stop_id":"801917"},"type":"Feature"},{"geometry":{"coordinates":[-123.07295,44.62111],"type":"Point"},"properties":{"kind":"stop","name":"Waverly & 21st","stop_id":"801918"},"type":"Feature"},{"geometry":{"coordinates":[-123.07289,44.61739],"type":"Point"},"properties":{"kind":"stop","name":"Waverly & 25th","stop_id":"801919"},"type":"Feature"},{"geometry":{"coordinates":[-123.07317,44.61411],"type":"Point"},"properties":{"kind":"stop","name":"Waverly & Grand Prairie","stop_id":"801920"},"type":"Feature"},{"geometry":{"coordinates":[-123.07344,44.60357],"type":"Point"},"properties":{"kind":"stop","name":"Waverly & Moraga","stop_id":"801921"},"type":"Feature"},{"geometry":{"coordinates":[-123.07344,44.63627],"type":"Point"},"properties":{"kind":"stop","name":"Waverly & 7th Street","stop_id":"801922"},"type":"Feature"},{"geometry":{"coordinates":[-123.0733,44.63057],"type":"Point"},"properties":{"kind":"stop","name":"Waverly at Fred Meyer","stop_id":"801924"},"type":"Feature"},{"geometry":{"coordinates":[-123.07336,44.6084],"type":"Point"},"properties":{"kind":"stop","name":"Waverly Dr & 36th (South Albany High School)","stop_id":"801963"},"type":"Feature"},{"geometry":{"coordinates":[-123.09881,44.63726],"type":"Point"},"properties":{"kind":"stop","name":"2nd & Jefferson St","stop_id":"801964"},"type":"Feature"},{"geometry":{"coordinates":[-123.07119,44.64071],"type":"Point"},"properties":{"kind":"stop","name":"Salem at Waverly Lake","stop_id":"801965"},"type":"Feature"},{"geometry":{"coordinates":[-123.06474,44.6414],"type":"Point"},"properties":{"kind":"stop","name":"Pacific Blvd & Airport Rd","stop_id":"801966"},"type":"Feature"},{"geometry":{"coordinates":[-123.04824,44.63487],"type":"Point"},"properties":{"kind":"stop","name":"Goldfish Farm Rd & Christopher Ave","stop_id":"801967"},"type":"Feature"},{"geometry":{"coordinates":[-123.05074,44.6282],"type":"Point"},"properties":{"kind":"stop","name":"WalMart on Maple Leaf","stop_id":"801968"},"type":"Feature"},{"geometry":{"coordinates":[-123.05566,44.62957],"type":"Point"},"properties":{"kind":"stop","name":"Santiam Hwy & Commercial Way","stop_id":"801969"},"type":"Feature"},{"geometry":{"coordinates":[-123.06564,44.63055],"type":"Point"},"properties":{"kind":"stop","name":"Santiam Hwy & Airport Rd","stop_id":"801970"},"type":"Feature"},{"geometry":{"coordinates":[-123.07303,44.62407],"type":"Point"},"properties":{"kind":"stop","name":"Waverly Dr & 18th","stop_id":"801971"},"type":"Feature"},{"geometry":{"coordinates":[-123.09845,44.61408],"type":"Point"},"properties":{"kind":"stop","name":"Marion St & 30th Ave","stop_id":"801988"},"type":"Feature"},{"geometry":{"coordinates":[-123.26283,44.56324],"type":"Point"},"properties":{"kind":"stop","name":"4th St - btwn Madison & Jefferson","stop_id":"802005"},"type":"Feature"},{"geometry":{"coordinates":[-123.26341,44.57314],"type":"Point"},"properties":{"kind":"stop","name":"9th & Fremont - Avery Square & Cannery Mall","stop_id":"802008"},"type":"Feature"},{"geometry":{"coordinates":[-123.25616,44.58634],"type":"Point"},"properties":{"kind":"stop","name":"9th & Spruce - Ruby Tuesday","stop_id":"802009"},"type":"Feature"},{"geometry":{"coordinates":[-123.26357,44.57324],"type":"Point"},"properties":{"kind":"stop","name":"9th & Fremont Ave - Avery Square","stop_id":"802010"},"type":"Feature"},{"geometry":{"coordinates":[-123.24994,44.58875],"type":"Point"},"properties":{"kind":"stop","name":"Circle & Belvue","stop_id":"802022"},"type":"Feature"},{"geometry":{"coordinates":[-123.26075,44.56722],"type":"Point"},"properties":{"kind":"stop","name":"4th & Harrison","stop_id":"802032"},"type":"Feature"},{"geometry":{"coordinates":[-123.26385,44.56847],"type":"Point"},"properties":{"kind":"stop","name":"Harrison & 7th","stop_id":"802033"},"type":"Feature"},{"geometry":{"coordinates":[-123.24366,44.585],"type":"Point"},"properties":{"kind":"stop","name":"Hewlett Packard","stop_id":"802034"},"type":"Feature"},{"geometry":{"coordinates":[-123.21804,44.60779],"type":"Point"},"properties":{"kind":"stop","name":"Davis Family Farm & Childrens Farm Home - Flag Stop","stop_id":"802038"},"type":"Feature"},{"geometry":{"coordinates":[-123.23417,44.56383],"type":"Point"},"properties":{"kind":"stop","name":"Peoria Market & Wolcott - Flag Stop","stop_id":"802039"},"type":"Feature"},{"geometry":{"coordinates":[-123.19856,44.56419],"type":"Point"},"properties":{"kind":"stop","name":"Hwy 34 & Riverside - Westbound - Flag Stop","stop_id":"802040"},"type":"Feature"},{"geometry":{"coordinates":[-123.10999,44.55996],"type":"Point"},"properties":{"kind":"stop","name":"Hwy 99 at Porters","stop_id":"802052"},"type":"Feature"},{"geometry":{"coordinates":[-123.26346,44.56492],"type":"Point"},"properties":{"kind":"stop","name":"Downtown Transit Center","stop_id":"802054"},"type":"Feature"},{"geometry":{"coordinates":[-123.08482,44.63411],"type":"Point"},"properties":{"kind":"stop","name":"Goodwill on Pacific Blvd & Cleveland - Flag Stop","stop_id":"802058"},"type":"Feature"},{"geometry":{"coordinates":[-123.11395,44.61435],"type":"Point"},"properties":{"kind":"stop","name":"Pacific & 29th - Flag Stop","stop_id":"802065"},"type":"Feature"},{"geometry":{"coordinates":[-123.25528,44.58826],"type":"Point"},"properties":{"kind":"stop","name":"9th & Circle Blvd - Rite-Aid","stop_id":"802221"},"type":"Feature"},{"geometry":{"coordinates":[-123.24839,44.58904],"type":"Point"},"properties":{"kind":"stop","name":"Circle & Belvue","stop_id":"802254"},"type":"Feature"},{"geometry":{"coordinates":[-123.2736,44.56503],"type":"Point"},"properties":{"kind":"stop","name":"14th & Jefferson & OSU","stop_id":"802475"},"type":"Feature"},{"geometry":{"coordinates":[-123.21783,44.60771],"type":"Point"},"properties":{"kind":"stop","name":"Davis Family Farm & Childrens Farm Home - Flag Stop","stop_id":"802549"},"type":"Feature"},{"geometry":{"coordinates":[-123.11021,44.55993],"type":"Point"},"properties":{"kind":"stop","name":"Roland Dr & 99E - Flag Stop","stop_id":"802550"},"type":"Feature"},{"geometry":{"coordinates":[-123.23554,44.56407],"type":"Point"},"properties":{"kind":"stop","name":"Hwy 34 & Wolcott St & Peoria St - Flag Stop","stop_id":"802551"},"type":"Feature"},{"geometry":{"coordinates":[-123.1145,44.6449],"type":"Point"},"properties":{"kind":"stop","name":"North Albany Park & Ride","stop_id":"805272"},"type":"Feature"},{"geometry":{"coordinates":[-123.11644,44.65122],"type":"Point"},"properties":{"kind":"stop","name":"North Albany Elementary & Middle School","stop_id":"805273"},"type":"Feature"},{"geometry":{"coordinates":[-123.09405,44.63372],"type":"Point"},"properties":{"kind":"stop","name":"7th & Madison","stop_id":"805274"},"type":"Feature"},{"geometry":{"coordinates":[-123.08875,44.61039],"type":"Point"},"properties":{"kind":"stop","name":"34th & Tudor","stop_id":"805275"},"type":"Feature"}],"type":"FeatureCollection"}
