{"features":[{"geometry":{"coordinates":[[-107.82204,37.93809],[-107.82194,37.93793],[-107.82164,37.93845],[-107.81916,37.93774],[-107.81781,37.93805],[-107.81408,37.9371],[-107.81435,37.93632],[-107.81192,37.93564],[-107.8116,37.93646],[-107.80913,37.93583],[-107.80881,37.93664],[-107.8075,37.93629],[-107.80746,37.93613],[-107.80236,37.93509],[-107.80227,37.93491],[-107.80159,37.93474],[-107.80053,37.93479],[-107.80002,37.93506],[-107.80321,37.9352],[-107.81789,37.939],[-107.81865,37.9394],[-107.82093,37.94128],[-107.82166,37.93837],[-107.82204,37.93809]],"type":"LineString"},"properties":{"color":"#FF0000","color_name":"red","kind":"route","label":"Galloping Goose","long":"Galloping Goose","route_id":"17117","text_color":"#000000","type_label":"Bus"},"type":"Feature"},{"geometry":{"coordinates":[-107.88182,37.94642],"type":"Point"},"properties":{"kind":"stop","name":"Upper Lawson Hill","stop_id":"2618220"},"type":"Feature"},{"geometry":{"coordinates":[-107.87328,37.94718],"type":"Point"},"properties":{"kind":"stop","name":"Lawson Hill Park & Ride","stop_id":"2618221"},"type":"Feature"},{"geometry":{"coordinates":[-108.05299,38.01603],"type":"Point"},"properties":{"kind":"stop","name":"Placerville","stop_id":"2618222"},"type":"Feature"},{"geometry":{"coordinates":[-108.29607,38.13205],"type":"Point"},"properties":{"kind":"stop","name":"Norwood Fairgrounds","stop_id":"2618223"},"type":"Feature"},{"geometry":{"coordinates":[-107.81283,37.93778],"type":"Point"},"properties":{"kind":"stop","name":"Courthouse","stop_id":"2618224"},"type":"Feature"},{"geometry":{"coordinates":[-108.03164,37.69291],"type":"Point"},"properties":{"kind":"stop","name":"Enterprise","stop_id":"2618226"},"type":"Feature"},{"geometry":{"coordinates":[-107.81064,37.93722],"type":"Point"},"properties":{"kind":"stop","name":"Pine Street","stop_id":"2629528"},"type":"Feature"},{"geometry":{"coordinates":[-107.80002,37.93503],"type":"Point"},"properties":{"kind":"stop","name":"Gold Run","stop_id":"2629529"},"type":"Feature"},{"geometry":{"coordinates":[-107.8071,37.93608],"type":"Point"},"properties":{"kind":"stop","name":"Telluride Town Park East","stop_id":"2629530"},"type":"Feature"},{"geometry":{"coordinates":[-107.80925,37.9358],"type":"Point"},"properties":{"kind":"stop","name":"Post Office","stop_id":"2629531"},"type":"Feature"},{"geometry":{"coordinates":[-107.81127,37.93633],"type":"Point"},"properties":{"kind":"stop","name":"Library","stop_id":"2629532"},"type":"Feature"},{"geometry":{"coordinates":[-107.81345,37.93602],"type":"Point"},"properties":{"kind":"stop","name":"Gondola","stop_id":"2629533"},"type":"Feature"},{"geometry":{"coordinates":[-107.81619,37.93756],"type":"Point"},"properties":{"kind":"stop","name":"Medical Center","stop_id":"2629534"},"type":"Feature"},{"geometry":{"coordinates":[-107.81915,37.93769],"type":"Point"},"properties":{"kind":"stop","name":"Carhenge","stop_id":"2629535"},"type":"Feature"},{"geometry":{"coordinates":[-107.82207,37.9381],"type":"Point"},"properties":{"kind":"stop","name":"Shandoka","stop_id":"2629536"},"type":"Feature"},{"geometry":{"coordinates":[-107.84719,37.93622],"type":"Point"},"properties":{"kind":"stop","name":"Station Mountain Village Chondola","stop_id":"2629537"},"type":"Feature"},{"geometry":{"coordinates":[-107.85623,37.93937],"type":"Point"},"properties":{"kind":"stop","name":"Station Meadows Chondola","stop_id":"2629538"},"type":"Feature"},{"geometry":{"coordinates":[-107.85368,37.93257],"type":"Point"},"properties":{"kind":"stop","name":"Station Market Plaza","stop_id":"2629539"},"type":"Feature"},{"geometry":{"coordinates":[-107.84547,37.93664],"type":"Point"},"properties":{"kind":"stop","name":"Station Mountain Village","stop_id":"2629540"},"type":"Feature"},{"geometry":{"coordinates":[-107.84494,37.93665],"type":"Point"},"properties":{"kind":"stop","name":"Station Mountain Village","stop_id":"2629541"},"type":"Feature"},{"geometry":{"coordinates":[-107.83305,37.93133],"type":"Point"},"properties":{"kind":"stop","name":"Station San Sophia","stop_id":"2629542"},"type":"Feature"},{"geometry":{"coordinates":[-107.81385,37.93606],"type":"Point"},"properties":{"kind":"stop","name":"Station Telluride","stop_id":"2629543"},"type":"Feature"},{"geometry":{"coordinates":[-107.85161,37.94998],"type":"Point"},"properties":{"kind":"stop","name":"Pilot Knob WB","stop_id":"2729563"},"type":"Feature"},{"geometry":{"coordinates":[-107.85398,37.95053],"type":"Point"},"properties":{"kind":"stop","name":"Eider Creek EB","stop_id":"2729564"},"type":"Feature"},{"geometry":{"coordinates":[-107.84906,37.94875],"type":"Point"},"properties":{"kind":"stop","name":"Hillside EB","stop_id":"2729565"},"type":"Feature"},{"geometry":{"coordinates":[-107.84875,37.94876],"type":"Point"},"properties":{"kind":"stop","name":"Hillside WB","stop_id":"2729566"},"type":"Feature"},{"geometry":{"coordinates":[-108.00183,37.9946],"type":"Point"},"properties":{"kind":"stop","name":"Sawpit WB","stop_id":"2729569"},"type":"Feature"},{"geometry":{"coordinates":[-108.0022,37.99451],"type":"Point"},"properties":{"kind":"stop","name":"Sawpit EB","stop_id":"2729570"},"type":"Feature"},{"geometry":{"coordinates":[-108.02275,37.99401],"type":"Point"},"properties":{"kind":"stop","name":"Fall Creek WB","stop_id":"2729571"},"type":"Feature"},{"geometry":{"coordinates":[-108.02289,37.9939],"type":"Point"},"properties":{"kind":"stop","name":"Fall Creek EB","stop_id":"2729572"},"type":"Feature"},{"geometry":{"coordinates":[-108.0316,37.99596],"type":"Point"},"properties":{"kind":"stop","name":"Angler WB","stop_id":"2729573"},"type":"Feature"},{"geometry":{"coordinates":[-108.03276,37.9965],"type":"Point"},"properties":{"kind":"stop","name":"Angler EB","stop_id":"2729574"},"type":"Feature"},{"geometry":{"coordinates":[-108.03843,38.00412],"type":"Point"},"properties":{"kind":"stop","name":"Juniper Village EB","stop_id":"2729575"},"type":"Feature"},{"geometry":{"coordinates":[-108.03829,38.00437],"type":"Point"},"properties":{"kind":"stop","name":"Juniper Village WB","stop_id":"2729576"},"type":"Feature"},{"geometry":{"coordinates":[-107.88337,37.84366],"type":"Point"},"properties":{"kind":"stop","name":"San Bernardo","stop_id":"2729577"},"type":"Feature"},{"geometry":{"coordinates":[-107.88361,37.84367],"type":"Point"},"properties":{"kind":"stop","name":"San Bernardo","stop_id":"2729578"},"type":"Feature"},{"geometry":{"coordinates":[-107.87716,37.94709],"type":"Point"},"properties":{"kind":"stop","name":"Telluride Mountain School","stop_id":"2729861"},"type":"Feature"},{"geometry":{"coordinates":[-107.8604,37.94014],"type":"Point"},"properties":{"kind":"stop","name":"Meadows Post Office","stop_id":"2735507"},"type":"Feature"},{"geometry":{"coordinates":[-107.84759,37.93547],"type":"Point"},"properties":{"kind":"stop","name":"Blue Mesa Bus Stop","stop_id":"2735510"},"type":"Feature"},{"geometry":{"coordinates":[-107.81246,37.93853],"type":"Point"},"properties":{"kind":"stop","name":"North Oak/Columbia","stop_id":"2735513"},"type":"Feature"},{"geometry":{"coordinates":[-107.80701,37.93622],"type":"Point"},"properties":{"kind":"stop","name":"Telluride Town Park West","stop_id":"2752389"},"type":"Feature"},{"geometry":{"coordinates":[-107.85742,37.93983],"type":"Point"},"properties":{"kind":"stop","name":"Big Billie's","stop_id":"3449922"},"type":"Feature"},{"geometry":{"coordinates":[-107.84682,37.93798],"type":"Point"},"properties":{"kind":"stop","name":"Centrum Bus Stop","stop_id":"3449923"},"type":"Feature"},{"geometry":{"coordinates":[-108.54605,38.26165],"type":"Point"},"properties":{"kind":"stop","name":"Nucla Town Park","stop_id":"3879429"},"type":"Feature"},{"geometry":{"coordinates":[-108.56759,38.21728],"type":"Point"},"properties":{"kind":"stop","name":"Naturita EB","stop_id":"3879430"},"type":"Feature"},{"geometry":{"coordinates":[-108.56765,38.21705],"type":"Point"},"properties":{"kind":"stop","name":"Naturita WB","stop_id":"3879431"},"type":"Feature"},{"geometry":{"coordinates":[-108.41761,38.17443],"type":"Point"},"properties":{"kind":"stop","name":"Redvale Post Office","stop_id":"3879432"},"type":"Feature"},{"geometry":{"coordinates":[-107.89805,37.94501],"type":"Point"},"properties":{"kind":"stop","name":"Two Rivers","stop_id":"3879433"},"type":"Feature"},{"geometry":{"coordinates":[-108.54588,38.27146],"type":"Point"},"properties":{"kind":"stop","name":"Nucla North","stop_id":"3879434"},"type":"Feature"},{"geometry":{"coordinates":[-108.29141,38.1307],"type":"Point"},"properties":{"kind":"stop","name":"Pine St EB","stop_id":"3879461"},"type":"Feature"},{"geometry":{"coordinates":[-108.28852,38.13068],"type":"Point"},"properties":{"kind":"stop","name":"Market St EB","stop_id":"3879462"},"type":"Feature"},{"geometry":{"coordinates":[-108.23969,38.13071],"type":"Point"},"properties":{"kind":"stop","name":"Norwood Park & Ride","stop_id":"3879465"},"type":"Feature"},{"geometry":{"coordinates":[-108.06916,38.02371],"type":"Point"},"properties":{"kind":"stop","name":"Old Placerville EB","stop_id":"3879466"},"type":"Feature"},{"geometry":{"coordinates":[-107.91513,37.94721],"type":"Point"},"properties":{"kind":"stop","name":"Vance Drive","stop_id":"3879467"},"type":"Feature"},{"geometry":{"coordinates":[-108.29132,38.13085],"type":"Point"},"properties":{"kind":"stop","name":"Pine St WB","stop_id":"3879468"},"type":"Feature"},{"geometry":{"coordinates":[-108.06904,38.0238],"type":"Point"},"properties":{"kind":"stop","name":"Old Placerville WB","stop_id":"3879469"},"type":"Feature"},{"geometry":{"coordinates":[-108.28878,38.13084],"type":"Point"},"properties":{"kind":"stop","name":"Market St WB","stop_id":"3879470"},"type":"Feature"},{"geometry":{"coordinates":[-107.81952,37.94022],"type":"Point"},"properties":{"kind":"stop","name":"Telluride High School WB","stop_id":"4149674"},"type":"Feature"},{"geometry":{"coordinates":[-107.85391,37.95064],"type":"Point"},"properties":{"kind":"stop","name":"Eider Creek WB","stop_id":"4149677"},"type":"Feature"},{"geometry":{"coordinates":[-107.85665,37.9331],"type":"Point"},"properties":{"kind":"stop","name":"Village Court Apartments","stop_id":"4149678"},"type":"Feature"},{"geometry":{"coordinates":[-107.87961,37.93293],"type":"Point"},"properties":{"kind":"stop","name":"Ski Ranches EB","stop_id":"4149679"},"type":"Feature"},{"geometry":{"coordinates":[-107.81967,37.94019],"type":"Point"},"properties":{"kind":"stop","name":"Telluride High School EB","stop_id":"4149682"},"type":"Feature"},{"geometry":{"coordinates":[-107.87869,37.94658],"type":"Point"},"properties":{"kind":"stop","name":"Telluride Mountain School EB","stop_id":"4149683"},"type":"Feature"},{"geometry":{"coordinates":[-107.87872,37.94673],"type":"Point"},"properties":{"kind":"stop","name":"Telluride Mountain School WB","stop_id":"4149684"},"type":"Feature"},{"geometry":{"coordinates":[-107.87483,37.94033],"type":"Point"},"properties":{"kind":"stop","name":"Adams Way","stop_id":"4149685"},"type":"Feature"},{"geometry":{"coordinates":[-107.86999,37.94358],"type":"Point"},"properties":{"kind":"stop","name":"Lawson Overlook","stop_id":"4149686"},"type":"Feature"},{"geometry":{"coordinates":[-107.86691,37.94339],"type":"Point"},"properties":{"kind":"stop","name":"Double Eagle","stop_id":"4149688"},"type":"Feature"},{"geometry":{"coordinates":[-107.86131,37.9417],"type":"Point"},"properties":{"kind":"stop","name":"The Boulders","stop_id":"4149689"},"type":"Feature"},{"geometry":{"coordinates":[-107.86565,37.93956],"type":"Point"},"properties":{"kind":"stop","name":"Double Eagle & Russel Dr","stop_id":"4149691"},"type":"Feature"},{"geometry":{"coordinates":[-107.87955,37.93314],"type":"Point"},"properties":{"kind":"stop","name":"Ski Ranches WB","stop_id":"4149692"},"type":"Feature"}],"type":"FeatureCollection"}
