{"features":[{"geometry":{"coordinates":[[-86.88296,35.96416],[-86.88311,35.96411],[-86.88274,35.96374],[-86.88316,35.96348],[-86.88372,35.96325],[-86.88497,35.96326],[-86.88504,35.96144],[-86.88484,35.95963],[-86.87848,35.93591],[-86.87741,35.93283],[-86.87819,35.93267],[-86.8798,35.93285],[-86.88019,35.93177],[-86.88081,35.92777],[-86.88061,35.9269],[-86.87424,35.92756],[-86.87163,35.92392],[-86.8723,35.92104],[-86.87414,35.9214],[-86.87694,35.91859],[-86.87801,35.91779],[-86.87714,35.91658],[-86.87339,35.91628],[-86.87358,35.91525],[-86.87506,35.91529],[-86.87645,35.91461],[-86.87829,35.91476],[-86.87975,35.91672],[-86.88189,35.91605],[-86.88125,35.91906],[-86.88558,35.91947],[-86.88717,35.9194],[-86.88736,35.91919],[-86.8879,35.91675],[-86.89021,35.917],[-86.89047,35.9151],[-86.88717,35.91477],[-86.88499,35.91479],[-86.88475,35.91439],[-86.89055,35.91115],[-86.89367,35.9088],[-86.89661,35.90753],[-86.89952,35.90741],[-86.90063,35.90753],[-86.90024,35.90944],[-86.90161,35.90965],[-86.9024,35.90754],[-86.90311,35.90746],[-86.90275,35.90972]],"type":"LineString"},"properties":{"color":"#CF5436","color_name":"red","kind":"route","label":"1","long":"Red Route","route_id":"13603","text_color":"#FFFFFF","type_label":"Bus"},"type":"Feature"},{"geometry":{"coordinates":[[-86.87213,35.92213],[-86.87222,35.92136],[-86.87152,35.92127],[-86.87123,35.92245],[-86.87195,35.92254],[-86.87163,35.92392],[-86.8693,35.92503],[-86.86881,35.92502],[-86.86854,35.92539],[-86.8661,35.92665],[-86.86512,35.92898],[-86.86245,35.93248],[-86.85988,35.93123],[-86.85747,35.93068],[-86.85533,35.92951],[-86.85317,35.92923],[-86.85209,35.93599],[-86.84827,35.93576],[-86.84911,35.9304],[-86.84919,35.93014],[-86.84977,35.93001],[-86.84992,35.92907],[-86.84728,35.92903],[-86.84269,35.92956],[-86.84135,35.92949],[-86.83114,35.92818],[-86.82741,35.92679],[-86.82447,35.92642],[-86.82431,35.92706],[-86.82439,35.92853],[-86.82376,35.93263],[-86.82384,35.93493],[-86.82349,35.93595],[-86.82181,35.93809],[-86.82092,35.93759],[-86.82016,35.9379],[-86.81866,35.93772],[-86.81844,35.93785],[-86.81841,35.93804],[-86.82006,35.93823],[-86.81983,35.9397],[-86.82138,35.93989],[-86.8208,35.94277],[-86.81949,35.94485],[-86.81977,35.94797],[-86.81963,35.94888],[-86.81844,35.95077],[-86.81774,35.95031],[-86.81826,35.94999],[-86.81862,35.94917],[-86.8193,35.94949],[-86.81778,35.9518],[-86.81541,35.95254],[-86.81506,35.95311],[-86.81491,35.95308],[-86.81506,35.95311],[-86.81477,35.95394],[-86.81354,35.95369],[-86.81289,35.95386],[-86.81253,35.95421],[-86.81225,35.95498],[-86.81299,35.95606],[-86.81354,35.95611],[-86.81357,35.95592],[-86.81245,35.95441],[-86.8107,35.95955],[-86.81117,35.9603],[-86.81249,35.96066],[-86.81226,35.96134],[-86.8084,35.96045],[-86.80522,35.95882],[-86.8023,35.9583],[-86.80397,35.95588],[-86.80429,35.95381],[-86.80463,35.95299],[-86.8069,35.95047],[-86.8074,35.94901],[-86.80835,35.94743],[-86.80927,35.9447],[-86.81054,35.94174],[-86.81061,35.94045],[-86.80988,35.93873],[-86.80981,35.93795],[-86.81141,35.93464],[-86.81206,35.93203],[-86.8124,35.93135],[-86.81628,35.92655],[-86.81693,35.92523],[-86.81685,35.92303],[-86.81254,35.92229],[-86.81223,35.92309],[-86.81098,35.92466],[-86.80947,35.92413],[-86.80871,35.92347],[-86.80998,35.92233],[-86.811,35.92203],[-86.81572,35.92308],[-86.81687,35.92318],[-86.81671,35.91925],[-86.82018,35.91979],[-86.82055,35.91749],[-86.8213,35.91728],[-86.82146,35.91683]],"type":"LineString"},"properties":{"color":"#4168B2","color_name":"teal","kind":"route","label":"2","long":"Blue Route","route_id":"13604","text_color":"#FFFFFF","type_label":"Bus"},"type":"Feature"},{"geometry":{"coordinates":[-86.87411,35.92716],"type":"Point"},"properties":{"kind":"stop","name":"5th Avenue North & Mt. Hope Street - South","stop_id":"2537796"},"type":"Feature"},{"geometry":{"coordinates":[-86.87294,35.92588],"type":"Point"},"properties":{"kind":"stop","name":"5th Avenue North & Bridge Street - North","stop_id":"2537797"},"type":"Feature"},{"geometry":{"coordinates":[-86.81524,35.95305],"type":"Point"},"properties":{"kind":"stop","name":"South Springs Drive - West","stop_id":"2537798"},"type":"Feature"},{"geometry":{"coordinates":[-86.81492,35.95303],"type":"Point"},"properties":{"kind":"stop","name":"South Springs Drive - East","stop_id":"2537799"},"type":"Feature"},{"geometry":{"coordinates":[-86.85218,35.93493],"type":"Point"},"properties":{"kind":"stop","name":"Sycamore Drive & Cherry Drive - East","stop_id":"2537800"},"type":"Feature"},{"geometry":{"coordinates":[-86.85226,35.93517],"type":"Point"},"properties":{"kind":"stop","name":"Sycamore Drive & Cherry Drive - West","stop_id":"2537801"},"type":"Feature"},{"geometry":{"coordinates":[-86.85301,35.92979],"type":"Point"},"properties":{"kind":"stop","name":"Sycamore Drive & Liberty Pike - East","stop_id":"2537802"},"type":"Feature"},{"geometry":{"coordinates":[-86.8528,35.93112],"type":"Point"},"properties":{"kind":"stop","name":"Sycamore Drive & Maple Drive - East","stop_id":"2537804"},"type":"Feature"},{"geometry":{"coordinates":[-86.87896,35.93706],"type":"Point"},"properties":{"kind":"stop","name":"Hillsboro Road  & Granville Road - South","stop_id":"2537805"},"type":"Feature"},{"geometry":{"coordinates":[-86.81058,35.94011],"type":"Point"},"properties":{"kind":"stop","name":"Carothers Parkway & Nissan Way - East","stop_id":"2537806"},"type":"Feature"},{"geometry":{"coordinates":[-86.84882,35.93282],"type":"Point"},"properties":{"kind":"stop","name":"Chestnut Lane & Oak Drive - East","stop_id":"2537807"},"type":"Feature"},{"geometry":{"coordinates":[-86.81827,35.91939],"type":"Point"},"properties":{"kind":"stop","name":"Physicians Way - West","stop_id":"2537808"},"type":"Feature"},{"geometry":{"coordinates":[-86.81152,35.96035],"type":"Point"},"properties":{"kind":"stop","name":"Galleria Boulevard - Red Robin - West","stop_id":"2537809"},"type":"Feature"},{"geometry":{"coordinates":[-86.88149,35.91776],"type":"Point"},"properties":{"kind":"stop","name":"West Main Street and Forrest Street - South","stop_id":"2537810"},"type":"Feature"},{"geometry":{"coordinates":[-86.81152,35.96052],"type":"Point"},"properties":{"kind":"stop","name":"Galleria Boulevard - Pier 1 - East","stop_id":"2537811"},"type":"Feature"},{"geometry":{"coordinates":[-86.88264,35.95132],"type":"Point"},"properties":{"kind":"stop","name":"Christ Community Church - South","stop_id":"2537812"},"type":"Feature"},{"geometry":{"coordinates":[-86.85181,35.93603],"type":"Point"},"properties":{"kind":"stop","name":"Ash Drive & Sycamore Drive - West","stop_id":"2537813"},"type":"Feature"},{"geometry":{"coordinates":[-86.87604,35.92727],"type":"Point"},"properties":{"kind":"stop","name":"Mt. Hope Street & Head Springs Depot - South","stop_id":"2537814"},"type":"Feature"},{"geometry":{"coordinates":[-86.87726,35.91664],"type":"Point"},"properties":{"kind":"stop","name":"Carter Street & Strahl Street - South","stop_id":"2537815"},"type":"Feature"},{"geometry":{"coordinates":[-86.8844,35.91931],"type":"Point"},"properties":{"kind":"stop","name":"North Petway Street & Brookwood Avenue - North","stop_id":"2537816"},"type":"Feature"},{"geometry":{"coordinates":[-86.84869,35.93293],"type":"Point"},"properties":{"kind":"stop","name":"Chestnut Lane & Oak Drive - West","stop_id":"2537817"},"type":"Feature"},{"geometry":{"coordinates":[-86.82423,35.9272],"type":"Point"},"properties":{"kind":"stop","name":"Mallory Lane & Liberty Pike - East","stop_id":"2537818"},"type":"Feature"},{"geometry":{"coordinates":[-86.80971,35.93729],"type":"Point"},"properties":{"kind":"stop","name":"Carothers Parkway & Resource Parkway - West","stop_id":"2537819"},"type":"Feature"},{"geometry":{"coordinates":[-86.87531,35.91528],"type":"Point"},"properties":{"kind":"stop","name":"Public Library - South","stop_id":"2537820"},"type":"Feature"},{"geometry":{"coordinates":[-86.82374,35.93211],"type":"Point"},"properties":{"kind":"stop","name":"Centennial High School - East","stop_id":"2537821"},"type":"Feature"},{"geometry":{"coordinates":[-86.82374,35.93389],"type":"Point"},"properties":{"kind":"stop","name":"Mallory Lane & West McEwen Drive - East","stop_id":"2537823"},"type":"Feature"},{"geometry":{"coordinates":[-86.87794,35.9339],"type":"Point"},"properties":{"kind":"stop","name":"Executive House Condos - South","stop_id":"2537824"},"type":"Feature"},{"geometry":{"coordinates":[-86.85609,35.92981],"type":"Point"},"properties":{"kind":"stop","name":"Liberty Pike & Eddy Lane - East","stop_id":"2537825"},"type":"Feature"},{"geometry":{"coordinates":[-86.88018,35.932],"type":"Point"},"properties":{"kind":"stop","name":"Magnolia/Del Rio","stop_id":"2537826"},"type":"Feature"},{"geometry":{"coordinates":[-86.81992,35.94672],"type":"Point"},"properties":{"kind":"stop","name":"Mallory Lane - Walgreens - West","stop_id":"2537827"},"type":"Feature"},{"geometry":{"coordinates":[-86.80624,35.95098],"type":"Point"},"properties":{"kind":"stop","name":"Carothers Parkway & Gillespie Drive - West","stop_id":"2537828"},"type":"Feature"},{"geometry":{"coordinates":[-86.83081,35.9282],"type":"Point"},"properties":{"kind":"stop","name":"Liberty Pike & Liberty Hills Drive - West","stop_id":"2537829"},"type":"Feature"},{"geometry":{"coordinates":[-86.80838,35.94647],"type":"Point"},"properties":{"kind":"stop","name":"Carothers & Cool Springs","stop_id":"2537831"},"type":"Feature"},{"geometry":{"coordinates":[-86.88471,35.96098],"type":"Point"},"properties":{"kind":"stop","name":"Hillsboro Dr & Wheaton Hill Lane Walking Path - North","stop_id":"2537832"},"type":"Feature"},{"geometry":{"coordinates":[-86.87835,35.91482],"type":"Point"},"properties":{"kind":"stop","name":"Granbury Street & Johnson Circle - South","stop_id":"2537833"},"type":"Feature"},{"geometry":{"coordinates":[-86.8411,35.92935],"type":"Point"},"properties":{"kind":"stop","name":"Liberty Pike & Jordan Road - East","stop_id":"2537834"},"type":"Feature"},{"geometry":{"coordinates":[-86.83362,35.92837],"type":"Point"},"properties":{"kind":"stop","name":"Liberty Pike & Glen Oaks Drive - East","stop_id":"2537835"},"type":"Feature"},{"geometry":{"coordinates":[-86.85943,35.93104],"type":"Point"},"properties":{"kind":"stop","name":"Liberty Pike & Daniels Drive - East","stop_id":"2537836"},"type":"Feature"},{"geometry":{"coordinates":[-86.88023,35.93193],"type":"Point"},"properties":{"kind":"stop","name":"Magnolia/Del Rio","stop_id":"2537837"},"type":"Feature"},{"geometry":{"coordinates":[-86.88629,35.91939],"type":"Point"},"properties":{"kind":"stop","name":"North Petway Street & West End Circle - North","stop_id":"2537838"},"type":"Feature"},{"geometry":{"coordinates":[-86.87968,35.94105],"type":"Point"},"properties":{"kind":"stop","name":"Hillsboro Road & Claude Yates Drive - North","stop_id":"2537839"},"type":"Feature"},{"geometry":{"coordinates":[-86.86767,35.92574],"type":"Point"},"properties":{"kind":"stop","name":"East Main Street & 2nd Avenue North - East","stop_id":"2537841"},"type":"Feature"},{"geometry":{"coordinates":[-86.80978,35.92442],"type":"Point"},"properties":{"kind":"stop","name":"Columbia State College","stop_id":"2537842"},"type":"Feature"},{"geometry":{"coordinates":[-86.81833,35.94999],"type":"Point"},"properties":{"kind":"stop","name":"Mallory Lane & Cool Springs Market - East","stop_id":"2537844"},"type":"Feature"},{"geometry":{"coordinates":[-86.87641,35.92736],"type":"Point"},"properties":{"kind":"stop","name":"Mt. Hope Street & Primitive Baptist Church - North","stop_id":"2537845"},"type":"Feature"},{"geometry":{"coordinates":[-86.81335,35.95623],"type":"Point"},"properties":{"kind":"stop","name":"Galleria Mall","stop_id":"2537846"},"type":"Feature"},{"geometry":{"coordinates":[-86.88054,35.91637],"type":"Point"},"properties":{"kind":"stop","name":"Natchez Street & Spring Street - North","stop_id":"2537847"},"type":"Feature"},{"geometry":{"coordinates":[-86.82398,35.93299],"type":"Point"},"properties":{"kind":"stop","name":"Centennial High School - West","stop_id":"2537848"},"type":"Feature"},{"geometry":{"coordinates":[-86.87682,35.91863],"type":"Point"},"properties":{"kind":"stop","name":"Natchez Street & West Fowlkes Street - North","stop_id":"2537849"},"type":"Feature"},{"geometry":{"coordinates":[-86.80638,35.95963],"type":"Point"},"properties":{"kind":"stop","name":"Bakers Bridge Avenue & Market Exchange Court - West","stop_id":"2537850"},"type":"Feature"},{"geometry":{"coordinates":[-86.8828,35.96365],"type":"Point"},"properties":{"kind":"stop","name":"Fieldstone Farms","stop_id":"2537852"},"type":"Feature"},{"geometry":{"coordinates":[-86.8358,35.92879],"type":"Point"},"properties":{"kind":"stop","name":"Liberty Pike & Eagles Glen Drive - West","stop_id":"2537853"},"type":"Feature"},{"geometry":{"coordinates":[-86.82719,35.92685],"type":"Point"},"properties":{"kind":"stop","name":"Liberty Pike & Stanwick Drive - West","stop_id":"2537854"},"type":"Feature"},{"geometry":{"coordinates":[-86.82068,35.94283],"type":"Point"},"properties":{"kind":"stop","name":"Mallory Lane - Sam's Club - East","stop_id":"2537855"},"type":"Feature"},{"geometry":{"coordinates":[-86.81942,35.94487],"type":"Point"},"properties":{"kind":"stop","name":"Mallory Lane - Panda Express - East","stop_id":"2537856"},"type":"Feature"},{"geometry":{"coordinates":[-86.80532,35.95875],"type":"Point"},"properties":{"kind":"stop","name":"Bakers Bridge Avenue & Market Exchange Court - East","stop_id":"2537857"},"type":"Feature"},{"geometry":{"coordinates":[-86.88762,35.91487],"type":"Point"},"properties":{"kind":"stop","name":"West Meade Boulevard & Chickering Road - North","stop_id":"2537858"},"type":"Feature"},{"geometry":{"coordinates":[-86.90271,35.90971],"type":"Point"},"properties":{"kind":"stop","name":"Bradford and Davidson","stop_id":"2537860"},"type":"Feature"},{"geometry":{"coordinates":[-86.88509,35.96265],"type":"Point"},"properties":{"kind":"stop","name":"Hillsboro Road & Fieldstone Parkway - South","stop_id":"2537861"},"type":"Feature"},{"geometry":{"coordinates":[-86.84821,35.93573],"type":"Point"},"properties":{"kind":"stop","name":"Chestnut Lane & Ash Drive - West","stop_id":"2537862"},"type":"Feature"},{"geometry":{"coordinates":[-86.83082,35.92804],"type":"Point"},"properties":{"kind":"stop","name":"Liberty Pike & Liberty Hills Drive - East","stop_id":"2537863"},"type":"Feature"},{"geometry":{"coordinates":[-86.88471,35.95859],"type":"Point"},"properties":{"kind":"stop","name":"Hillsboro Road & Blackhorse Parkway - South","stop_id":"2537864"},"type":"Feature"},{"geometry":{"coordinates":[-86.81322,35.95621],"type":"Point"},"properties":{"kind":"stop","name":"Galleria Mall","stop_id":"2537865"},"type":"Feature"},{"geometry":{"coordinates":[-86.82034,35.94393],"type":"Point"},"properties":{"kind":"stop","name":"Mallory Lane & Frazier Drive - West","stop_id":"2537867"},"type":"Feature"},{"geometry":{"coordinates":[-86.87464,35.92086],"type":"Point"},"properties":{"kind":"stop","name":"Natchez Street & Short Court - North","stop_id":"2537868"},"type":"Feature"},{"geometry":{"coordinates":[-86.87871,35.93743],"type":"Point"},"properties":{"kind":"stop","name":"Hillsboro Road & Joel Cheek Boulevard - North","stop_id":"2537869"},"type":"Feature"},{"geometry":{"coordinates":[-86.82126,35.94205],"type":"Point"},"properties":{"kind":"stop","name":"Mallory Lane & Jordan Road - West","stop_id":"2537870"},"type":"Feature"},{"geometry":{"coordinates":[-86.88066,35.92925],"type":"Point"},"properties":{"kind":"stop","name":"Magnolia Drive & Ashley Court - South","stop_id":"2537871"},"type":"Feature"},{"geometry":{"coordinates":[-86.8271,35.92663],"type":"Point"},"properties":{"kind":"stop","name":"Liberty Pike & Stanwick Drive - East","stop_id":"2537872"},"type":"Feature"},{"geometry":{"coordinates":[-86.87037,35.92445],"type":"Point"},"properties":{"kind":"stop","name":"East Main Street & 4th Avenue North - East","stop_id":"2537873"},"type":"Feature"},{"geometry":{"coordinates":[-86.85204,35.93589],"type":"Point"},"properties":{"kind":"stop","name":"Sycamore Drive & Ash Drive - East","stop_id":"2537874"},"type":"Feature"},{"geometry":{"coordinates":[-86.87985,35.94078],"type":"Point"},"properties":{"kind":"stop","name":"Hillsboro Road & Claude Yates Drive - South","stop_id":"2537876"},"type":"Feature"},{"geometry":{"coordinates":[-86.84922,35.92897],"type":"Point"},"properties":{"kind":"stop","name":"Liberty Pike & Ralston Lane - East","stop_id":"2537877"},"type":"Feature"},{"geometry":{"coordinates":[-86.81613,35.92288],"type":"Point"},"properties":{"kind":"stop","name":"Liberty Pike & Carothers Parkway - East","stop_id":"2537878"},"type":"Feature"},{"geometry":{"coordinates":[-86.8094,35.9436],"type":"Point"},"properties":{"kind":"stop","name":"Carothers Parkway - West","stop_id":"2537879"},"type":"Feature"},{"geometry":{"coordinates":[-86.82453,35.92695],"type":"Point"},"properties":{"kind":"stop","name":"Mallory Lane & Liberty Pike - West","stop_id":"2537880"},"type":"Feature"},{"geometry":{"coordinates":[-86.89058,35.91517],"type":"Point"},"properties":{"kind":"stop","name":"Robin Hill Road & West Meade Boulevard - South","stop_id":"2537881"},"type":"Feature"},{"geometry":{"coordinates":[-86.80357,35.95668],"type":"Point"},"properties":{"kind":"stop","name":"Carothers Parkway & International Drive - East","stop_id":"2537882"},"type":"Feature"},{"geometry":{"coordinates":[-86.88049,35.92924],"type":"Point"},"properties":{"kind":"stop","name":"Magnolia Drive & Ashley Court - North","stop_id":"2537884"},"type":"Feature"},{"geometry":{"coordinates":[-86.87694,35.91872],"type":"Point"},"properties":{"kind":"stop","name":"Natchez Street & West Fowlkes Street - South","stop_id":"2537885"},"type":"Feature"},{"geometry":{"coordinates":[-86.87853,35.91484],"type":"Point"},"properties":{"kind":"stop","name":"Granbury Street & Johnson Circle - North","stop_id":"2537886"},"type":"Feature"},{"geometry":{"coordinates":[-86.88025,35.92687],"type":"Point"},"properties":{"kind":"stop","name":"Mt. Hope Street & Magnolia Drive - South","stop_id":"2537887"},"type":"Feature"},{"geometry":{"coordinates":[-86.87771,35.93394],"type":"Point"},"properties":{"kind":"stop","name":"Executive House Condos - North","stop_id":"2537888"},"type":"Feature"},{"geometry":{"coordinates":[-86.88774,35.91768],"type":"Point"},"properties":{"kind":"stop","name":"Shawnee Drive & Cherokee Place - South","stop_id":"2537889"},"type":"Feature"},{"geometry":{"coordinates":[-86.86853,35.92546],"type":"Point"},"properties":{"kind":"stop","name":"East Main Street & 3rd Avenue North - West","stop_id":"2537890"},"type":"Feature"},{"geometry":{"coordinates":[-86.84976,35.92915],"type":"Point"},"properties":{"kind":"stop","name":"Liberty & Chestnut","stop_id":"2537891"},"type":"Feature"},{"geometry":{"coordinates":[-86.88524,35.91487],"type":"Point"},"properties":{"kind":"stop","name":"West Meade and Brookwood","stop_id":"2537894"},"type":"Feature"},{"geometry":{"coordinates":[-86.86862,35.92508],"type":"Point"},"properties":{"kind":"stop","name":"East Main Street & 3rd Avenue North - East","stop_id":"2537895"},"type":"Feature"},{"geometry":{"coordinates":[-86.87573,35.91648],"type":"Point"},"properties":{"kind":"stop","name":"Strahl Park - North","stop_id":"2537896"},"type":"Feature"},{"geometry":{"coordinates":[-86.80394,35.95442],"type":"Point"},"properties":{"kind":"stop","name":"Carothers Parkway & Mayfield Drive - West","stop_id":"2537897"},"type":"Feature"},{"geometry":{"coordinates":[-86.80447,35.95347],"type":"Point"},"properties":{"kind":"stop","name":"Carothers Parkway & Mayfield Drive - East","stop_id":"2537898"},"type":"Feature"},{"geometry":{"coordinates":[-86.81773,35.91944],"type":"Point"},"properties":{"kind":"stop","name":"Physicians Way - East","stop_id":"2537899"},"type":"Feature"},{"geometry":{"coordinates":[-86.88739,35.91857],"type":"Point"},"properties":{"kind":"stop","name":"Shawnee Drive & Chickasaw Place - North","stop_id":"2537900"},"type":"Feature"},{"geometry":{"coordinates":[-86.88392,35.95625],"type":"Point"},"properties":{"kind":"stop","name":"Hillsboro Road & Poteat Place - South","stop_id":"2537901"},"type":"Feature"},{"geometry":{"coordinates":[-86.8702,35.92468],"type":"Point"},"properties":{"kind":"stop","name":"East Main Street & 4th Avenue North - West","stop_id":"2537902"},"type":"Feature"},{"geometry":{"coordinates":[-86.89033,35.91519],"type":"Point"},"properties":{"kind":"stop","name":"Robin Hill Road & West Meade Boulevard - North","stop_id":"2537903"},"type":"Feature"},{"geometry":{"coordinates":[-86.88449,35.95912],"type":"Point"},"properties":{"kind":"stop","name":"Hillsboro Road &  Blackhorse Parkway - North","stop_id":"2537904"},"type":"Feature"},{"geometry":{"coordinates":[-86.84914,35.93092],"type":"Point"},"properties":{"kind":"stop","name":"Liberty & Chestnut","stop_id":"2537905"},"type":"Feature"},{"geometry":{"coordinates":[-86.80898,35.92383],"type":"Point"},"properties":{"kind":"stop","name":"Columbia State College","stop_id":"2537907"},"type":"Feature"},{"geometry":{"coordinates":[-86.87705,35.9166],"type":"Point"},"properties":{"kind":"stop","name":"Strahl Street & Carter Street - North","stop_id":"2537908"},"type":"Feature"},{"geometry":{"coordinates":[-86.88218,35.95038],"type":"Point"},"properties":{"kind":"stop","name":"Hillsboro Road & Monticello Rd - North","stop_id":"2537909"},"type":"Feature"},{"geometry":{"coordinates":[-86.84696,35.92899],"type":"Point"},"properties":{"kind":"stop","name":"Liberty Pike & Flintlock Drive - East","stop_id":"2537911"},"type":"Feature"},{"geometry":{"coordinates":[-86.88296,35.96416],"type":"Point"},"properties":{"kind":"stop","name":"Fieldstone Farms","stop_id":"2537912"},"type":"Feature"},{"geometry":{"coordinates":[-86.847,35.92912],"type":"Point"},"properties":{"kind":"stop","name":"Liberty Pike & Flintlock Drive - West","stop_id":"2537913"},"type":"Feature"},{"geometry":{"coordinates":[-86.80914,35.94549],"type":"Point"},"properties":{"kind":"stop","name":"Carothers & Cool Springs","stop_id":"2537914"},"type":"Feature"},{"geometry":{"coordinates":[-86.88342,35.95565],"type":"Point"},"properties":{"kind":"stop","name":"Hillsboro Road & Poteat Place - North","stop_id":"2537916"},"type":"Feature"},{"geometry":{"coordinates":[-86.8386,35.92903],"type":"Point"},"properties":{"kind":"stop","name":"Liberty Pike & Golden Meadow Lane - East","stop_id":"2537917"},"type":"Feature"},{"geometry":{"coordinates":[-86.87479,35.9209],"type":"Point"},"properties":{"kind":"stop","name":"Natchez Street & Short Court - South","stop_id":"2537918"},"type":"Feature"},{"geometry":{"coordinates":[-86.82141,35.91683],"type":"Point"},"properties":{"kind":"stop","name":"Williamson Medical Center","stop_id":"2537919"},"type":"Feature"},{"geometry":{"coordinates":[-86.88515,35.91948],"type":"Point"},"properties":{"kind":"stop","name":"North Petway Street & West End Circle - South","stop_id":"2537920"},"type":"Feature"},{"geometry":{"coordinates":[-86.8747,35.91625],"type":"Point"},"properties":{"kind":"stop","name":"Reddick Center - South","stop_id":"2537922"},"type":"Feature"},{"geometry":{"coordinates":[-86.88764,35.91754],"type":"Point"},"properties":{"kind":"stop","name":"Shawnee Drive & Cherokee Place - North","stop_id":"2537923"},"type":"Feature"},{"geometry":{"coordinates":[-86.84844,35.93573],"type":"Point"},"properties":{"kind":"stop","name":"Ash Drive & Chestnut Lane - East","stop_id":"2537924"},"type":"Feature"},{"geometry":{"coordinates":[-86.87552,35.9151],"type":"Point"},"properties":{"kind":"stop","name":"Public Library - North","stop_id":"2537925"},"type":"Feature"},{"geometry":{"coordinates":[-86.88058,35.91646],"type":"Point"},"properties":{"kind":"stop","name":"Natchez Street & Spring Street - South","stop_id":"2537926"},"type":"Feature"},{"geometry":{"coordinates":[-86.83352,35.92853],"type":"Point"},"properties":{"kind":"stop","name":"Liberty Pike & Glen Oaks Drive - West","stop_id":"2537927"},"type":"Feature"},{"geometry":{"coordinates":[-86.83586,35.92865],"type":"Point"},"properties":{"kind":"stop","name":"Liberty Pike & Eagles Glen Drive - East","stop_id":"2537928"},"type":"Feature"},{"geometry":{"coordinates":[-86.8614,35.93204],"type":"Point"},"properties":{"kind":"stop","name":"Liberty & Franklin Road","stop_id":"2537929"},"type":"Feature"},{"geometry":{"coordinates":[-86.82409,35.93426],"type":"Point"},"properties":{"kind":"stop","name":"Mallory Lane & West McEwen Drive - West","stop_id":"2537930"},"type":"Feature"},{"geometry":{"coordinates":[-86.87213,35.92213],"type":"Point"},"properties":{"kind":"stop","name":"Downtown Transit Center","stop_id":"2537963"},"type":"Feature"},{"geometry":{"coordinates":[-86.8816,35.9179],"type":"Point"},"properties":{"kind":"stop","name":"West Main Street & Forrest Street - North","stop_id":"2537975"},"type":"Feature"},{"geometry":{"coordinates":[-86.88754,35.91849],"type":"Point"},"properties":{"kind":"stop","name":"Shawnee Drive & Chickasaw Place - South","stop_id":"2537976"},"type":"Feature"},{"geometry":{"coordinates":[-86.88832,35.91232],"type":"Point"},"properties":{"kind":"stop","name":"West Main Street & Green Acres Drive - North","stop_id":"2537979"},"type":"Feature"},{"geometry":{"coordinates":[-86.88998,35.91152],"type":"Point"},"properties":{"kind":"stop","name":"West Main Street & Booker Road - South","stop_id":"2537980"},"type":"Feature"},{"geometry":{"coordinates":[-86.88939,35.91172],"type":"Point"},"properties":{"kind":"stop","name":"West Main Street & Hill Street - North","stop_id":"2537981"},"type":"Feature"},{"geometry":{"coordinates":[-86.89172,35.91022],"type":"Point"},"properties":{"kind":"stop","name":"West Main Street & Downs Boulevard - North","stop_id":"2537982"},"type":"Feature"},{"geometry":{"coordinates":[-86.89169,35.91044],"type":"Point"},"properties":{"kind":"stop","name":"West Main Street & Good Neighbor Road - South","stop_id":"2537983"},"type":"Feature"},{"geometry":{"coordinates":[-86.89368,35.90893],"type":"Point"},"properties":{"kind":"stop","name":"West Main Street & Rucker Avenue - South","stop_id":"2537984"},"type":"Feature"},{"geometry":{"coordinates":[-86.89384,35.90864],"type":"Point"},"properties":{"kind":"stop","name":"West Main Street & Rucker Avenue - North","stop_id":"2537985"},"type":"Feature"},{"geometry":{"coordinates":[-86.90046,35.90942],"type":"Point"},"properties":{"kind":"stop","name":"Dabney Drive & Davidson Drive","stop_id":"2537988"},"type":"Feature"},{"geometry":{"coordinates":[-86.81638,35.92326],"type":"Point"},"properties":{"kind":"stop","name":"Liberty Pike & Carothers Parkway - West","stop_id":"2537989"},"type":"Feature"},{"geometry":{"coordinates":[-86.81008,35.93729],"type":"Point"},"properties":{"kind":"stop","name":"Carothers Parkway & Resource Parkway - East","stop_id":"2537990"},"type":"Feature"},{"geometry":{"coordinates":[-86.81036,35.94086],"type":"Point"},"properties":{"kind":"stop","name":"Carothers Parkway & Nissan Way - West","stop_id":"2537991"},"type":"Feature"},{"geometry":{"coordinates":[-86.80691,35.95059],"type":"Point"},"properties":{"kind":"stop","name":"Carothers Parkway & Gillespie Drive - East","stop_id":"2537992"},"type":"Feature"},{"geometry":{"coordinates":[-86.81889,35.95059],"type":"Point"},"properties":{"kind":"stop","name":"Mallory Lane & Cool Springs Market - West","stop_id":"2537993"},"type":"Feature"},{"geometry":{"coordinates":[-86.83726,35.929],"type":"Point"},"properties":{"kind":"stop","name":"Liberty Pike & Golden Meadow Lane - West","stop_id":"2537994"},"type":"Feature"},{"geometry":{"coordinates":[-86.84897,35.93103],"type":"Point"},"properties":{"kind":"stop","name":"Chestnut Lane & Maple Drive - West","stop_id":"2537995"},"type":"Feature"},{"geometry":{"coordinates":[-86.85251,35.93378],"type":"Point"},"properties":{"kind":"stop","name":"Sycamore Drive & Oak Drive - West","stop_id":"2537996"},"type":"Feature"},{"geometry":{"coordinates":[-86.85246,35.93322],"type":"Point"},"properties":{"kind":"stop","name":"Sycamore Drive & Oak Drive - East","stop_id":"2537997"},"type":"Feature"},{"geometry":{"coordinates":[-86.85262,35.93225],"type":"Point"},"properties":{"kind":"stop","name":"Sycamore Drive & Walnut Drive - East","stop_id":"2537998"},"type":"Feature"},{"geometry":{"coordinates":[-86.85276,35.93224],"type":"Point"},"properties":{"kind":"stop","name":"Sycamore Drive & Walnut Drive - West","stop_id":"2537999"},"type":"Feature"},{"geometry":{"coordinates":[-86.85292,35.93123],"type":"Point"},"properties":{"kind":"stop","name":"Sycamore Drive & Maple Drive - West","stop_id":"2538000"},"type":"Feature"},{"geometry":{"coordinates":[-86.85292,35.93041],"type":"Point"},"properties":{"kind":"stop","name":"Sycamore Drive & Hickory Drive - East","stop_id":"2538001"},"type":"Feature"},{"geometry":{"coordinates":[-86.85307,35.93028],"type":"Point"},"properties":{"kind":"stop","name":"Sycamore Drive & Hickory Drive - West","stop_id":"2538002"},"type":"Feature"},{"geometry":{"coordinates":[-86.85617,35.93006],"type":"Point"},"properties":{"kind":"stop","name":"Liberty Pike & Eddy Lane - West","stop_id":"2538003"},"type":"Feature"},{"geometry":{"coordinates":[-86.85901,35.9311],"type":"Point"},"properties":{"kind":"stop","name":"Liberty Pike & Daniels Drive - West","stop_id":"2538004"},"type":"Feature"},{"geometry":{"coordinates":[-86.86151,35.93192],"type":"Point"},"properties":{"kind":"stop","name":"Liberty & Franklin Road","stop_id":"2538005"},"type":"Feature"},{"geometry":{"coordinates":[-86.88817,35.91671],"type":"Point"},"properties":{"kind":"stop","name":"Edgewood Boulevard & Shawnee Drive - North","stop_id":"2538006"},"type":"Feature"},{"geometry":{"coordinates":[-86.82088,35.94218],"type":"Point"},"properties":{"kind":"stop","name":"Mallory Lane & Jordan Road - East","stop_id":"2538007"},"type":"Feature"},{"geometry":{"coordinates":[-86.81962,35.93822],"type":"Point"},"properties":{"kind":"stop","name":"Walmart","stop_id":"2538008"},"type":"Feature"},{"geometry":{"coordinates":[-86.81962,35.93822],"type":"Point"},"properties":{"kind":"stop","name":"Walmart","stop_id":"2538009"},"type":"Feature"},{"geometry":{"coordinates":[-86.88768,35.91476],"type":"Point"},"properties":{"kind":"stop","name":"West Meade Boulevard & Chickering Rd - South","stop_id":"2555235"},"type":"Feature"},{"geometry":{"coordinates":[-86.88521,35.91464],"type":"Point"},"properties":{"kind":"stop","name":"West Mead and Brookwood","stop_id":"2555236"},"type":"Feature"},{"geometry":{"coordinates":[-86.90298,35.90787],"type":"Point"},"properties":{"kind":"stop","name":"Bradford Drive & West Main Street","stop_id":"2555268"},"type":"Feature"},{"geometry":{"coordinates":[-86.82152,35.91609],"type":"Point"},"properties":{"kind":"stop","name":"Williamson Medical Center","stop_id":"2555278"},"type":"Feature"}],"type":"FeatureCollection"}
