{"features":[{"geometry":{"coordinates":[[-123.2633,44.56499],[-123.26304,44.56493],[-123.26352,44.56392],[-123.26467,44.56422],[-123.26519,44.56323],[-123.27057,44.5646],[-123.2741,44.56458],[-123.27412,44.5626],[-123.27432,44.56157],[-123.274,44.55986],[-123.27679,44.55939],[-123.28125,44.55718],[-123.28303,44.55686],[-123.29178,44.55694],[-123.29294,44.55677],[-123.33407,44.54408],[-123.35682,44.54009],[-123.35735,44.54004],[-123.35733,44.54099],[-123.35886,44.54103],[-123.3589,44.53999],[-123.37687,44.5403],[-123.37693,44.53925],[-123.35599,44.53886],[-123.35487,44.53928],[-123.3504,44.53928],[-123.3504,44.54079],[-123.34447,44.54084],[-123.34315,44.54157],[-123.34298,44.542],[-123.34311,44.54243],[-123.3334,44.54425],[-123.30101,44.55429],[-123.29839,44.55462],[-123.29693,44.55555],[-123.29294,44.55677],[-123.29178,44.55694],[-123.28303,44.55686],[-123.28159,44.55708],[-123.27956,44.55803],[-123.27963,44.56339],[-123.27998,44.56411],[-123.28003,44.56903],[-123.27218,44.56721],[-123.27234,44.56689],[-123.27181,44.56712],[-123.2633,44.56499]],"type":"LineString"},"properties":{"color":"#FDB12E","color_name":"yellow","kind":"route","label":"Philomath Connection","long":"Philomath Connection","route_id":"18963","text_color":"#000000","type_label":"Bus"},"type":"Feature"},{"geometry":{"coordinates":[-123.27951,44.56002],"type":"Point"},"properties":{"kind":"stop","name":"Gill Coliseum/OSU","stop_id":"2734611"},"type":"Feature"},{"geometry":{"coordinates":[-123.34625,44.54073],"type":"Point"},"properties":{"kind":"stop","name":"26th & Newton","stop_id":"2734612"},"type":"Feature"},{"geometry":{"coordinates":[-123.37402,44.54035],"type":"Point"},"properties":{"kind":"stop","name":"Main & 9th","stop_id":"2734613"},"type":"Feature"},{"geometry":{"coordinates":[-123.27419,44.56402],"type":"Point"},"properties":{"kind":"stop","name":"SW 15th St & SW Jefferson Way (OSU)","stop_id":"2734614"},"type":"Feature"},{"geometry":{"coordinates":[-123.28591,44.55693],"type":"Point"},"properties":{"kind":"stop","name":"SW Western Blvd & SW Poplar Pl","stop_id":"2734615"},"type":"Feature"},{"geometry":{"coordinates":[-123.37106,44.53903],"type":"Point"},"properties":{"kind":"stop","name":"Philomath City Library","stop_id":"2734616"},"type":"Feature"},{"geometry":{"coordinates":[-123.35641,44.53882],"type":"Point"},"properties":{"kind":"stop","name":"Philomath High School","stop_id":"2734617"},"type":"Feature"},{"geometry":{"coordinates":[-123.28341,44.55692],"type":"Point"},"properties":{"kind":"stop","name":"SW Western Blvd & SW Grove St","stop_id":"2734618"},"type":"Feature"},{"geometry":{"coordinates":[-123.31127,44.551],"type":"Point"},"properties":{"kind":"stop","name":"SW Philomath Blvd & SW 53rd St","stop_id":"2734619"},"type":"Feature"},{"geometry":{"coordinates":[-123.27972,44.56889],"type":"Point"},"properties":{"kind":"stop","name":"NW Monroe Ave & SW 26th St","stop_id":"2734620"},"type":"Feature"},{"geometry":{"coordinates":[-123.2754,44.55979],"type":"Point"},"properties":{"kind":"stop","name":"SW Western Blvd & SW 16th St","stop_id":"2734621"},"type":"Feature"},{"geometry":{"coordinates":[-123.30533,44.55284],"type":"Point"},"properties":{"kind":"stop","name":"SW Philomath Blvd & SW Timian St","stop_id":"2734622"},"type":"Feature"},{"geometry":{"coordinates":[-123.30914,44.55166],"type":"Point"},"properties":{"kind":"stop","name":"SW Philomath Blvd & SW Blueberry Dr","stop_id":"2734623"},"type":"Feature"},{"geometry":{"coordinates":[-123.27438,44.56146],"type":"Point"},"properties":{"kind":"stop","name":"SW 15th St & SW Washington Way","stop_id":"2734624"},"type":"Feature"},{"geometry":{"coordinates":[-123.34294,44.5419],"type":"Point"},"properties":{"kind":"stop","name":"Newton St & Philomath","stop_id":"2734625"},"type":"Feature"},{"geometry":{"coordinates":[-123.30066,44.55426],"type":"Point"},"properties":{"kind":"stop","name":"SW Philomath Blvd","stop_id":"2734626"},"type":"Feature"},{"geometry":{"coordinates":[-123.26701,44.56584],"type":"Point"},"properties":{"kind":"stop","name":"NW Monroe Ave & SW 9th St","stop_id":"2734627"},"type":"Feature"},{"geometry":{"coordinates":[-123.27945,44.55899],"type":"Point"},"properties":{"kind":"stop","name":"LaSells Stewart Ctr/OSU","stop_id":"2734628"},"type":"Feature"},{"geometry":{"coordinates":[-123.37702,44.5394],"type":"Point"},"properties":{"kind":"stop","name":"Main & 7th","stop_id":"2734629"},"type":"Feature"},{"geometry":{"coordinates":[-123.33928,44.54321],"type":"Point"},"properties":{"kind":"stop","name":"Boulevard Apartments","stop_id":"2734630"},"type":"Feature"},{"geometry":{"coordinates":[-123.27186,44.56706],"type":"Point"},"properties":{"kind":"stop","name":"NW Monroe Ave & SW 14th St","stop_id":"2734631"},"type":"Feature"},{"geometry":{"coordinates":[-123.36238,44.53887],"type":"Point"},"properties":{"kind":"stop","name":"Applegate & 16th","stop_id":"2734632"},"type":"Feature"},{"geometry":{"coordinates":[-123.36012,44.54007],"type":"Point"},"properties":{"kind":"stop","name":"Main & 18th","stop_id":"2734635"},"type":"Feature"},{"geometry":{"coordinates":[-123.36654,44.5402],"type":"Point"},"properties":{"kind":"stop","name":"Main & 14th","stop_id":"2734636"},"type":"Feature"},{"geometry":{"coordinates":[-123.26334,44.5649],"type":"Point"},"properties":{"kind":"stop","name":"Downtown Transit Center Bay 1","stop_id":"2734637"},"type":"Feature"},{"geometry":{"coordinates":[-123.30308,44.5537],"type":"Point"},"properties":{"kind":"stop","name":"SW Philomath Blvd & SW 47th St","stop_id":"2734638"},"type":"Feature"},{"geometry":{"coordinates":[-123.27738,44.56837],"type":"Point"},"properties":{"kind":"stop","name":"NW Monroe Ave & NW 23rd St","stop_id":"2734639"},"type":"Feature"},{"geometry":{"coordinates":[-123.26758,44.56388],"type":"Point"},"properties":{"kind":"stop","name":"SW Jefferson Ave & SW 8th St","stop_id":"2734640"},"type":"Feature"},{"geometry":{"coordinates":[-123.27472,44.56778],"type":"Point"},"properties":{"kind":"stop","name":"NW Monroe Ave & NW Kings Blvd","stop_id":"2734642"},"type":"Feature"},{"geometry":{"coordinates":[-123.29366,44.55662],"type":"Point"},"properties":{"kind":"stop","name":"SW Western Blvd & SW Ivy Pl","stop_id":"2734643"},"type":"Feature"},{"geometry":{"coordinates":[-123.27991,44.56486],"type":"Point"},"properties":{"kind":"stop","name":"SW 26th St & SW Jefferson Way (OSU Bookstore)","stop_id":"2734644"},"type":"Feature"},{"geometry":{"coordinates":[-123.29478,44.55617],"type":"Point"},"properties":{"kind":"stop","name":"SW Western Blvd & SW Hillside Dr","stop_id":"2734645"},"type":"Feature"},{"geometry":{"coordinates":[-123.26503,44.56534],"type":"Point"},"properties":{"kind":"stop","name":"NW Monroe Avenue & NW 7th Street (Central Park)","stop_id":"2734646"},"type":"Feature"},{"geometry":{"coordinates":[-123.28272,44.55681],"type":"Point"},"properties":{"kind":"stop","name":"SW Western Blvd & SW Grove St","stop_id":"2734647"},"type":"Feature"},{"geometry":{"coordinates":[-123.31009,44.5515],"type":"Point"},"properties":{"kind":"stop","name":"SW Philomath Blvd and SW Blueberry Dr","stop_id":"2734648"},"type":"Feature"},{"geometry":{"coordinates":[-123.36965,44.54027],"type":"Point"},"properties":{"kind":"stop","name":"Main & 12th","stop_id":"2734650"},"type":"Feature"},{"geometry":{"coordinates":[-123.35779,44.54106],"type":"Point"},"properties":{"kind":"stop","name":"Oak Springs Apartments","stop_id":"2734651"},"type":"Feature"},{"geometry":{"coordinates":[-123.2901,44.55701],"type":"Point"},"properties":{"kind":"stop","name":"SW Western Blvd & SW 35th St","stop_id":"2734652"},"type":"Feature"},{"geometry":{"coordinates":[-123.2799,44.56697],"type":"Point"},"properties":{"kind":"stop","name":"SW 26th St & SW Campus Way","stop_id":"2734653"},"type":"Feature"},{"geometry":{"coordinates":[-123.27878,44.55846],"type":"Point"},"properties":{"kind":"stop","name":"SW Western Blvd & SW 26th St","stop_id":"2734654"},"type":"Feature"},{"geometry":{"coordinates":[-123.35036,44.54049],"type":"Point"},"properties":{"kind":"stop","name":"24th & Newton","stop_id":"2735061"},"type":"Feature"}],"type":"FeatureCollection"}
