{"features":[{"geometry":{"coordinates":[[-112.02276,34.73729],[-112.02278,34.73704],[-112.02363,34.73709],[-112.02482,34.73805],[-112.02489,34.73954],[-112.00533,34.73951],[-111.99704,34.73902],[-111.99481,34.73857],[-111.98932,34.73665],[-111.98469,34.73556],[-111.98043,34.73369],[-111.97787,34.73282],[-111.9731,34.73914],[-111.96932,34.74323],[-111.96622,34.74598],[-111.93087,34.77472],[-111.92868,34.77717],[-111.92388,34.78419],[-111.92221,34.78578],[-111.91957,34.78761],[-111.91873,34.7884],[-111.91767,34.79003],[-111.91656,34.79351],[-111.91191,34.80049],[-111.91155,34.8015],[-111.91116,34.80462],[-111.91056,34.80586],[-111.88934,34.83581],[-111.88828,34.83681],[-111.88723,34.83749],[-111.88463,34.83838],[-111.87581,34.83954],[-111.8704,34.8396],[-111.8688,34.83985],[-111.85878,34.84503],[-111.85728,34.84551],[-111.85555,34.84553],[-111.84992,34.84453],[-111.84859,34.84477],[-111.84651,34.84579],[-111.84538,34.84609],[-111.84419,34.84602],[-111.8421,34.84547],[-111.83999,34.84568],[-111.83687,34.84731],[-111.82995,34.84966],[-111.82691,34.85135],[-111.82385,34.85397],[-111.82102,34.85772],[-111.81928,34.85937],[-111.81744,34.86051],[-111.81509,34.86147],[-111.81265,34.86198],[-111.79509,34.86391],[-111.79333,34.8639],[-111.78258,34.86253],[-111.78069,34.86256],[-111.77867,34.86327],[-111.77317,34.8669],[-111.77182,34.86742],[-111.77089,34.86752],[-111.76987,34.86743],[-111.76582,34.86627],[-111.76488,34.86585],[-111.76373,34.86595],[-111.76341,34.86545],[-111.76396,34.86399],[-111.76385,34.86325],[-111.76355,34.86294],[-111.76229,34.86249],[-111.76189,34.86221],[-111.76174,34.86184],[-111.76229,34.86012],[-111.76377,34.85848],[-111.76437,34.85476],[-111.76439,34.85314],[-111.76561,34.85153],[-111.76542,34.84969],[-111.76633,34.84799],[-111.76709,34.8456],[-111.76757,34.84502],[-111.76815,34.84472],[-111.77067,34.84392],[-111.77297,34.8439],[-111.77332,34.84457],[-111.77283,34.84421],[-111.77259,34.84426],[-111.77257,34.84454],[-111.77274,34.8447],[-111.77324,34.8445],[-111.77292,34.84381],[-111.77043,34.84389],[-111.76777,34.8448],[-111.76733,34.84511],[-111.76691,34.84575],[-111.76604,34.84821],[-111.76534,34.84956],[-111.76556,34.85134],[-111.76425,34.8532],[-111.7643,34.85464],[-111.76395,34.85568],[-111.76376,34.85835],[-111.76215,34.8602],[-111.76147,34.86197],[-111.76227,34.86261],[-111.76346,34.86303],[-111.76377,34.86335],[-111.76383,34.86424],[-111.7634,34.86537],[-111.76353,34.8659],[-111.76232,34.86665],[-111.76186,34.8674],[-111.76092,34.86981],[-111.76108,34.86995],[-111.76112,34.87259],[-111.76017,34.87259],[-111.76021,34.87278]],"type":"LineString"},"properties":{"color":"#1A7A46","color_name":"green","kind":"route","label":"Lynx B","long":"Verde Lynx Route 'B'","route_id":"1150","text_color":"#FFFFFF","type_label":"Bus"},"type":"Feature"},{"geometry":{"coordinates":[[-112.02276,34.73729],[-112.02278,34.73704],[-112.02363,34.73709],[-112.02482,34.73805],[-112.02489,34.73954],[-112.00533,34.73951],[-111.99704,34.73902],[-111.99481,34.73857],[-111.98932,34.73665],[-111.98469,34.73556],[-111.98043,34.73369],[-111.97787,34.73282],[-111.9731,34.73914],[-111.96932,34.74323],[-111.96622,34.74598],[-111.93087,34.77472],[-111.92868,34.77717],[-111.92388,34.78419],[-111.92221,34.78578],[-111.91957,34.78761],[-111.91873,34.7884],[-111.91767,34.79003],[-111.91656,34.79351],[-111.91191,34.80049],[-111.91155,34.8015],[-111.91116,34.80462],[-111.91056,34.80586],[-111.88934,34.83581],[-111.88828,34.83681],[-111.88723,34.83749],[-111.88463,34.83838],[-111.87581,34.83954],[-111.8704,34.8396],[-111.8688,34.83985],[-111.85878,34.84503],[-111.85728,34.84551],[-111.85555,34.84553],[-111.84992,34.84453],[-111.84859,34.84477],[-111.84651,34.84579],[-111.84538,34.84609],[-111.84419,34.84602],[-111.8421,34.84547],[-111.83999,34.84568],[-111.83687,34.84731],[-111.82995,34.84966],[-111.82691,34.85135],[-111.82385,34.85397],[-111.82102,34.85772],[-111.81928,34.85937],[-111.81744,34.86051],[-111.81509,34.86147],[-111.81265,34.86198],[-111.79509,34.86391],[-111.79333,34.8639],[-111.78258,34.86253],[-111.78069,34.86256],[-111.77867,34.86327],[-111.77317,34.8669],[-111.77182,34.86742],[-111.77089,34.86752],[-111.76987,34.86743],[-111.76582,34.86627],[-111.76488,34.86585],[-111.76373,34.86595],[-111.76341,34.86545],[-111.76396,34.86399],[-111.76385,34.86325],[-111.76355,34.86294],[-111.76191,34.86224],[-111.76171,34.86164],[-111.76229,34.86012],[-111.76386,34.85837],[-111.76437,34.85476],[-111.76439,34.85314],[-111.76561,34.85153],[-111.76542,34.84969],[-111.76633,34.84799],[-111.76709,34.8456],[-111.76788,34.84484],[-111.7708,34.84389],[-111.77297,34.8439],[-111.77332,34.84457],[-111.77273,34.8442],[-111.77258,34.84452],[-111.77274,34.84471],[-111.77332,34.84457],[-111.77296,34.8438],[-111.77053,34.84386],[-111.7681,34.84466],[-111.76734,34.84511],[-111.76698,34.84556],[-111.76604,34.84818],[-111.76545,34.84925],[-111.76529,34.85005],[-111.76555,34.85107],[-111.76548,34.85154],[-111.76431,34.85306],[-111.76429,34.85478],[-111.76392,34.85567],[-111.76377,34.85834],[-111.76215,34.8602],[-111.76147,34.86197],[-111.76227,34.86261],[-111.76346,34.86303],[-111.76377,34.86335],[-111.76383,34.86424],[-111.7634,34.86537],[-111.76353,34.8659],[-111.76232,34.86665],[-111.76186,34.8674],[-111.76092,34.86981],[-111.76111,34.87013],[-111.76113,34.87258],[-111.76015,34.87258],[-111.76021,34.87279]],"type":"LineString"},"properties":{"color":"#1A7A46","color_name":"green","kind":"route","label":"Lynx A","long":"Verde Lynx Route 'A'","route_id":"304","text_color":"#FFFFFF","type_label":"Bus"},"type":"Feature"},{"geometry":{"coordinates":[-111.76015,34.87282],"type":"Point"},"properties":{"kind":"stop","name":"Sedona Municipal Parking Lot","stop_id":"10323"},"type":"Feature"},{"geometry":{"coordinates":[-111.76292,34.86265],"type":"Point"},"properties":{"kind":"stop","name":"Tlaquepaque South","stop_id":"10326"},"type":"Feature"},{"geometry":{"coordinates":[-111.76379,34.85816],"type":"Point"},"properties":{"kind":"stop","name":"Hillside Shops & Galleries (Arabella)","stop_id":"10327"},"type":"Feature"},{"geometry":{"coordinates":[-112.01035,34.73943],"type":"Point"},"properties":{"kind":"stop","name":"Circle K","stop_id":"10335"},"type":"Feature"},{"geometry":{"coordinates":[-111.82825,34.85042],"type":"Point"},"properties":{"kind":"stop","name":"Upper Red Rock Loop Rd. (High School)","stop_id":"10336"},"type":"Feature"},{"geometry":{"coordinates":[-111.82264,34.85524],"type":"Point"},"properties":{"kind":"stop","name":"Foothills (Across from Sedona Med Center)","stop_id":"10337"},"type":"Feature"},{"geometry":{"coordinates":[-111.81506,34.8614],"type":"Point"},"properties":{"kind":"stop","name":"Arroyo Pinon & Dry Creek (Kokopellis)","stop_id":"10338"},"type":"Feature"},{"geometry":{"coordinates":[-111.80444,34.8628],"type":"Point"},"properties":{"kind":"stop","name":"Stutz Bearcat & Andante (Andante Inn)","stop_id":"10339"},"type":"Feature"},{"geometry":{"coordinates":[-111.79918,34.86336],"type":"Point"},"properties":{"kind":"stop","name":"Shelby & Rodeo (WelIs Fargo Bank)","stop_id":"10340"},"type":"Feature"},{"geometry":{"coordinates":[-111.79469,34.86382],"type":"Point"},"properties":{"kind":"stop","name":"Sunset & Coffee Pot (Walgreens)","stop_id":"10341"},"type":"Feature"},{"geometry":{"coordinates":[-111.79025,34.86343],"type":"Point"},"properties":{"kind":"stop","name":"Northview & Mountain Shadows","stop_id":"10342"},"type":"Feature"},{"geometry":{"coordinates":[-111.7826,34.86243],"type":"Point"},"properties":{"kind":"stop","name":"Soldiers Pass Rd. (Biddles)","stop_id":"10343"},"type":"Feature"},{"geometry":{"coordinates":[-111.77304,34.84461],"type":"Point"},"properties":{"kind":"stop","name":"Poco Diable Resort","stop_id":"10345"},"type":"Feature"},{"geometry":{"coordinates":[-111.78394,34.86286],"type":"Point"},"properties":{"kind":"stop","name":"Soldiers Pass (New Frontier)","stop_id":"10352"},"type":"Feature"},{"geometry":{"coordinates":[-111.79155,34.86383],"type":"Point"},"properties":{"kind":"stop","name":"Mountain Shadows & Northview (Hampton Inn.)","stop_id":"10353"},"type":"Feature"},{"geometry":{"coordinates":[-111.79494,34.86407],"type":"Point"},"properties":{"kind":"stop","name":"Coffee Pot & Sunset (Arco / Bashas)","stop_id":"10354"},"type":"Feature"},{"geometry":{"coordinates":[-111.80083,34.86343],"type":"Point"},"properties":{"kind":"stop","name":"Rodeo & Shelby (Safeway)","stop_id":"10355"},"type":"Feature"},{"geometry":{"coordinates":[-111.8064,34.86278],"type":"Point"},"properties":{"kind":"stop","name":"Andante & Stutz Bearcat (Sedona Car Wash)","stop_id":"10356"},"type":"Feature"},{"geometry":{"coordinates":[-111.81556,34.86146],"type":"Point"},"properties":{"kind":"stop","name":"Dry Creek & Arroyo Pinon","stop_id":"10357"},"type":"Feature"},{"geometry":{"coordinates":[-111.82186,34.85704],"type":"Point"},"properties":{"kind":"stop","name":"Sedona Medical Center","stop_id":"10358"},"type":"Feature"},{"geometry":{"coordinates":[-111.82818,34.85083],"type":"Point"},"properties":{"kind":"stop","name":"Cultural Park PI. (Culture Center / High School)","stop_id":"10359"},"type":"Feature"},{"geometry":{"coordinates":[-112.01045,34.73959],"type":"Point"},"properties":{"kind":"stop","name":"Circle K","stop_id":"10360"},"type":"Feature"},{"geometry":{"coordinates":[-121.42775,38.55446],"type":"Point"},"properties":{"kind":"stop","name":"80","stop_id":"18972"},"type":"Feature"},{"geometry":{"coordinates":[-112.02287,34.73727],"type":"Point"},"properties":{"kind":"stop","name":"Cottonwood Library","stop_id":"760108"},"type":"Feature"},{"geometry":{"coordinates":[-111.76394,34.8582],"type":"Point"},"properties":{"kind":"stop","name":"Copper Cliffs Across Hillside","stop_id":"760110"},"type":"Feature"},{"geometry":{"coordinates":[-111.76635,34.84775],"type":"Point"},"properties":{"kind":"stop","name":"Arrow Road","stop_id":"760111"},"type":"Feature"},{"geometry":{"coordinates":[-111.76598,34.84817],"type":"Point"},"properties":{"kind":"stop","name":"Morgan Rd.","stop_id":"760112"},"type":"Feature"},{"geometry":{"coordinates":[-111.76106,34.87013],"type":"Point"},"properties":{"kind":"stop","name":"Outlaws BBQ","stop_id":"760113"},"type":"Feature"},{"geometry":{"coordinates":[-111.76117,34.86985],"type":"Point"},"properties":{"kind":"stop","name":"Outlaw's BBQ","stop_id":"760114"},"type":"Feature"},{"geometry":{"coordinates":[-111.76156,34.86861],"type":"Point"},"properties":{"kind":"stop","name":"Sign (Forrest & 89A)","stop_id":"760115"},"type":"Feature"},{"geometry":{"coordinates":[-111.76323,34.86299],"type":"Point"},"properties":{"kind":"stop","name":"Tlaquepaque North","stop_id":"840923"},"type":"Feature"}],"type":"FeatureCollection"}
