{"features":[{"geometry":{"coordinates":[[-105.48276,39.79827],[-105.48212,39.79807],[-105.48188,39.79822],[-105.4848,39.79866],[-105.48739,39.79855],[-105.4893,39.79906],[-105.48848,39.80017],[-105.48848,39.80044],[-105.4893,39.79906],[-105.49024,39.79933],[-105.4911,39.80017],[-105.49311,39.8011],[-105.49415,39.80179],[-105.49364,39.80225],[-105.49387,39.80238],[-105.49494,39.80144],[-105.49661,39.80115],[-105.49857,39.80034],[-105.50183,39.80047],[-105.50377,39.80133],[-105.50537,39.80065],[-105.50688,39.8004],[-105.50843,39.80028],[-105.50966,39.8006],[-105.51257,39.80078],[-105.5126,39.80047]],"type":"LineString"},"properties":{"color":"#00BEFD","color_name":"teal","kind":"route","label":"Shuttle","long":"Shuttle","route_id":"16671","text_color":"#000000","type_label":"Bus"},"type":"Feature"},{"geometry":{"coordinates":[-105.48278,39.79823],"type":"Point"},"properties":{"kind":"stop","name":"Horseshoe","stop_id":"2617911"},"type":"Feature"},{"geometry":{"coordinates":[-105.48375,39.79852],"type":"Point"},"properties":{"kind":"stop","name":"Monarch Casino","stop_id":"2617912"},"type":"Feature"},{"geometry":{"coordinates":[-105.48655,39.79865],"type":"Point"},"properties":{"kind":"stop","name":"Lady Luck Casino","stop_id":"2617913"},"type":"Feature"},{"geometry":{"coordinates":[-105.48825,39.79886],"type":"Point"},"properties":{"kind":"stop","name":"Bally's Black Hawk North","stop_id":"2617914"},"type":"Feature"},{"geometry":{"coordinates":[-105.48875,39.80038],"type":"Point"},"properties":{"kind":"stop","name":"Ameristar Casino Resort","stop_id":"2617915"},"type":"Feature"},{"geometry":{"coordinates":[-105.49094,39.80025],"type":"Point"},"properties":{"kind":"stop","name":"Lodge Casino","stop_id":"2617916"},"type":"Feature"},{"geometry":{"coordinates":[-105.49385,39.80168],"type":"Point"},"properties":{"kind":"stop","name":"Bull Durham Saloon & Casino","stop_id":"2617917"},"type":"Feature"},{"geometry":{"coordinates":[-105.49434,39.80218],"type":"Point"},"properties":{"kind":"stop","name":"Z Casino","stop_id":"2617918"},"type":"Feature"},{"geometry":{"coordinates":[-105.49498,39.80156],"type":"Point"},"properties":{"kind":"stop","name":"Lower Gregory","stop_id":"2617919"},"type":"Feature"},{"geometry":{"coordinates":[-105.49849,39.80039],"type":"Point"},"properties":{"kind":"stop","name":"Gregory Plaza","stop_id":"2617920"},"type":"Feature"},{"geometry":{"coordinates":[-105.51125,39.80071],"type":"Point"},"properties":{"kind":"stop","name":"Dragon Tiger Casino","stop_id":"2617921"},"type":"Feature"},{"geometry":{"coordinates":[-105.5127,39.80047],"type":"Point"},"properties":{"kind":"stop","name":"Main Street Central City","stop_id":"2617922"},"type":"Feature"},{"geometry":{"coordinates":[-105.50908,39.79994],"type":"Point"},"properties":{"kind":"stop","name":"Grand Z Casino","stop_id":"2617923"},"type":"Feature"},{"geometry":{"coordinates":[-105.50076,39.80035],"type":"Point"},"properties":{"kind":"stop","name":"Red Dolly Casino","stop_id":"2617924"},"type":"Feature"},{"geometry":{"coordinates":[-105.49419,39.80164],"type":"Point"},"properties":{"kind":"stop","name":"Saratoga Casino","stop_id":"2617925"},"type":"Feature"},{"geometry":{"coordinates":[-105.4931,39.80099],"type":"Point"},"properties":{"kind":"stop","name":"Gilpin Hotel Casino","stop_id":"2617926"},"type":"Feature"},{"geometry":{"coordinates":[-105.48866,39.79883],"type":"Point"},"properties":{"kind":"stop","name":"Bally's Black Hawk West/East","stop_id":"2617927"},"type":"Feature"},{"geometry":{"coordinates":[-105.485,39.7986],"type":"Point"},"properties":{"kind":"stop","name":"Main St & Miners Mesa Rd at Lady Luck Casino","stop_id":"2617928"},"type":"Feature"},{"geometry":{"coordinates":[-105.49999,39.80033],"type":"Point"},"properties":{"kind":"stop","name":"Gregory Point","stop_id":"4253401"},"type":"Feature"}],"type":"FeatureCollection"}
