{"features":[{"geometry":{"coordinates":[[-75.00052,39.83394],[-75.00185,39.83602],[-75.00792,39.85059],[-75.00889,39.85348],[-75.00913,39.85497],[-75.00936,39.86497],[-75.01027,39.86857],[-75.01201,39.87159],[-75.01342,39.8733],[-75.0155,39.8751],[-75.01772,39.87661],[-75.02403,39.88005],[-75.03048,39.88531],[-75.03125,39.88622],[-75.03211,39.8877],[-75.0348,39.89421],[-75.03714,39.89761],[-75.03852,39.90028],[-75.04002,39.90225],[-75.04238,39.90429],[-75.04435,39.9057],[-75.04843,39.90809],[-75.05356,39.91018],[-75.08742,39.92088],[-75.09203,39.92287],[-75.1005,39.92828],[-75.10709,39.93178],[-75.109,39.93301],[-75.11061,39.93485],[-75.11128,39.93631],[-75.1127,39.94131],[-75.11358,39.94236],[-75.11424,39.94275],[-75.11534,39.94295],[-75.119,39.94295],[-75.11922,39.94261],[-75.12129,39.94406],[-75.1211,39.94569],[-75.12022,39.94808],[-75.12012,39.94904],[-75.12065,39.94987],[-75.12279,39.95083],[-75.14821,39.95534],[-75.15062,39.95561],[-75.15211,39.95513],[-75.15276,39.95432],[-75.15451,39.94696],[-75.16779,39.94864]],"type":"LineString"},"properties":{"color":"#BC0035","color_name":"red","kind":"route","label":"PATCO","long":"High Speed Line","route_id":"2","text_color":"#FFFFFF","type_label":"Subway / metro"},"type":"Feature"},{"geometry":{"coordinates":[-75.00066,39.83396],"type":"Point"},"properties":{"kind":"stop","name":"Lindenwold","stop_id":"1"},"type":"Feature"},{"geometry":{"coordinates":[-75.15116,39.9553],"type":"Point"},"properties":{"kind":"stop","name":"Franklin Square","stop_id":"10"},"type":"Feature"},{"geometry":{"coordinates":[-75.15351,39.95098],"type":"Point"},"properties":{"kind":"stop","name":"8th and Market","stop_id":"11"},"type":"Feature"},{"geometry":{"coordinates":[-75.15751,39.94734],"type":"Point"},"properties":{"kind":"stop","name":"9-10th and Locust","stop_id":"12"},"type":"Feature"},{"geometry":{"coordinates":[-75.16236,39.94794],"type":"Point"},"properties":{"kind":"stop","name":"12-13th and Locust","stop_id":"13"},"type":"Feature"},{"geometry":{"coordinates":[-75.16779,39.94863],"type":"Point"},"properties":{"kind":"stop","name":"15-16th and Locust","stop_id":"14"},"type":"Feature"},{"geometry":{"coordinates":[-75.00921,39.85871],"type":"Point"},"properties":{"kind":"stop","name":"Ashland","stop_id":"2"},"type":"Feature"},{"geometry":{"coordinates":[-75.01124,39.87026],"type":"Point"},"properties":{"kind":"stop","name":"Woodcrest","stop_id":"3"},"type":"Feature"},{"geometry":{"coordinates":[-75.03714,39.89764],"type":"Point"},"properties":{"kind":"stop","name":"Haddonfield","stop_id":"4"},"type":"Feature"},{"geometry":{"coordinates":[-75.04655,39.90706],"type":"Point"},"properties":{"kind":"stop","name":"Westmont","stop_id":"5"},"type":"Feature"},{"geometry":{"coordinates":[-75.06456,39.91359],"type":"Point"},"properties":{"kind":"stop","name":"Collingswood","stop_id":"6"},"type":"Feature"},{"geometry":{"coordinates":[-75.0918,39.92257],"type":"Point"},"properties":{"kind":"stop","name":"Ferry Avenue","stop_id":"7"},"type":"Feature"},{"geometry":{"coordinates":[-75.12036,39.94313],"type":"Point"},"properties":{"kind":"stop","name":"Broadway","stop_id":"8"},"type":"Feature"},{"geometry":{"coordinates":[-75.12124,39.94547],"type":"Point"},"properties":{"kind":"stop","name":"City Hall","stop_id":"9"},"type":"Feature"}],"type":"FeatureCollection"}
