{"features":[{"geometry":{"coordinates":[[-82.48779,28.84365],[-82.48817,28.86842],[-82.48854,28.87062],[-82.49024,28.87681],[-82.49032,28.87924],[-82.48942,28.88184],[-82.47829,28.90454],[-82.48047,28.90521],[-82.48051,28.90546],[-82.47994,28.9066],[-82.48051,28.90546],[-82.48047,28.90521],[-82.47846,28.90451],[-82.48427,28.89258],[-82.50049,28.89262],[-82.52465,28.89213],[-82.52475,28.89566],[-82.5213,28.89558],[-82.52075,28.895],[-82.52067,28.89402],[-82.52018,28.89368],[-82.51565,28.8937],[-82.51554,28.89604],[-82.51532,28.89607],[-82.51516,28.89671],[-82.51496,28.89682],[-82.50536,28.8968],[-82.50308,28.89711],[-82.5031,28.89596],[-82.5026,28.89348],[-82.50275,28.89331],[-82.50514,28.89302],[-82.51476,28.89341],[-82.51451,28.89388],[-82.5145,28.89681],[-82.51496,28.89682],[-82.51516,28.89671],[-82.51532,28.89607],[-82.51554,28.89604],[-82.51565,28.8937],[-82.52018,28.89368],[-82.52067,28.89402],[-82.52075,28.895],[-82.5213,28.89558],[-82.52475,28.89566],[-82.52482,28.89212],[-82.50425,28.89253],[-82.50328,28.89238],[-82.48642,28.89235],[-82.46668,28.89249],[-82.46423,28.89296],[-82.46215,28.89391],[-82.45731,28.89801],[-82.45533,28.89913],[-82.45254,28.8998],[-82.44667,28.89986],[-82.4468,28.90107],[-82.44764,28.9032],[-82.44747,28.9044],[-82.44669,28.90525],[-82.44347,28.90673],[-82.44268,28.90733],[-82.44225,28.90793],[-82.44133,28.91012],[-82.44074,28.91096],[-82.44086,28.91103],[-82.44145,28.91016],[-82.44423,28.91068],[-82.44693,28.91004],[-82.44813,28.91],[-82.44952,28.91048],[-82.45149,28.91189],[-82.45258,28.91061],[-82.45242,28.90946],[-82.45352,28.90838],[-82.45379,28.90771],[-82.45683,28.90767],[-82.45739,28.90796],[-82.45774,28.90765],[-82.45855,28.90763],[-82.4585,28.90801],[-82.45765,28.90895],[-82.45977,28.91045],[-82.46131,28.90876],[-82.46133,28.90839],[-82.46394,28.90848],[-82.46464,28.90756],[-82.46832,28.90756],[-82.46975,28.90857],[-82.47012,28.90754],[-82.46975,28.90857],[-82.46677,28.91182],[-82.4718,28.91533],[-82.46438,28.92345],[-82.46394,28.92301],[-82.46401,28.92327],[-82.46438,28.92345],[-82.46039,28.92783],[-82.4554,28.92429],[-82.45529,28.92441],[-82.4554,28.92429],[-82.44825,28.91925],[-82.4483,28.91841],[-82.44784,28.91779],[-82.44723,28.9176],[-82.44661,28.91777],[-82.44623,28.91813],[-82.44609,28.91858],[-82.44521,28.91922],[-82.44286,28.91908],[-82.44233,28.91792],[-82.44037,28.91648],[-82.43979,28.91578],[-82.43958,28.91503],[-82.43966,28.91274],[-82.4413,28.91043],[-82.44258,28.90765],[-82.44349,28.90686],[-82.44679,28.90534],[-82.44764,28.90436],[-82.44777,28.90319],[-82.44693,28.901],[-82.44684,28.90007],[-82.45252,28.90003],[-82.45506,28.89946],[-82.4573,28.8983],[-82.46236,28.89403],[-82.4632,28.8936],[-82.46344,28.89418],[-82.46336,28.89352],[-82.46585,28.89273],[-82.48411,28.89258],[-82.47829,28.90454],[-82.48047,28.90521],[-82.48051,28.90546],[-82.47994,28.9066],[-82.48051,28.90546],[-82.48047,28.90521],[-82.47846,28.90451],[-82.48427,28.89258],[-82.50049,28.89262],[-82.52465,28.89213],[-82.52475,28.89566],[-82.5213,28.89558],[-82.52075,28.895],[-82.52067,28.89402],[-82.52018,28.89368],[-82.51565,28.8937],[-82.51554,28.89604],[-82.51532,28.89607],[-82.51516,28.89671],[-82.51496,28.89682],[-82.50536,28.8968],[-82.50308,28.89711],[-82.5031,28.89596],[-82.5026,28.89348],[-82.50275,28.89331],[-82.50514,28.89302],[-82.51476,28.89341],[-82.51451,28.89388],[-82.5145,28.89681],[-82.51496,28.89682],[-82.51516,28.89671],[-82.51532,28.89607],[-82.51554,28.89604],[-82.51565,28.8937],[-82.52018,28.89368],[-82.52067,28.89402],[-82.52075,28.895],[-82.5213,28.89558],[-82.52475,28.89566],[-82.52482,28.89212],[-82.50702,28.89251],[-82.50328,28.89238],[-82.48434,28.89242],[-82.48977,28.88109],[-82.49039,28.87864],[-82.49022,28.87671],[-82.48888,28.87182],[-82.49036,28.87179],[-82.48888,28.87182],[-82.48817,28.86842],[-82.48816,28.86821],[-82.48961,28.86817],[-82.49001,28.86767],[-82.48953,28.8682],[-82.48816,28.86821],[-82.48779,28.84365]],"type":"LineString"},"properties":{"color":"#70AD47","color_name":"gray","kind":"route","label":"Beverly Hills","long":"Beverly Hills","route_id":"_Beverly Hills_Green Route serving Beverly Hills_FF70AD47","text_color":"#000000","type_label":"Bus"},"type":"Feature"},{"geometry":{"coordinates":[[-82.48779,28.84365],[-82.48783,28.85169],[-82.45655,28.85196],[-82.43038,28.85795],[-82.42862,28.85806],[-82.39582,28.85518],[-82.39096,28.85442],[-82.38486,28.85274],[-82.3752,28.84957],[-82.35305,28.83619],[-82.3515,28.83596],[-82.33273,28.83596],[-82.33163,28.83554],[-82.33018,28.83537],[-82.32226,28.82979],[-82.32073,28.82811],[-82.31508,28.81592],[-82.31369,28.80908],[-82.31319,28.80769],[-82.29448,28.77738],[-82.2942,28.77606],[-82.29363,28.76119],[-82.29396,28.75932],[-82.29694,28.75185],[-82.29699,28.75019],[-82.29597,28.75021],[-82.29597,28.74863],[-82.29597,28.75021],[-82.29699,28.75019],[-82.29694,28.75185],[-82.29396,28.75932],[-82.29363,28.76119],[-82.2942,28.77606],[-82.29465,28.77775],[-82.3131,28.8078],[-82.31358,28.80918],[-82.31491,28.81582],[-82.32018,28.82745],[-82.32121,28.82904],[-82.32245,28.83013],[-82.33018,28.83537],[-82.32965,28.83597],[-82.32893,28.83595],[-82.32965,28.83597],[-82.33018,28.83537],[-82.33163,28.83554],[-82.33273,28.83596],[-82.34471,28.83598],[-82.34473,28.84012],[-82.34455,28.84044],[-82.34459,28.85145],[-82.34503,28.85298],[-82.34712,28.85776],[-82.34845,28.85941],[-82.35708,28.86525],[-82.3585,28.86684],[-82.3615,28.87205],[-82.36738,28.88915],[-82.37339,28.89856],[-82.37084,28.89882],[-82.37339,28.89856],[-82.37561,28.90173],[-82.37641,28.90323],[-82.37658,28.90456],[-82.37551,28.91013],[-82.37533,28.91251],[-82.37674,28.92805],[-82.37653,28.9281],[-82.37651,28.92831],[-82.37653,28.9281],[-82.37674,28.92805],[-82.37533,28.91251],[-82.37551,28.91013],[-82.37655,28.90482],[-82.37651,28.90338],[-82.37683,28.90316],[-82.37547,28.90154],[-82.37245,28.89718],[-82.36738,28.88915],[-82.36166,28.87248],[-82.36012,28.86955],[-82.3653,28.8693],[-82.36531,28.86888],[-82.36561,28.86886],[-82.3727,28.8689],[-82.37271,28.86834],[-82.37333,28.86775],[-82.37857,28.86561],[-82.37868,28.86583],[-82.38156,28.86581],[-82.38156,28.86506],[-82.38428,28.86503],[-82.38429,28.86347],[-82.38611,28.86348],[-82.38619,28.85321],[-82.39011,28.85436],[-82.39382,28.85514],[-82.39381,28.85781],[-82.39382,28.85514],[-82.42931,28.85825],[-82.45647,28.85215],[-82.49424,28.85179],[-82.49591,28.85211],[-82.4962,28.85169],[-82.49752,28.85075],[-82.53367,28.81939],[-82.53505,28.8188],[-82.53667,28.81851],[-82.55979,28.81828],[-82.56047,28.81788],[-82.57201,28.80759],[-82.57294,28.80743],[-82.57309,28.80691],[-82.57445,28.8057],[-82.57643,28.80557],[-82.57641,28.7987],[-82.5758,28.79725],[-82.56261,28.78564],[-82.56243,28.78579],[-82.57582,28.79753],[-82.57637,28.7988],[-82.57643,28.80557],[-82.57445,28.8057],[-82.57309,28.80691],[-82.57294,28.80743],[-82.57201,28.80759],[-82.56047,28.81788],[-82.55979,28.81828],[-82.53667,28.81851],[-82.53505,28.8188],[-82.53367,28.81939],[-82.49598,28.85198],[-82.49454,28.85167],[-82.48783,28.85169],[-82.48779,28.84365]],"type":"LineString"},"properties":{"color":"#000000","color_name":"black","kind":"route","label":"Cold Weather Shelter","long":"Cold Weather Shelter","route_id":"_Cold Weather Shelter_Holidays and Weekends_000000","text_color":"#FFFFFF","type_label":"Bus"},"type":"Feature"},{"geometry":{"coordinates":[[-82.48779,28.84365],[-82.48817,28.86842],[-82.48854,28.87062],[-82.49024,28.87681],[-82.49039,28.87864],[-82.48977,28.88109],[-82.48411,28.89258],[-82.50413,28.89258],[-82.50328,28.89238],[-82.48618,28.89236],[-82.48419,28.89241],[-82.48411,28.89258],[-82.50049,28.89262],[-82.53107,28.89192],[-82.53421,28.89204],[-82.53665,28.8918],[-82.53659,28.89279],[-82.53741,28.89288],[-82.53736,28.89346],[-82.53659,28.89334],[-82.53665,28.8918],[-82.53926,28.89173],[-82.53926,28.89469],[-82.53862,28.89468],[-82.53853,28.8939],[-82.53703,28.89404],[-82.53783,28.89489],[-82.53847,28.89494],[-82.53862,28.89468],[-82.53926,28.89469],[-82.53926,28.89173],[-82.53736,28.89175],[-82.5369,28.88952],[-82.53698,28.88878],[-82.53842,28.88646],[-82.53936,28.88427],[-82.53996,28.88374],[-82.54171,28.88276],[-82.547,28.89004],[-82.5515,28.89343],[-82.55276,28.89404],[-82.56145,28.89649],[-82.56151,28.90096],[-82.56145,28.89649],[-82.57247,28.89837],[-82.57241,28.89865],[-82.57388,28.89916],[-82.57855,28.9021],[-82.57969,28.90248],[-82.5931,28.9024],[-82.5931,28.90126],[-82.5942,28.90126],[-82.5942,28.89972],[-82.59655,28.89991],[-82.59852,28.90047],[-82.60076,28.90185],[-82.60182,28.90296],[-82.60246,28.90395],[-82.604,28.90706],[-82.60256,28.90765],[-82.60277,28.90836],[-82.60343,28.90858],[-82.60312,28.90924],[-82.60353,28.90985],[-82.60426,28.9098],[-82.60533,28.9103],[-82.60541,28.91068],[-82.60516,28.91142],[-82.60612,28.9112],[-82.62629,28.95177],[-82.62522,28.95163],[-82.62499,28.95197],[-82.62522,28.95221],[-82.62497,28.95191],[-82.62522,28.95163],[-82.62629,28.95177],[-82.62715,28.95348],[-82.62734,28.95341],[-82.60608,28.91066],[-82.60193,28.90293],[-82.60031,28.90135],[-82.59831,28.90028],[-82.5959,28.89971],[-82.59307,28.89963],[-82.59305,28.89614],[-82.59194,28.8961],[-82.59193,28.89506],[-82.59194,28.8961],[-82.59084,28.89615],[-82.59082,28.89698],[-82.58995,28.897],[-82.58912,28.89523],[-82.58886,28.89529],[-82.58853,28.89451],[-82.58479,28.89457],[-82.5847,28.89056],[-82.58461,28.88932],[-82.58435,28.88855],[-82.58458,28.89213],[-82.58473,28.89212],[-82.5847,28.89056],[-82.58441,28.88791],[-82.58365,28.88496],[-82.58266,28.8824],[-82.58517,28.88133],[-82.58684,28.87991],[-82.58921,28.87853],[-82.59106,28.87681],[-82.58921,28.87853],[-82.58684,28.87991],[-82.58517,28.88133],[-82.58266,28.8824],[-82.58054,28.87698],[-82.57992,28.8742],[-82.57978,28.86646],[-82.58121,28.8664],[-82.57978,28.86646],[-82.57967,28.85274],[-82.5795,28.85274],[-82.57976,28.87433],[-82.58053,28.87743],[-82.5831,28.88404],[-82.58356,28.88472],[-82.58266,28.8824],[-82.5825,28.88245],[-82.58367,28.8856],[-82.58429,28.88817],[-82.58466,28.89495],[-82.58504,28.89622],[-82.58585,28.89793],[-82.58565,28.89822],[-82.5851,28.89835],[-82.57513,28.89858],[-82.57328,28.89847],[-82.56244,28.89675],[-82.55188,28.89366],[-82.54706,28.89011],[-82.53975,28.88008],[-82.53838,28.87911],[-82.53695,28.87884],[-82.52778,28.87898],[-82.52434,28.87829],[-82.52266,28.87737],[-82.52035,28.87583],[-82.51904,28.8747],[-82.5072,28.86253],[-82.50767,28.86243],[-82.5072,28.86253],[-82.49918,28.85462],[-82.49662,28.85234],[-82.49565,28.85187],[-82.49472,28.85168],[-82.48783,28.85169],[-82.48779,28.84365]],"type":"LineString"},"properties":{"color":"#5B9BD5","color_name":"teal","kind":"route","label":"Crystal River","long":"Crystal River","route_id":"_Crystal River_Blue Route serving Crystal River_FF5B9BD5","text_color":"#000000","type_label":"Bus"},"type":"Feature"},{"geometry":{"coordinates":[[-82.48779,28.84365],[-82.48783,28.85169],[-82.45613,28.85201],[-82.42952,28.85806],[-82.39866,28.85552],[-82.39849,28.85561],[-82.39848,28.85666],[-82.39764,28.85665],[-82.39691,28.85639],[-82.39691,28.85709],[-82.39381,28.85703],[-82.39381,28.85781],[-82.39383,28.85494],[-82.39096,28.85442],[-82.38624,28.8531],[-82.38615,28.85522],[-82.38682,28.85526],[-82.38615,28.85522],[-82.38624,28.8531],[-82.37744,28.85043],[-82.3752,28.84957],[-82.37055,28.84678],[-82.37071,28.84651],[-82.37072,28.84479],[-82.37071,28.84651],[-82.37055,28.84678],[-82.35346,28.83634],[-82.3518,28.83597],[-82.34471,28.83598],[-82.34472,28.83229],[-82.34729,28.83231],[-82.34732,28.82873],[-82.35072,28.82872],[-82.34474,28.82873],[-82.34471,28.83598],[-82.33526,28.83597],[-82.33527,28.83438],[-82.33513,28.83409],[-82.3302,28.8341],[-82.33022,28.83033],[-82.3289,28.83031],[-82.3289,28.82979],[-82.3289,28.83031],[-82.32356,28.83031],[-82.32325,28.83048],[-82.32169,28.82929],[-82.32073,28.82811],[-82.31508,28.81592],[-82.31369,28.80908],[-82.31319,28.80769],[-82.29481,28.77805],[-82.29452,28.77746],[-82.29553,28.77712],[-82.29441,28.77719],[-82.29435,28.77699],[-82.29364,28.76243],[-82.2938,28.75993],[-82.29688,28.75207],[-82.29714,28.74923],[-82.29803,28.74733],[-82.3004,28.74087],[-82.30293,28.74089],[-82.30295,28.74547],[-82.30229,28.74539],[-82.30295,28.74547],[-82.30295,28.74588],[-82.30143,28.74657],[-82.29897,28.74667],[-82.29899,28.7487],[-82.29742,28.74864],[-82.29699,28.75019],[-82.28556,28.75022],[-82.28424,28.74986],[-82.28353,28.75021],[-82.28168,28.75023],[-82.28041,28.7505],[-82.27959,28.75117],[-82.27945,28.75177],[-82.27963,28.75109],[-82.28021,28.75057],[-82.28141,28.75025],[-82.28353,28.75021],[-82.28424,28.74986],[-82.28556,28.75022],[-82.29597,28.75021],[-82.29597,28.74863],[-82.29597,28.75021],[-82.29699,28.75019],[-82.29688,28.75207],[-82.29408,28.759],[-82.29373,28.76024],[-82.29362,28.76155],[-82.2938,28.76632],[-82.29285,28.76636],[-82.29303,28.76042],[-82.29285,28.76636],[-82.29295,28.77118],[-82.29108,28.77136],[-82.29295,28.77118],[-82.29285,28.76636],[-82.2938,28.76632],[-82.2942,28.77606],[-82.29465,28.77775],[-82.30693,28.79776],[-82.30705,28.79771],[-82.30516,28.79489],[-82.3131,28.8078],[-82.31358,28.80918],[-82.31491,28.81582],[-82.32054,28.82815],[-82.32221,28.82996],[-82.33018,28.83537],[-82.32965,28.83597],[-82.32893,28.83595],[-82.32965,28.83597],[-82.33018,28.83537],[-82.33163,28.83554],[-82.33273,28.83596],[-82.34285,28.83597],[-82.34285,28.83772],[-82.34285,28.83597],[-82.34887,28.83596],[-82.34883,28.83236],[-82.35123,28.83019],[-82.35074,28.82963],[-82.35072,28.82872],[-82.34732,28.82873],[-82.34729,28.83231],[-82.34886,28.83239],[-82.34887,28.83596],[-82.35286,28.83613],[-82.35283,28.84124],[-82.35285,28.83975],[-82.35838,28.8398],[-82.35881,28.83958],[-82.3752,28.84957],[-82.38619,28.85321],[-82.38615,28.85522],[-82.38736,28.8553],[-82.38756,28.85363],[-82.39382,28.85514],[-82.39381,28.85781],[-82.39382,28.85514],[-82.42957,28.85824],[-82.45633,28.85216],[-82.48783,28.85184],[-82.48779,28.84365]],"type":"LineString"},"properties":{"color":"#F51414","color_name":"red","kind":"route","label":"Floral City","long":"Floral City","route_id":"_Floral City_Red Route serving Floral City_FFF51414","text_color":"#FFFFFF","type_label":"Bus"},"type":"Feature"},{"geometry":{"coordinates":[[-82.48779,28.84365],[-82.48783,28.85169],[-82.47163,28.8519],[-82.47553,28.85199],[-82.47562,28.85379],[-82.47553,28.85199],[-82.47654,28.85199],[-82.47654,28.85181],[-82.4592,28.85192],[-82.45923,28.85393],[-82.4592,28.85192],[-82.45679,28.85195],[-82.45516,28.85218],[-82.42978,28.85804],[-82.39866,28.85552],[-82.39849,28.85561],[-82.39848,28.85666],[-82.39764,28.85665],[-82.39691,28.85639],[-82.39691,28.85709],[-82.39381,28.85703],[-82.39381,28.85781],[-82.39383,28.85494],[-82.39096,28.85442],[-82.38624,28.8531],[-82.38615,28.85522],[-82.38682,28.85526],[-82.38615,28.85522],[-82.38624,28.8531],[-82.37744,28.85043],[-82.3752,28.84957],[-82.3657,28.8438],[-82.366,28.84361],[-82.36668,28.84361],[-82.36579,28.8437],[-82.36559,28.84459],[-82.36467,28.84388],[-82.36378,28.84363],[-82.35464,28.84347],[-82.35384,28.8433],[-82.35313,28.84275],[-82.35286,28.84207],[-82.35286,28.83613],[-82.3518,28.83597],[-82.34471,28.83598],[-82.34458,28.8419],[-82.34368,28.84185],[-82.34369,28.84169],[-82.3443,28.84169],[-82.3443,28.8419],[-82.34458,28.8419],[-82.34468,28.85192],[-82.3473,28.8581],[-82.34878,28.85966],[-82.35708,28.86525],[-82.3585,28.86684],[-82.3615,28.87205],[-82.36442,28.88061],[-82.36241,28.88065],[-82.36442,28.88061],[-82.36752,28.88941],[-82.37245,28.89718],[-82.37561,28.90173],[-82.37641,28.90323],[-82.37655,28.90482],[-82.37537,28.91135],[-82.37551,28.91491],[-82.37512,28.91491],[-82.37498,28.91378],[-82.37386,28.91385],[-82.37399,28.91486],[-82.37551,28.91491],[-82.37674,28.92805],[-82.37653,28.9281],[-82.37651,28.92831],[-82.37653,28.9281],[-82.37674,28.92805],[-82.37741,28.93517],[-82.37668,28.93518],[-82.37741,28.93517],[-82.37534,28.91223],[-82.37551,28.91013],[-82.3766,28.90431],[-82.37728,28.90419],[-82.37683,28.90316],[-82.37547,28.90154],[-82.37245,28.89718],[-82.36738,28.88915],[-82.3615,28.87205],[-82.35847,28.8668],[-82.35708,28.86525],[-82.34845,28.85941],[-82.34712,28.85776],[-82.34468,28.85192],[-82.34458,28.8419],[-82.34368,28.84185],[-82.34369,28.84169],[-82.3443,28.84169],[-82.3443,28.8419],[-82.34458,28.8419],[-82.34477,28.83883],[-82.34472,28.83229],[-82.34883,28.83236],[-82.34887,28.83596],[-82.35286,28.83613],[-82.35286,28.84207],[-82.35313,28.84275],[-82.35384,28.8433],[-82.35464,28.84347],[-82.36122,28.84358],[-82.36122,28.84154],[-82.36141,28.84119],[-82.3752,28.84957],[-82.38619,28.85321],[-82.38615,28.85522],[-82.38736,28.8553],[-82.38756,28.85363],[-82.39382,28.85514],[-82.39381,28.85781],[-82.39382,28.85514],[-82.42931,28.85825],[-82.45647,28.85215],[-82.45921,28.8521],[-82.45923,28.85393],[-82.45921,28.8521],[-82.47553,28.85199],[-82.47562,28.85379],[-82.47553,28.85199],[-82.48783,28.85184],[-82.48779,28.84365]],"type":"LineString"},"properties":{"color":"#9735B0","color_name":"purple","kind":"route","label":"Hernando","long":"Hernando","route_id":"_Hernando_Purple Route serving Hernando_FF9735B0","text_color":"#FFFFFF","type_label":"Bus"},"type":"Feature"},{"geometry":{"coordinates":[[-82.48779,28.84365],[-82.48773,28.82286],[-82.49251,28.82284],[-82.4933,28.82168],[-82.49314,28.82161],[-82.49297,28.82193],[-82.49213,28.82144],[-82.49227,28.82037],[-82.49188,28.82],[-82.4877,28.82005],[-82.48766,28.80298],[-82.48742,28.80195],[-82.48689,28.80102],[-82.48615,28.80029],[-82.48499,28.79965],[-82.48554,28.79855],[-82.48499,28.79965],[-82.48632,28.80043],[-82.48725,28.80156],[-82.48763,28.80272],[-82.4877,28.80451],[-82.50732,28.80401],[-82.56774,28.80376],[-82.56773,28.80192],[-82.56774,28.80376],[-82.57641,28.8037],[-82.57647,28.81107],[-82.57664,28.81107],[-82.57644,28.80728],[-82.57828,28.80712],[-82.57828,28.80727],[-82.57644,28.80728],[-82.57641,28.8037],[-82.58597,28.8036],[-82.58639,28.80296],[-82.58743,28.79967],[-82.58879,28.79817],[-82.59045,28.79719],[-82.60498,28.79],[-82.60711,28.78492],[-82.60813,28.78381],[-82.60846,28.78265],[-82.61516,28.78189],[-82.61546,28.78129],[-82.6167,28.77993],[-82.61546,28.78129],[-82.61516,28.78189],[-82.60846,28.78265],[-82.60813,28.78381],[-82.60711,28.78492],[-82.60498,28.79],[-82.59258,28.79616],[-82.59238,28.796],[-82.5865,28.79596],[-82.58437,28.79635],[-82.58185,28.79643],[-82.57968,28.79753],[-82.57699,28.79761],[-82.57802,28.79589],[-82.57699,28.79558],[-82.57564,28.79556],[-82.5753,28.79569],[-82.57524,28.79605],[-82.57492,28.79634],[-82.55519,28.7791],[-82.55381,28.7769],[-82.55329,28.77457],[-82.55286,28.72263],[-82.55262,28.72264],[-82.55262,28.72373],[-82.55264,28.72508],[-82.55289,28.72507],[-82.55275,28.70884],[-82.54989,28.70886],[-82.5499,28.70811],[-82.55092,28.7081],[-82.5499,28.70811],[-82.54989,28.70886],[-82.55251,28.70885],[-82.55255,28.72235],[-82.55227,28.72241],[-82.54659,28.71921],[-82.54648,28.71937],[-82.55118,28.72201],[-82.55056,28.72313],[-82.55044,28.72378],[-82.55129,28.72379],[-82.55042,28.72368],[-82.55118,28.72201],[-82.55262,28.72264],[-82.55284,28.74879],[-82.55308,28.74879],[-82.55306,28.74574],[-82.55282,28.74574],[-82.55295,28.764],[-82.55114,28.76399],[-82.55113,28.76255],[-82.55114,28.76399],[-82.55295,28.764],[-82.55304,28.77455],[-82.55331,28.77619],[-82.5539,28.77765],[-82.55494,28.77916],[-82.55868,28.78252],[-82.55814,28.78301],[-82.55868,28.78252],[-82.57519,28.79686],[-82.57601,28.79787],[-82.57639,28.79925],[-82.57413,28.79927],[-82.57415,28.79761],[-82.57413,28.79927],[-82.57087,28.79933],[-82.57086,28.80375],[-82.56774,28.80376],[-82.56773,28.80192],[-82.56774,28.80376],[-82.50732,28.80401],[-82.4877,28.80451],[-82.48763,28.80272],[-82.48725,28.80156],[-82.48632,28.80043],[-82.48499,28.79965],[-82.48554,28.79855],[-82.48499,28.79965],[-82.48615,28.80029],[-82.48689,28.80102],[-82.48742,28.80195],[-82.48766,28.80298],[-82.4877,28.82005],[-82.49188,28.82],[-82.49227,28.82037],[-82.49213,28.82144],[-82.49307,28.82197],[-82.4933,28.82168],[-82.49314,28.82161],[-82.49238,28.82284],[-82.48773,28.82286],[-82.48779,28.84365]],"type":"LineString"},"properties":{"color":"#FEE599","color_name":"white","kind":"route","label":"Homosassa New","long":"Homosassa New","route_id":"_Homosassa New_Yellow Route serving Homosassa_FFFEE599","text_color":"#000000","type_label":"Bus"},"type":"Feature"},{"geometry":{"coordinates":[-82.48896,28.86849],"type":"Point"},"properties":{"kind":"stop","name":"Allen Ridge Office Complex","stop_id":"Allen Ridge Office Complex_Allen Ridge Office Complex_28.868486_-82.488960"},"type":"Feature"},{"geometry":{"coordinates":[-82.3657,28.84345],"type":"Point"},"properties":{"kind":"stop","name":"Ashley Home Furniture","stop_id":"Ashley Home Furniture__28.843454_-82.365698"},"type":"Feature"},{"geometry":{"coordinates":[-82.38665,28.85528],"type":"Point"},"properties":{"kind":"stop","name":"Beall's / Inverness","stop_id":"Beall's / Inverness_Beall's / Inverness_28.855285_-82.386654"},"type":"Feature"},{"geometry":{"coordinates":[-82.58123,28.86689],"type":"Point"},"properties":{"kind":"stop","name":"Beall's Crystal River","stop_id":"Beall's Crystal River_Beall's_28.866893_-82.581231"},"type":"Feature"},{"geometry":{"coordinates":[-82.57661,28.81103],"type":"Point"},"properties":{"kind":"stop","name":"Bell Villa Motel","stop_id":"Bell Villa Motel__28.811032_-82.576612"},"type":"Feature"},{"geometry":{"coordinates":[-82.4544,28.92345],"type":"Point"},"properties":{"kind":"stop","name":"Beverly Hills Blvd & Lincoln Ave","stop_id":"Beverly Hills Blvd & Lincoln Ave__28.923450_-82.454400"},"type":"Feature"},{"geometry":{"coordinates":[-82.45164,28.91172],"type":"Point"},"properties":{"kind":"stop","name":"Beverly Hills Community Park","stop_id":"Beverly Hills Community Park__28.911720_-82.451643"},"type":"Feature"},{"geometry":{"coordinates":[-82.46392,28.92307],"type":"Point"},"properties":{"kind":"stop","name":"Beverly Plaza (Papa Willies)","stop_id":"Beverly Plaza (Papa Willies)__28.923065_-82.463920"},"type":"Feature"},{"geometry":{"coordinates":[-82.58651,28.89398],"type":"Point"},"properties":{"kind":"stop","name":"Big Lots","stop_id":"Big Lots_Big Lots_28.893983_-82.586513"},"type":"Feature"},{"geometry":{"coordinates":[-82.36122,28.84237],"type":"Point"},"properties":{"kind":"stop","name":"Brannen Bank - Inverness","stop_id":"Brannen Bank - Inverness__28.842372_-82.361215"},"type":"Feature"},{"geometry":{"coordinates":[-82.46341,28.89413],"type":"Point"},"properties":{"kind":"stop","name":"Brentwood Circle","stop_id":"Brentwood Circle __28.894129_-82.463413"},"type":"Feature"},{"geometry":{"coordinates":[-82.59139,28.90242],"type":"Point"},"properties":{"kind":"stop","name":"CR Train Station @ Trail","stop_id":"CR Train Station @ Trail_CR Train Station @ Trail_28.902418_-82.591389"},"type":"Feature"},{"geometry":{"coordinates":[-82.58549,28.89777],"type":"Point"},"properties":{"kind":"stop","name":"CVS Crystal River","stop_id":"CVS Crystal River__28.897769_-82.585489"},"type":"Feature"},{"geometry":{"coordinates":[-82.44754,28.89981],"type":"Point"},"properties":{"kind":"stop","name":"CVS Hernando","stop_id":"CVS Hernando __28.899811_-82.447538"},"type":"Feature"},{"geometry":{"coordinates":[-82.31583,28.81891],"type":"Point"},"properties":{"kind":"stop","name":"Calvary Chapel of Inverness","stop_id":"Calvary Chapel of Inverness_Calvary Chapel of Inverness_28.818906_-82.315827"},"type":"Feature"},{"geometry":{"coordinates":[-82.4752,28.85267],"type":"Point"},"properties":{"kind":"stop","name":"Career Source","stop_id":"Career Source_Career Source_28.852667_-82.475198"},"type":"Feature"},{"geometry":{"coordinates":[-82.4416,28.91067],"type":"Point"},"properties":{"kind":"stop","name":"Central Ridge Library / Beverly Hills","stop_id":"Central Ridge Library / Beverly Hills_Central Ridge Library / Beverly Hills_28.910671_-82.441603"},"type":"Feature"},{"geometry":{"coordinates":[-82.57972,28.85642],"type":"Point"},"properties":{"kind":"stop","name":"Circle K @ Ozello Trail","stop_id":"Circle K @ Ozello Trail __28.856424_-82.579721"},"type":"Feature"},{"geometry":{"coordinates":[-82.55959,28.8038],"type":"Point"},"properties":{"kind":"stop","name":"Citgo @ Alabama","stop_id":"Citgo @ Alabama__28.803802_-82.559586"},"type":"Feature"},{"geometry":{"coordinates":[-82.48834,28.84365],"type":"Point"},"properties":{"kind":"stop","name":"Citrus County Transit Office","stop_id":"Citrus County Transit Office_Citrus County Transit Office_28.843654_-82.488339"},"type":"Feature"},{"geometry":{"coordinates":[-82.48834,28.84365],"type":"Point"},"properties":{"kind":"stop","name":"Citrus County Transit","stop_id":"Citrus County Transit_Citrus County Transit_28.843654_-82.488339"},"type":"Feature"},{"geometry":{"coordinates":[-82.44665,28.91765],"type":"Point"},"properties":{"kind":"stop","name":"Civic Circle (Horseshoe Pit)","stop_id":"Civic Circle (Horseshoe Pit)_Civic Circle (Horseshoe Pit)_28.917655_-82.446647"},"type":"Feature"},{"geometry":{"coordinates":[-82.57754,28.90258],"type":"Point"},"properties":{"kind":"stop","name":"Coastal Region Library","stop_id":"Coastal Region Library_Coastal Region Library_28.902580_-82.577536"},"type":"Feature"},{"geometry":{"coordinates":[-82.48892,28.80873],"type":"Point"},"properties":{"kind":"stop","name":"College of Central Florida","stop_id":"College of Central Florida_College of Central Florida_28.808735_-82.488925"},"type":"Feature"},{"geometry":{"coordinates":[-82.35285,28.83975],"type":"Point"},"properties":{"kind":"stop","name":"Colonnade Park Apartments","stop_id":"Colonnade Park Apartments_1800 Colonade Park_28.839745_-82.352846"},"type":"Feature"},{"geometry":{"coordinates":[-82.37245,28.89869],"type":"Point"},"properties":{"kind":"stop","name":"Connections Hernando","stop_id":"Connections Hernando__28.898689_-82.372450"},"type":"Feature"},{"geometry":{"coordinates":[-82.48051,28.90618],"type":"Point"},"properties":{"kind":"stop","name":"County Resource Center (VA Clinic)","stop_id":"County Resource Center (VA Clinic)_County Resource Center (VA Clinic)_28.906181_-82.480509"},"type":"Feature"},{"geometry":{"coordinates":[-82.32954,28.8358],"type":"Point"},"properties":{"kind":"stop","name":"Courthouse Square","stop_id":"Courthouse Square_Courthouse Square_28.835797_-82.329538"},"type":"Feature"},{"geometry":{"coordinates":[-82.53746,28.89344],"type":"Point"},"properties":{"kind":"stop","name":"Crystal River Apartments","stop_id":"Crystal River Apartments_Crystal River Apts._28.893436_-82.537459"},"type":"Feature"},{"geometry":{"coordinates":[-82.59466,28.9004],"type":"Point"},"properties":{"kind":"stop","name":"Crystal River City Hall","stop_id":"Crystal River City Hall_Crystal River City Hall_28.900401_-82.594655"},"type":"Feature"},{"geometry":{"coordinates":[-82.60348,28.90985],"type":"Point"},"properties":{"kind":"stop","name":"Crystal River Mall","stop_id":"Crystal River Mall_Crystal River Mall_28.909851_-82.603478"},"type":"Feature"},{"geometry":{"coordinates":[-82.54683,28.89043],"type":"Point"},"properties":{"kind":"stop","name":"Daystar","stop_id":"Daystar_Daystar_28.890428_-82.546831"},"type":"Feature"},{"geometry":{"coordinates":[-82.61036,28.91907],"type":"Point"},"properties":{"kind":"stop","name":"Denny's Crystal River","stop_id":"Denny's Crystal River__28.919072_-82.610361"},"type":"Feature"},{"geometry":{"coordinates":[-82.55263,28.72433],"type":"Point"},"properties":{"kind":"stop","name":"Dollar General 19/98","stop_id":"Dollar General 19/98__28.724326_-82.552630"},"type":"Feature"},{"geometry":{"coordinates":[-82.37633,28.92783],"type":"Point"},"properties":{"kind":"stop","name":"Dollar General/Hernando","stop_id":"Dollar General/Hernando_Dollar General/Hernando_28.927834_-82.376327"},"type":"Feature"},{"geometry":{"coordinates":[-82.27948,28.75155],"type":"Point"},"properties":{"kind":"stop","name":"Duval Island Boat Ramp (Parking Lot)","stop_id":"Duval Island Boat Ramp (Parking Lot)__28.751545_-82.279483"},"type":"Feature"},{"geometry":{"coordinates":[-82.37693,28.90423],"type":"Point"},"properties":{"kind":"stop","name":"E Apex Lane (Party Store)","stop_id":"E Apex Lane (Party Store)__28.904228_-82.376933"},"type":"Feature"},{"geometry":{"coordinates":[-82.46978,28.90841],"type":"Point"},"properties":{"kind":"stop","name":"Eagleton Park","stop_id":"Eagleton Park_Eagleton Park_28.908407_-82.469777"},"type":"Feature"},{"geometry":{"coordinates":[-82.56005,28.80356],"type":"Point"},"properties":{"kind":"stop","name":"Family Dollar Store","stop_id":"Family Dollar Store_Family Dollar Store_28.803559_-82.560046"},"type":"Feature"},{"geometry":{"coordinates":[-82.54214,28.88262],"type":"Point"},"properties":{"kind":"stop","name":"Family Dollar","stop_id":"Family Dollar_Family Dollar_28.882616_-82.542136"},"type":"Feature"},{"geometry":{"coordinates":[-82.37566,28.91652],"type":"Point"},"properties":{"kind":"stop","name":"Family Resource Center","stop_id":"Family Resource Center_Family Resource Center_28.916524_-82.375656"},"type":"Feature"},{"geometry":{"coordinates":[-82.29576,28.74953],"type":"Point"},"properties":{"kind":"stop","name":"Floral City Library","stop_id":"Floral City Library_Floral City Library_28.749534_-82.295757"},"type":"Feature"},{"geometry":{"coordinates":[-82.30262,28.74543],"type":"Point"},"properties":{"kind":"stop","name":"Floral Oaks Apts","stop_id":"Floral Oaks Apts_Floral Oaks Apts_28.745426_-82.302621"},"type":"Feature"},{"geometry":{"coordinates":[-82.44628,28.90306],"type":"Point"},"properties":{"kind":"stop","name":"Forest Ridge Apartments","stop_id":"Forest Ridge Apartments_Forest Ridge Apartments_28.903064_-82.446281"},"type":"Feature"},{"geometry":{"coordinates":[-82.29722,28.78196],"type":"Point"},"properties":{"kind":"stop","name":"Gobbler Rd & Highway 41","stop_id":"Gobbler Rd & Highway 41__28.781965_-82.297220"},"type":"Feature"},{"geometry":{"coordinates":[-82.55306,28.74718],"type":"Point"},"properties":{"kind":"stop","name":"HCA Health Care Center","stop_id":"HCA Health Care Center__28.747181_-82.553061"},"type":"Feature"},{"geometry":{"coordinates":[-82.33533,28.83453],"type":"Point"},"properties":{"kind":"stop","name":"HCA Inverness","stop_id":"HCA Inverness _Citrus Memorial Hosp /INV_28.834527_-82.335329"},"type":"Feature"},{"geometry":{"coordinates":[-82.5844,28.88888],"type":"Point"},"properties":{"kind":"stop","name":"Harbor Freight","stop_id":"Harbor Freight__28.888884_-82.584399"},"type":"Feature"},{"geometry":{"coordinates":[-82.37302,28.89801],"type":"Point"},"properties":{"kind":"stop","name":"Hernando School House","stop_id":"Hernando School House_Hernando School House_28.898011_-82.373017"},"type":"Feature"},{"geometry":{"coordinates":[-82.30577,28.79564],"type":"Point"},"properties":{"kind":"stop","name":"Highway 41 & E Fort Cooper Rd","stop_id":"Highway 41 & E Fort Cooper Rd__28.795636_-82.305767"},"type":"Feature"},{"geometry":{"coordinates":[-82.32881,28.83016],"type":"Point"},"properties":{"kind":"stop","name":"Hill St & Park Raintree Apts","stop_id":"Hill St & Park Raintree Apts_Hill St & Park Raintree Apts_28.830157_-82.328809"},"type":"Feature"},{"geometry":{"coordinates":[-82.61559,28.78136],"type":"Point"},"properties":{"kind":"stop","name":"Homosassa Civic Club","stop_id":"Homosassa Civic Club__28.781356_-82.615586"},"type":"Feature"},{"geometry":{"coordinates":[-82.56813,28.80303],"type":"Point"},"properties":{"kind":"stop","name":"Homosassa Library","stop_id":"Homosassa Library_Homosassa Library_28.803026_-82.568127"},"type":"Feature"},{"geometry":{"coordinates":[-82.59197,28.89507],"type":"Point"},"properties":{"kind":"stop","name":"Hunter Springs Park @ NE 2ND","stop_id":"Hunter Springs Park @ NE 2ND __28.895070_-82.591968"},"type":"Feature"},{"geometry":{"coordinates":[-82.34639,28.82811],"type":"Point"},"properties":{"kind":"stop","name":"Lake Region Library / Inverness","stop_id":"Lake Region Library / Inverness_Lake Region Library / Inverness_28.828111_-82.346391"},"type":"Feature"},{"geometry":{"coordinates":[-82.49325,28.82159],"type":"Point"},"properties":{"kind":"stop","name":"Lecanto Health Department","stop_id":"Lecanto Health Department_Lecanto Health Department_28.821590_-82.493245"},"type":"Feature"},{"geometry":{"coordinates":[-82.50753,28.86248],"type":"Point"},"properties":{"kind":"stop","name":"Lecanto Hills MHP","stop_id":"Lecanto Hills MHP_Lecanto Hills MHP_28.862485_-82.507530"},"type":"Feature"},{"geometry":{"coordinates":[-82.48525,28.79944],"type":"Point"},"properties":{"kind":"stop","name":"Leisure Acres - Hwy 491","stop_id":"Leisure Acres - Hwy 491_Leisure Acres - Hwy 491_28.799441_-82.485253"},"type":"Feature"},{"geometry":{"coordinates":[-82.4904,28.87239],"type":"Point"},"properties":{"kind":"stop","name":"Life Care Center","stop_id":"Life Care Center__28.872388_-82.490404"},"type":"Feature"},{"geometry":{"coordinates":[-82.58285,28.88294],"type":"Point"},"properties":{"kind":"stop","name":"Life Tree Church","stop_id":"Life Tree Church__28.882936_-82.582852"},"type":"Feature"},{"geometry":{"coordinates":[-82.48148,28.89799],"type":"Point"},"properties":{"kind":"stop","name":"LifeStream Beverly Hills (Yellow REMAX)","stop_id":"LifeStream Beverly Hills (Yellow REMAX)__28.897989_-82.481479"},"type":"Feature"},{"geometry":{"coordinates":[-82.4877,28.81605],"type":"Point"},"properties":{"kind":"stop","name":"LifeStream Lecanto","stop_id":"LifeStream Lecanto__28.816051_-82.487695"},"type":"Feature"},{"geometry":{"coordinates":[-82.30025,28.74129],"type":"Point"},"properties":{"kind":"stop","name":"Lollygaggers / Floral City","stop_id":"Lollygaggers / Floral City_Lollygaggers / Floral City_28.741291_-82.300245"},"type":"Feature"},{"geometry":{"coordinates":[-82.37699,28.93518],"type":"Point"},"properties":{"kind":"stop","name":"Longbow Loop / Flying Arrow Path","stop_id":"Longbow Loop / Flying Arrow Path__28.935181_-82.376994"},"type":"Feature"},{"geometry":{"coordinates":[-82.36261,28.88076],"type":"Point"},"properties":{"kind":"stop","name":"Louisiana Street @ Mailboxes","stop_id":"Louisiana Street @ Mailboxes_Louisiana Street @ Mailboxes_28.880755_-82.362606"},"type":"Feature"},{"geometry":{"coordinates":[-82.54034,28.88396],"type":"Point"},"properties":{"kind":"stop","name":"Meadowcrest Gov't Center","stop_id":"Meadowcrest Gov't Center_Meadowcrest Gov't Center_28.883956_-82.540343"},"type":"Feature"},{"geometry":{"coordinates":[-82.4553,28.92433],"type":"Point"},"properties":{"kind":"stop","name":"Monroe St & Beverly Hills Blvd.","stop_id":"Monroe St & Beverly Hills Blvd._Monroe St & Beverly Hills Blvd._28.924334_-82.455301"},"type":"Feature"},{"geometry":{"coordinates":[-82.4668,28.91168],"type":"Point"},"properties":{"kind":"stop","name":"Monroe St. & Truman","stop_id":"Monroe St. & Truman_Monroe St. & Truman_28.911684_-82.466795"},"type":"Feature"},{"geometry":{"coordinates":[-82.56247,28.78581],"type":"Point"},"properties":{"kind":"stop","name":"Nature Coast Church","stop_id":"Nature Coast Church__28.785813_-82.562465"},"type":"Feature"},{"geometry":{"coordinates":[-82.29142,28.77126],"type":"Point"},"properties":{"kind":"stop","name":"Old Floral City Rd & Moonrise","stop_id":"Old Floral City Rd & Moonrise_Old Floral City Rd & Moonrise_28.771257_-82.291415"},"type":"Feature"},{"geometry":{"coordinates":[-82.29281,28.76352],"type":"Point"},"properties":{"kind":"stop","name":"Old Floral City Rd/Keating Park","stop_id":"Old Floral City Rd/Keating Park_Old Floral City Rd/Keating Park_28.763524_-82.292806"},"type":"Feature"},{"geometry":{"coordinates":[-82.5774,28.79558],"type":"Point"},"properties":{"kind":"stop","name":"Ollies Shopping Plaza","stop_id":"Ollies Shopping Plaza__28.795582_-82.577396"},"type":"Feature"},{"geometry":{"coordinates":[-82.35019,28.82876],"type":"Point"},"properties":{"kind":"stop","name":"Orvista Cir & Druid Rd","stop_id":"Orvista Cir & Druid Rd__28.828761_-82.350186"},"type":"Feature"},{"geometry":{"coordinates":[-82.32084,28.82771],"type":"Point"},"properties":{"kind":"stop","name":"Our Lady of Fatima Church","stop_id":"Our Lady of Fatima Church_Our Lady of Fatima Church_28.827706_-82.320835"},"type":"Feature"},{"geometry":{"coordinates":[-82.55839,28.78279],"type":"Point"},"properties":{"kind":"stop","name":"Pack and Post","stop_id":"Pack and Post_Pack and Post_28.782794_-82.558391"},"type":"Feature"},{"geometry":{"coordinates":[-82.59088,28.8772],"type":"Point"},"properties":{"kind":"stop","name":"Plantation on Crystal River","stop_id":"Plantation on Crystal River__28.877197_-82.590883"},"type":"Feature"},{"geometry":{"coordinates":[-82.57862,28.80431],"type":"Point"},"properties":{"kind":"stop","name":"Publix - Homosassa","stop_id":"Publix - Homosassa_Publix - Homosassa_28.804313_-82.578624"},"type":"Feature"},{"geometry":{"coordinates":[-82.55145,28.72316],"type":"Point"},"properties":{"kind":"stop","name":"Publix - Sugarmill Woods","stop_id":"Publix - Sugarmill Woods_Publix - Sugarmill Woods_28.723157_-82.551452"},"type":"Feature"},{"geometry":{"coordinates":[-82.34301,28.83707],"type":"Point"},"properties":{"kind":"stop","name":"Publix / Inverness","stop_id":"Publix / Inverness_Publix / Inverness_28.837069_-82.343010"},"type":"Feature"},{"geometry":{"coordinates":[-82.54716,28.88908],"type":"Point"},"properties":{"kind":"stop","name":"Publix Crystal River","stop_id":"Publix Crystal River_Publix_28.889083_-82.547156"},"type":"Feature"},{"geometry":{"coordinates":[-82.57643,28.80608],"type":"Point"},"properties":{"kind":"stop","name":"RaceTrac Homosassa","stop_id":"RaceTrac Homosassa__28.806081_-82.576434"},"type":"Feature"},{"geometry":{"coordinates":[-82.36065,28.84358],"type":"Point"},"properties":{"kind":"stop","name":"Regency Park","stop_id":"Regency Park__28.843582_-82.360654"},"type":"Feature"},{"geometry":{"coordinates":[-82.34369,28.8417],"type":"Point"},"properties":{"kind":"stop","name":"Regional Plaza","stop_id":"Regional Plaza_Regional Plaza_28.841698_-82.343691"},"type":"Feature"},{"geometry":{"coordinates":[-82.53853,28.89463],"type":"Point"},"properties":{"kind":"stop","name":"River Reach Apartments","stop_id":"River Reach Apartments_River Reach Apts._28.894629_-82.538528"},"type":"Feature"},{"geometry":{"coordinates":[-82.45932,28.853],"type":"Point"},"properties":{"kind":"stop","name":"Salvation Army","stop_id":"Salvation Army_Salvation Army_28.853001_-82.459322"},"type":"Feature"},{"geometry":{"coordinates":[-82.579,28.85569],"type":"Point"},"properties":{"kind":"stop","name":"St. Benedict's Church","stop_id":"St. Benedict's Church_St. Benedict's Church_28.855694_-82.579001"},"type":"Feature"},{"geometry":{"coordinates":[-82.56091,28.78364],"type":"Point"},"properties":{"kind":"stop","name":"Sunny Days Plaza","stop_id":"Sunny Days Plaza_Sunny Days Plaza_28.783643_-82.560909"},"type":"Feature"},{"geometry":{"coordinates":[-82.29461,28.77706],"type":"Point"},"properties":{"kind":"stop","name":"Sunray Ln & Hwy 41","stop_id":"Sunray Ln & Hwy 41_Sunray Ln & Hwy 41_28.777060_-82.294611"},"type":"Feature"},{"geometry":{"coordinates":[-82.62497,28.95191],"type":"Point"},"properties":{"kind":"stop","name":"TGH Crystal River","stop_id":"TGH Crystal River _Seven Rivers Hospital_28.951905_-82.624968"},"type":"Feature"},{"geometry":{"coordinates":[-82.62668,28.95269],"type":"Point"},"properties":{"kind":"stop","name":"TGH Medical Complex","stop_id":"TGH Medical Complex__28.952692_-82.626680"},"type":"Feature"},{"geometry":{"coordinates":[-82.48662,28.89461],"type":"Point"},"properties":{"kind":"stop","name":"Target Plaza","stop_id":"Target Plaza__28.894610_-82.486620"},"type":"Feature"},{"geometry":{"coordinates":[-82.56152,28.89841],"type":"Point"},"properties":{"kind":"stop","name":"The Mission / Pennsylvania St","stop_id":"The Mission / Pennsylvania St_The Mission / Pennsylvania St_28.898406_-82.561520"},"type":"Feature"},{"geometry":{"coordinates":[-82.37104,28.84663],"type":"Point"},"properties":{"kind":"stop","name":"Times Square","stop_id":"Times Square_Times Square_28.846626_-82.371040"},"type":"Feature"},{"geometry":{"coordinates":[-82.37508,28.91485],"type":"Point"},"properties":{"kind":"stop","name":"Ventura Village Apts","stop_id":"Ventura Village Apts_Ventura Village Apts_28.914850_-82.375077"},"type":"Feature"},{"geometry":{"coordinates":[-82.57424,28.79781],"type":"Point"},"properties":{"kind":"stop","name":"W. Periwinkle / The Commons","stop_id":"W. Periwinkle / The Commons_W. Periwinkle / The Commons_28.797808_-82.574237"},"type":"Feature"},{"geometry":{"coordinates":[-82.39375,28.85734],"type":"Point"},"properties":{"kind":"stop","name":"Wal-Mart / Inverness","stop_id":"Wal-Mart / Inverness_Wal-Mart / Inverness_28.857344_-82.393749"},"type":"Feature"},{"geometry":{"coordinates":[-82.48898,28.89181],"type":"Point"},"properties":{"kind":"stop","name":"Wal-Mart / Lecanto","stop_id":"Wal-Mart / Lecanto_Wal-Mart / Lecanto_28.891812_-82.488981"},"type":"Feature"},{"geometry":{"coordinates":[-82.55016,28.70811],"type":"Point"},"properties":{"kind":"stop","name":"Walden Woods @ W Merrivale Ln","stop_id":"Walden Woods @ W Merrivale Ln__28.708109_-82.550155"},"type":"Feature"},{"geometry":{"coordinates":[-82.44712,28.90092],"type":"Point"},"properties":{"kind":"stop","name":"Walgreens @ Forest Ridge Blvd.","stop_id":"Walgreens @ Forest Ridge Blvd._Walgreens @ Forest Ridge Blvd._28.900917_-82.447125"},"type":"Feature"},{"geometry":{"coordinates":[-82.54987,28.76282],"type":"Point"},"properties":{"kind":"stop","name":"Walmart Homosassa","stop_id":"Walmart Homosassa__28.762820_-82.549870"},"type":"Feature"},{"geometry":{"coordinates":[-82.45828,28.90932],"type":"Point"},"properties":{"kind":"stop","name":"Water Tower Park","stop_id":"Water Tower Park_Water Tower Park_28.909321_-82.458277"},"type":"Feature"},{"geometry":{"coordinates":[-82.47036,28.91471],"type":"Point"},"properties":{"kind":"stop","name":"Winn Dixie - (Beverly Hills)","stop_id":"Winn Dixie - (Beverly Hills)_Winn Dixie - (Beverly Hills)_28.914714_-82.470363"},"type":"Feature"},{"geometry":{"coordinates":[-82.57836,28.80717],"type":"Point"},"properties":{"kind":"stop","name":"Winn Dixie - Homosassa","stop_id":"Winn Dixie - Homosassa_Winn Dixie - Homosassa_28.807171_-82.578356"},"type":"Feature"},{"geometry":{"coordinates":[-82.34514,28.83717],"type":"Point"},"properties":{"kind":"stop","name":"Winn Dixie / Montgomery Ave.","stop_id":"Winn Dixie / Montgomery Ave._Winn Dixie / Montgomery Ave._28.837168_-82.345140"},"type":"Feature"},{"geometry":{"coordinates":[-82.34494,28.83235],"type":"Point"},"properties":{"kind":"stop","name":"Withlacoochee Technical College","stop_id":"Withlacoochee Technical College_Withlacoochee Technical College_28.832353_-82.344943"},"type":"Feature"},{"geometry":{"coordinates":[-82.50243,28.89356],"type":"Point"},"properties":{"kind":"stop","name":"YMCA","stop_id":"YMCA_YMCA_28.893561_-82.502433"},"type":"Feature"}],"type":"FeatureCollection"}
