{"features":[{"geometry":{"coordinates":[[-118.15752,34.14467],[-118.15411,34.14449],[-118.15416,34.14575],[-118.13234,34.14589],[-118.13236,34.14069],[-118.13112,34.14092],[-118.12446,34.141],[-118.12094,34.1419],[-118.11314,34.14196],[-118.11312,34.15299],[-118.1174,34.15289],[-118.1174,34.15248],[-118.11739,34.15179],[-118.11329,34.15183],[-118.11326,34.1512]],"type":"LineString"},"properties":{"color":"#C5003E","color_name":"red","kind":"route","label":"10","long":"Old Pasadena - PCC - Allen Station","route_id":"10","text_color":"#FFFFFF","type_label":"Bus"},"type":"Feature"},{"geometry":{"coordinates":[[-118.15082,34.18299],[-118.15058,34.15779],[-118.14602,34.15785],[-118.14598,34.14953],[-118.14892,34.14948],[-118.14883,34.14057],[-118.15043,34.14062],[-118.15031,34.12753],[-118.14719,34.12752],[-118.14729,34.1358],[-118.13228,34.13588],[-118.13227,34.15213],[-118.13249,34.16337],[-118.1319,34.17694],[-118.14571,34.18319],[-118.1471,34.18337],[-118.15083,34.18324],[-118.15082,34.1828]],"type":"LineString"},"properties":{"color":"#002855","color_name":"black","kind":"route","label":"20cc","long":"Counterclockwise Fair Oaks - Lake","route_id":"20cc","text_color":"#FFFFFF","type_label":"Bus"},"type":"Feature"},{"geometry":{"coordinates":[[-118.15082,34.18269],[-118.15082,34.18313],[-118.14669,34.18325],[-118.14577,34.18309],[-118.1319,34.17694],[-118.13249,34.16337],[-118.13228,34.13588],[-118.14743,34.1358],[-118.14733,34.12752],[-118.15031,34.12753],[-118.15043,34.14062],[-118.14883,34.14057],[-118.14892,34.14948],[-118.14598,34.14953],[-118.14602,34.15785],[-118.15058,34.15779],[-118.15082,34.18289]],"type":"LineString"},"properties":{"color":"#002855","color_name":"black","kind":"route","label":"20cw","long":"Clockwise Lake - Fair Oaks","route_id":"20cw","text_color":"#FFFFFF","type_label":"Bus"},"type":"Feature"},{"geometry":{"coordinates":[[-118.07963,34.14866],[-118.08225,34.1487],[-118.0825,34.14918],[-118.08249,34.15008],[-118.0986,34.14982],[-118.09841,34.15312],[-118.09855,34.15442],[-118.0983,34.1691],[-118.15475,34.16882],[-118.15686,34.16943],[-118.15958,34.16982],[-118.1597,34.1829],[-118.15634,34.18272],[-118.15402,34.18303],[-118.15082,34.18313],[-118.15082,34.1828]],"type":"LineString"},"properties":{"color":"#215732","color_name":"green","kind":"route","label":"31","long":"NW Pasadena - Foothill Blvd - SMV Station","route_id":"31","text_color":"#FFFFFF","type_label":"Bus"},"type":"Feature"},{"geometry":{"coordinates":[[-118.07963,34.14866],[-118.08225,34.1487],[-118.0825,34.14918],[-118.08123,34.16045],[-118.08133,34.16219],[-118.08335,34.16441],[-118.08799,34.16824],[-118.08917,34.1702],[-118.08985,34.17096],[-118.09101,34.17179],[-118.09354,34.17283],[-118.0955,34.1742],[-118.09663,34.17449],[-118.09818,34.17458],[-118.0983,34.16913],[-118.15533,34.16888],[-118.15686,34.16943],[-118.15958,34.16982],[-118.1597,34.1829],[-118.15634,34.18272],[-118.15402,34.18303],[-118.15082,34.18313],[-118.15082,34.1828]],"type":"LineString"},"properties":{"color":"#009639","color_name":"green","kind":"route","label":"32","long":"NW Pasadena - New York - SMV Station","route_id":"32","text_color":"#FFFFFF","type_label":"Bus"},"type":"Feature"},{"geometry":{"coordinates":[[-118.07963,34.14865],[-118.08229,34.14878],[-118.08244,34.14943],[-118.08252,34.15007],[-118.07965,34.15011],[-118.07966,34.15371],[-118.07928,34.15432],[-118.07846,34.15489],[-118.07988,34.15666],[-118.08108,34.1578],[-118.0842,34.15791],[-118.08759,34.15852],[-118.09846,34.15829],[-118.09829,34.16912],[-118.15445,34.16882],[-118.15554,34.16893],[-118.15678,34.1694],[-118.15955,34.16981],[-118.15953,34.16464],[-118.1604,34.16312],[-118.16046,34.16267],[-118.15471,34.15573],[-118.15122,34.15772],[-118.14605,34.15784],[-118.14598,34.14952],[-118.14891,34.1495],[-118.14888,34.14579],[-118.16068,34.14573],[-118.16202,34.14591],[-118.16406,34.14467],[-118.16506,34.1445],[-118.16755,34.14454],[-118.1702,34.14283],[-118.17275,34.14225],[-118.1758,34.14113],[-118.17764,34.14092],[-118.17811,34.1396],[-118.17714,34.1382],[-118.17696,34.13717],[-118.17625,34.13602],[-118.17613,34.13521],[-118.17733,34.12946],[-118.17645,34.12732],[-118.17704,34.12227],[-118.17729,34.12162],[-118.18145,34.11442],[-118.18434,34.1155],[-118.18844,34.11173],[-118.19283,34.10957],[-118.19346,34.1104]],"type":"LineString"},"properties":{"color":"#6B6F2A","color_name":"brown","kind":"route","label":"33","long":"Highland Park - SMV Station","route_id":"33","text_color":"#FFFFFF","type_label":"Bus"},"type":"Feature"},{"geometry":{"coordinates":[[-118.14811,34.1445],[-118.14596,34.1445],[-118.14598,34.14953],[-118.14148,34.14953],[-118.1415,34.1542],[-118.11733,34.15436],[-118.1173,34.15181],[-118.11317,34.15186],[-118.11318,34.15789],[-118.10852,34.15795],[-118.10719,34.15825],[-118.08734,34.15853],[-118.08398,34.15789],[-118.08115,34.15784],[-118.07985,34.15673],[-118.07694,34.15289],[-118.07598,34.15233],[-118.07454,34.15197],[-118.07395,34.1516],[-118.07353,34.15097],[-118.07341,34.15022],[-118.07964,34.15012],[-118.07961,34.14866],[-118.08151,34.14864]],"type":"LineString"},"properties":{"color":"#DC4405","color_name":"red","kind":"route","label":"40","long":"Old Pasadena - SMV Station","route_id":"40","text_color":"#FFFFFF","type_label":"Bus"},"type":"Feature"},{"geometry":{"coordinates":[[-118.14743,34.13567],[-118.14735,34.12754],[-118.14874,34.12763],[-118.14892,34.14948],[-118.15052,34.1496],[-118.15061,34.16146],[-118.1521,34.16149],[-118.15485,34.16118],[-118.15673,34.16204],[-118.16005,34.16213],[-118.16053,34.16168],[-118.16167,34.1594],[-118.16335,34.15798],[-118.1658,34.15674],[-118.16812,34.15609],[-118.16854,34.15582],[-118.16871,34.1553],[-118.168,34.15433],[-118.16788,34.15378],[-118.168,34.15336],[-118.16834,34.15317],[-118.17107,34.155],[-118.17206,34.15676],[-118.17246,34.15821],[-118.17354,34.16006],[-118.17663,34.16719],[-118.17675,34.17146],[-118.18199,34.1714],[-118.1855,34.17316],[-118.18756,34.17246],[-118.18786,34.17215],[-118.18785,34.17185],[-118.18692,34.17085],[-118.18636,34.17099],[-118.18533,34.17083],[-118.18451,34.16966],[-118.18466,34.16931],[-118.18563,34.16896],[-118.18509,34.16726],[-118.18484,34.16723],[-118.18478,34.16593],[-118.184,34.16603],[-118.18407,34.16742],[-118.18483,34.16723]],"type":"LineString"},"properties":{"color":"#005EB8","color_name":"teal","kind":"route","label":"51","long":"So. Raymond - Linda Vista - Art Center","route_id":"51","text_color":"#FFFFFF","type_label":"Bus"},"type":"Feature"},{"geometry":{"coordinates":[[-118.14891,34.14774],[-118.14892,34.14948],[-118.15052,34.1496],[-118.15061,34.16146],[-118.1521,34.16149],[-118.15485,34.16118],[-118.15673,34.16204],[-118.16005,34.16213],[-118.16053,34.16168],[-118.16182,34.15922],[-118.16351,34.15788],[-118.16417,34.15769],[-118.1658,34.15674],[-118.16746,34.15624],[-118.16624,34.15638]],"type":"LineString"},"properties":{"color":"#005EB8","color_name":"teal","kind":"route","label":"51s","long":"Route 51 Saturday & Sunday","route_id":"51s","text_color":"#FFFFFF","type_label":"Bus"},"type":"Feature"},{"geometry":{"coordinates":[[-118.14874,34.12763],[-118.14892,34.14948],[-118.15052,34.1496],[-118.15061,34.16146],[-118.1521,34.16149],[-118.15485,34.16118],[-118.15673,34.16204],[-118.16005,34.16213],[-118.16053,34.16168],[-118.16167,34.1594],[-118.16335,34.15798],[-118.1658,34.15674],[-118.16812,34.15609],[-118.16854,34.15582],[-118.16871,34.1553],[-118.168,34.15433],[-118.16788,34.15378],[-118.168,34.15336],[-118.16834,34.15317],[-118.17107,34.155],[-118.17139,34.15541],[-118.17206,34.15676],[-118.17246,34.15821],[-118.17354,34.16006],[-118.17663,34.16719],[-118.17681,34.17566],[-118.17646,34.17605],[-118.17519,34.17644],[-118.174,34.17791],[-118.17398,34.1787],[-118.17473,34.18025],[-118.17404,34.1826],[-118.17452,34.18319],[-118.17649,34.18407],[-118.17575,34.18513],[-118.17732,34.18577],[-118.17824,34.18646],[-118.17875,34.18715],[-118.17888,34.1879],[-118.17834,34.18945],[-118.17823,34.19325],[-118.17755,34.19469],[-118.17497,34.19818],[-118.17527,34.19824],[-118.17589,34.19679],[-118.17755,34.19469],[-118.17823,34.19325],[-118.17834,34.18945],[-118.1788,34.18834],[-118.17887,34.18761],[-118.17853,34.18679],[-118.17766,34.18598],[-118.17575,34.18513],[-118.17649,34.18407],[-118.17452,34.18319],[-118.17411,34.18277],[-118.17404,34.18228],[-118.17473,34.18025],[-118.17398,34.1787],[-118.174,34.17791],[-118.17519,34.17644],[-118.17646,34.17605],[-118.17678,34.17576],[-118.17675,34.17146],[-118.18199,34.1714],[-118.1855,34.17316],[-118.18776,34.17231],[-118.1878,34.17176],[-118.18692,34.17085],[-118.18636,34.17099],[-118.18533,34.17083],[-118.18451,34.16966],[-118.18466,34.16931],[-118.18563,34.16896],[-118.18509,34.16726],[-118.18484,34.16723],[-118.18478,34.16593],[-118.184,34.16603],[-118.18407,34.16742],[-118.18483,34.16723]],"type":"LineString"},"properties":{"color":"#418FDE","color_name":"teal","kind":"route","label":"52","long":"So. Raymond - Linda Vista - JPL","route_id":"52","text_color":"#FFFFFF","type_label":"Bus"},"type":"Feature"},{"geometry":{"coordinates":[[-118.17538,34.1978],[-118.1751,34.1981],[-118.17533,34.19818],[-118.17608,34.19652],[-118.17709,34.19535],[-118.1778,34.19417],[-118.18609,34.19801],[-118.18594,34.19763],[-118.18525,34.19678],[-118.18385,34.19565],[-118.18224,34.19369],[-118.18155,34.19224],[-118.18095,34.1898],[-118.18036,34.18832],[-118.17954,34.18711],[-118.17826,34.1858],[-118.17634,34.18447],[-118.17258,34.18276],[-118.1666,34.17933],[-118.16071,34.17509],[-118.15932,34.17369],[-118.15832,34.17185],[-118.15793,34.16997],[-118.15826,34.16568],[-118.15874,34.16396],[-118.15896,34.16218],[-118.15664,34.16201],[-118.15477,34.16116],[-118.15061,34.16148],[-118.15053,34.14963],[-118.14891,34.1495],[-118.14883,34.14058],[-118.14473,34.14037],[-118.13436,34.14039],[-118.13232,34.14066],[-118.13228,34.13587],[-118.128,34.13589],[-118.12803,34.14075]],"type":"LineString"},"properties":{"color":"#936DB7","color_name":"purple","kind":"route","label":"53","long":"Caltech - JPL","route_id":"53","text_color":"#FFFFFF","type_label":"Bus"},"type":"Feature"},{"geometry":{"coordinates":[[-118.06864,34.16195],[-118.0727,34.16189],[-118.07277,34.15985],[-118.07324,34.15868],[-118.07256,34.15614],[-118.07247,34.15486],[-118.07289,34.15349],[-118.07395,34.1516],[-118.07353,34.15097],[-118.07341,34.15022],[-118.07964,34.15012],[-118.07961,34.14866],[-118.08225,34.1487],[-118.0825,34.14918],[-118.08249,34.15008],[-118.08626,34.15002],[-118.08627,34.14904],[-118.08695,34.14806],[-118.08694,34.14621],[-118.08161,34.14622],[-118.08156,34.14223],[-118.1156,34.14193],[-118.11571,34.14534]],"type":"LineString"},"properties":{"color":"#C5299B","color_name":"pink","kind":"route","label":"60","long":"PCC - SMV Station - Michillinda","route_id":"60","text_color":"#FFFFFF","type_label":"Bus"},"type":"Feature"},{"geometry":{"coordinates":[-118.08186,34.14613],"type":"Point"},"properties":{"kind":"stop","name":"Colorado Blvd & Madre St","stop_id":"1"},"type":"Feature"},{"geometry":{"coordinates":[-118.10984,34.14205],"type":"Point"},"properties":{"kind":"stop","name":"Del Mar Blvd & Berkeley Ave","stop_id":"100"},"type":"Feature"},{"geometry":{"coordinates":[-118.10916,34.1419],"type":"Point"},"properties":{"kind":"stop","name":"Del Mar Blvd & Berkeley Ave","stop_id":"101"},"type":"Feature"},{"geometry":{"coordinates":[-118.11307,34.14243],"type":"Point"},"properties":{"kind":"stop","name":"Allen Ave & Del Mar Blvd","stop_id":"102"},"type":"Feature"},{"geometry":{"coordinates":[-118.1135,34.14205],"type":"Point"},"properties":{"kind":"stop","name":"Del Mar Blvd & Allen Ave","stop_id":"103"},"type":"Feature"},{"geometry":{"coordinates":[-118.11279,34.1419],"type":"Point"},"properties":{"kind":"stop","name":"Del Mar Blvd & Allen Ave","stop_id":"104"},"type":"Feature"},{"geometry":{"coordinates":[-118.11574,34.14184],"type":"Point"},"properties":{"kind":"stop","name":"Del Mar Blvd & Bonnie Ave","stop_id":"105"},"type":"Feature"},{"geometry":{"coordinates":[-118.11533,34.14202],"type":"Point"},"properties":{"kind":"stop","name":"Del Mar Blvd & Bonnie Ave","stop_id":"106"},"type":"Feature"},{"geometry":{"coordinates":[-118.11777,34.14199],"type":"Point"},"properties":{"kind":"stop","name":"Del Mar Blvd & Sierra Bonita Ave","stop_id":"108"},"type":"Feature"},{"geometry":{"coordinates":[-118.12174,34.14182],"type":"Point"},"properties":{"kind":"stop","name":"Del Mar Blvd & Hill Ave","stop_id":"109"},"type":"Feature"},{"geometry":{"coordinates":[-118.12151,34.14171],"type":"Point"},"properties":{"kind":"stop","name":"Del Mar Blvd & Hill Ave","stop_id":"111"},"type":"Feature"},{"geometry":{"coordinates":[-118.12416,34.14099],"type":"Point"},"properties":{"kind":"stop","name":"Del Mar Blvd & Chester Ave","stop_id":"112"},"type":"Feature"},{"geometry":{"coordinates":[-118.1248,34.14105],"type":"Point"},"properties":{"kind":"stop","name":"Del Mar Blvd & Chester Ave","stop_id":"113"},"type":"Feature"},{"geometry":{"coordinates":[-118.12772,34.14105],"type":"Point"},"properties":{"kind":"stop","name":"Del Mar Blvd & Wilson Ave","stop_id":"114"},"type":"Feature"},{"geometry":{"coordinates":[-118.12767,34.14087],"type":"Point"},"properties":{"kind":"stop","name":"Del Mar Blvd & Wilson Ave","stop_id":"115"},"type":"Feature"},{"geometry":{"coordinates":[-118.13072,34.14101],"type":"Point"},"properties":{"kind":"stop","name":"Del Mar Blvd & Mentor Ave","stop_id":"116"},"type":"Feature"},{"geometry":{"coordinates":[-118.13049,34.14084],"type":"Point"},"properties":{"kind":"stop","name":"Del Mar Blvd & Mentor Ave","stop_id":"117"},"type":"Feature"},{"geometry":{"coordinates":[-118.13397,34.14033],"type":"Point"},"properties":{"kind":"stop","name":"Del Mar Blvd & Hudson Ave","stop_id":"118"},"type":"Feature"},{"geometry":{"coordinates":[-118.13243,34.14018],"type":"Point"},"properties":{"kind":"stop","name":"Lake Ave & Del Mar Blvd","stop_id":"119"},"type":"Feature"},{"geometry":{"coordinates":[-118.13195,34.14068],"type":"Point"},"properties":{"kind":"stop","name":"Del Mar Blvd & Lake Ave","stop_id":"120"},"type":"Feature"},{"geometry":{"coordinates":[-118.13221,34.14117],"type":"Point"},"properties":{"kind":"stop","name":"Lake Ave & Del Mar Blvd","stop_id":"121"},"type":"Feature"},{"geometry":{"coordinates":[-118.13222,34.14287],"type":"Point"},"properties":{"kind":"stop","name":"Lake Ave & Cordova St","stop_id":"122"},"type":"Feature"},{"geometry":{"coordinates":[-118.13272,34.14068],"type":"Point"},"properties":{"kind":"stop","name":"Del Mar Blvd & Lake Ave","stop_id":"127"},"type":"Feature"},{"geometry":{"coordinates":[-118.13413,34.14051],"type":"Point"},"properties":{"kind":"stop","name":"Del Mar Blvd & Hudson Ave","stop_id":"128"},"type":"Feature"},{"geometry":{"coordinates":[-118.13644,34.14032],"type":"Point"},"properties":{"kind":"stop","name":"Del Mar Blvd & El Molino Ave","stop_id":"129"},"type":"Feature"},{"geometry":{"coordinates":[-118.14098,34.14031],"type":"Point"},"properties":{"kind":"stop","name":"Del Mar Blvd & Los Robles Ave","stop_id":"131"},"type":"Feature"},{"geometry":{"coordinates":[-118.15959,34.18253],"type":"Point"},"properties":{"kind":"stop","name":"Lincoln Ave & Woodbury Rd","stop_id":"134"},"type":"Feature"},{"geometry":{"coordinates":[-118.15959,34.18109],"type":"Point"},"properties":{"kind":"stop","name":"Lincoln Ave & Montana St","stop_id":"136"},"type":"Feature"},{"geometry":{"coordinates":[-118.15957,34.17921],"type":"Point"},"properties":{"kind":"stop","name":"Lincoln Ave & Wyoming St","stop_id":"137"},"type":"Feature"},{"geometry":{"coordinates":[-118.15955,34.17685],"type":"Point"},"properties":{"kind":"stop","name":"Lincoln Ave & Idaho St","stop_id":"140"},"type":"Feature"},{"geometry":{"coordinates":[-118.1595,34.17341],"type":"Point"},"properties":{"kind":"stop","name":"Lincoln Ave & Howard St","stop_id":"142"},"type":"Feature"},{"geometry":{"coordinates":[-118.15967,34.16948],"type":"Point"},"properties":{"kind":"stop","name":"Lincoln Ave & Washington Blvd","stop_id":"143"},"type":"Feature"},{"geometry":{"coordinates":[-118.15912,34.16965],"type":"Point"},"properties":{"kind":"stop","name":"Washington Blvd & Lincoln Ave","stop_id":"144"},"type":"Feature"},{"geometry":{"coordinates":[-118.15949,34.1707],"type":"Point"},"properties":{"kind":"stop","name":"Lincoln Ave & Washington Blvd","stop_id":"145"},"type":"Feature"},{"geometry":{"coordinates":[-118.15464,34.1829],"type":"Point"},"properties":{"kind":"stop","name":"Woodbury Rd & Glenrose Ave","stop_id":"146"},"type":"Feature"},{"geometry":{"coordinates":[-118.15094,34.1828],"type":"Point"},"properties":{"kind":"stop","name":"Fair Oaks Ave & Woodbury Rd","stop_id":"147"},"type":"Feature"},{"geometry":{"coordinates":[-118.15067,34.18289],"type":"Point"},"properties":{"kind":"stop","name":"Fair Oaks Ave & Woodbury Rd","stop_id":"148"},"type":"Feature"},{"geometry":{"coordinates":[-118.15088,34.18061],"type":"Point"},"properties":{"kind":"stop","name":"Fair Oaks Ave & Montana St","stop_id":"149"},"type":"Feature"},{"geometry":{"coordinates":[-118.15069,34.18111],"type":"Point"},"properties":{"kind":"stop","name":"Fair Oaks Ave & Montana St","stop_id":"150"},"type":"Feature"},{"geometry":{"coordinates":[-118.15067,34.17818],"type":"Point"},"properties":{"kind":"stop","name":"Fair Oaks Ave & Tremont St","stop_id":"151"},"type":"Feature"},{"geometry":{"coordinates":[-118.15085,34.17774],"type":"Point"},"properties":{"kind":"stop","name":"Fair Oaks Ave & Tremont St","stop_id":"152"},"type":"Feature"},{"geometry":{"coordinates":[-118.15065,34.17476],"type":"Point"},"properties":{"kind":"stop","name":"Fair Oaks Ave & Penn St","stop_id":"153"},"type":"Feature"},{"geometry":{"coordinates":[-118.15081,34.17422],"type":"Point"},"properties":{"kind":"stop","name":"Fair Oaks Ave & Penn St","stop_id":"154"},"type":"Feature"},{"geometry":{"coordinates":[-118.15063,34.17273],"type":"Point"},"properties":{"kind":"stop","name":"Fair Oaks Ave & Howard St","stop_id":"155"},"type":"Feature"},{"geometry":{"coordinates":[-118.1508,34.17216],"type":"Point"},"properties":{"kind":"stop","name":"Fair Oaks Ave & Howard St","stop_id":"156"},"type":"Feature"},{"geometry":{"coordinates":[-118.1506,34.16917],"type":"Point"},"properties":{"kind":"stop","name":"Fair Oaks Ave & Washington Blvd","stop_id":"157"},"type":"Feature"},{"geometry":{"coordinates":[-118.15078,34.16846],"type":"Point"},"properties":{"kind":"stop","name":"Fair Oaks Ave & Washington Blvd","stop_id":"158"},"type":"Feature"},{"geometry":{"coordinates":[-118.15397,34.1689],"type":"Point"},"properties":{"kind":"stop","name":"Washington Blvd & Navarro Ave","stop_id":"159"},"type":"Feature"},{"geometry":{"coordinates":[-118.15355,34.16875],"type":"Point"},"properties":{"kind":"stop","name":"Washington Blvd & Navarro Ave","stop_id":"160"},"type":"Feature"},{"geometry":{"coordinates":[-118.15124,34.16892],"type":"Point"},"properties":{"kind":"stop","name":"Washington Blvd & Fair Oaks Ave","stop_id":"162"},"type":"Feature"},{"geometry":{"coordinates":[-118.1499,34.16877],"type":"Point"},"properties":{"kind":"stop","name":"Washington Blvd & Fair Oaks Ave","stop_id":"163"},"type":"Feature"},{"geometry":{"coordinates":[-118.14642,34.16895],"type":"Point"},"properties":{"kind":"stop","name":"Washington Blvd & Marengo Ave","stop_id":"164"},"type":"Feature"},{"geometry":{"coordinates":[-118.14581,34.1688],"type":"Point"},"properties":{"kind":"stop","name":"Washington Blvd &  Marengo Ave","stop_id":"165"},"type":"Feature"},{"geometry":{"coordinates":[-118.14191,34.16903],"type":"Point"},"properties":{"kind":"stop","name":"Washington Blvd & Los Robles Ave","stop_id":"167"},"type":"Feature"},{"geometry":{"coordinates":[-118.14119,34.16886],"type":"Point"},"properties":{"kind":"stop","name":"Washington Blvd & Los Robles Ave","stop_id":"169"},"type":"Feature"},{"geometry":{"coordinates":[-118.11323,34.14546],"type":"Point"},"properties":{"kind":"stop","name":"Allen Ave & Colorado Blvd","stop_id":"18"},"type":"Feature"},{"geometry":{"coordinates":[-118.14256,34.18187],"type":"Point"},"properties":{"kind":"stop","name":"Woodbury Rd & Santa Anita Ave","stop_id":"182"},"type":"Feature"},{"geometry":{"coordinates":[-118.14541,34.18314],"type":"Point"},"properties":{"kind":"stop","name":"Woodbury Rd & Marengo Ave","stop_id":"183"},"type":"Feature"},{"geometry":{"coordinates":[-118.1491,34.18335],"type":"Point"},"properties":{"kind":"stop","name":"Woodbury Rd & Raymond Ave","stop_id":"184"},"type":"Feature"},{"geometry":{"coordinates":[-118.14607,34.18311],"type":"Point"},"properties":{"kind":"stop","name":"Woodbury Rd & Marengo Ave","stop_id":"185"},"type":"Feature"},{"geometry":{"coordinates":[-118.14125,34.181],"type":"Point"},"properties":{"kind":"stop","name":"Woodbury Rd & Los Robles Ave","stop_id":"186"},"type":"Feature"},{"geometry":{"coordinates":[-118.13732,34.17943],"type":"Point"},"properties":{"kind":"stop","name":"Woodbury Rd & El Molino Ave","stop_id":"187"},"type":"Feature"},{"geometry":{"coordinates":[-118.13669,34.17904],"type":"Point"},"properties":{"kind":"stop","name":"Woodbury Rd & El Molino Ave","stop_id":"188"},"type":"Feature"},{"geometry":{"coordinates":[-118.13296,34.17747],"type":"Point"},"properties":{"kind":"stop","name":"Woodbury Rd & Lake Ave","stop_id":"189"},"type":"Feature"},{"geometry":{"coordinates":[-118.1153,34.14591],"type":"Point"},"properties":{"kind":"stop","name":"Colorado Blvd & Bonnie Ave","stop_id":"19"},"type":"Feature"},{"geometry":{"coordinates":[-118.13202,34.17677],"type":"Point"},"properties":{"kind":"stop","name":"Lake Ave & Woodbury Rd","stop_id":"190"},"type":"Feature"},{"geometry":{"coordinates":[-118.13194,34.17357],"type":"Point"},"properties":{"kind":"stop","name":"Lake Ave & Elizabeth St","stop_id":"193"},"type":"Feature"},{"geometry":{"coordinates":[-118.13217,34.17332],"type":"Point"},"properties":{"kind":"stop","name":"Lake Ave & Elizabeth St","stop_id":"194"},"type":"Feature"},{"geometry":{"coordinates":[-118.132,34.17231],"type":"Point"},"properties":{"kind":"stop","name":"Lake Ave & Howard St","stop_id":"195"},"type":"Feature"},{"geometry":{"coordinates":[-118.13223,34.17194],"type":"Point"},"properties":{"kind":"stop","name":"Lake Ave & Howard St","stop_id":"196"},"type":"Feature"},{"geometry":{"coordinates":[-118.13206,34.17091],"type":"Point"},"properties":{"kind":"stop","name":"Lake Ave & Rio Grande St","stop_id":"197"},"type":"Feature"},{"geometry":{"coordinates":[-118.13231,34.17034],"type":"Point"},"properties":{"kind":"stop","name":"Lake Ave & Rio Grande St","stop_id":"198"},"type":"Feature"},{"geometry":{"coordinates":[-118.13211,34.16932],"type":"Point"},"properties":{"kind":"stop","name":"Lake Ave & Washington Blvd","stop_id":"199"},"type":"Feature"},{"geometry":{"coordinates":[-118.13187,34.16907],"type":"Point"},"properties":{"kind":"stop","name":"Washington Blvd & Lake Ave","stop_id":"200"},"type":"Feature"},{"geometry":{"coordinates":[-118.13178,34.16891],"type":"Point"},"properties":{"kind":"stop","name":"Washington Blvd & Lake Ave","stop_id":"201"},"type":"Feature"},{"geometry":{"coordinates":[-118.13239,34.16846],"type":"Point"},"properties":{"kind":"stop","name":"Lake Ave & Washington Blvd","stop_id":"202"},"type":"Feature"},{"geometry":{"coordinates":[-118.13335,34.16887],"type":"Point"},"properties":{"kind":"stop","name":"Washington Blvd & Hudson St","stop_id":"203"},"type":"Feature"},{"geometry":{"coordinates":[-118.13387,34.16905],"type":"Point"},"properties":{"kind":"stop","name":"Washington Blvd & Hudson Ave","stop_id":"204"},"type":"Feature"},{"geometry":{"coordinates":[-118.13698,34.16902],"type":"Point"},"properties":{"kind":"stop","name":"Washington Blvd & El Molino Ave","stop_id":"205"},"type":"Feature"},{"geometry":{"coordinates":[-118.13682,34.16888],"type":"Point"},"properties":{"kind":"stop","name":"Washington Blvd & El Molino Ave","stop_id":"206"},"type":"Feature"},{"geometry":{"coordinates":[-118.13248,34.16668],"type":"Point"},"properties":{"kind":"stop","name":"Lake Ave & Claremont St","stop_id":"207"},"type":"Feature"},{"geometry":{"coordinates":[-118.1326,34.1639],"type":"Point"},"properties":{"kind":"stop","name":"Lake Ave & Belvidere St","stop_id":"208"},"type":"Feature"},{"geometry":{"coordinates":[-118.13263,34.16132],"type":"Point"},"properties":{"kind":"stop","name":"Lake Ave & Mountain St","stop_id":"209"},"type":"Feature"},{"geometry":{"coordinates":[-118.13261,34.15959],"type":"Point"},"properties":{"kind":"stop","name":"Lake Ave & Boylston St","stop_id":"210"},"type":"Feature"},{"geometry":{"coordinates":[-118.1326,34.15746],"type":"Point"},"properties":{"kind":"stop","name":"Lake Ave & Orange Grove Blvd","stop_id":"211"},"type":"Feature"},{"geometry":{"coordinates":[-118.13258,34.15532],"type":"Point"},"properties":{"kind":"stop","name":"Lake Ave & Santa Barbara St","stop_id":"212"},"type":"Feature"},{"geometry":{"coordinates":[-118.13343,34.15433],"type":"Point"},"properties":{"kind":"stop","name":"Villa St & Lake Ave","stop_id":"213"},"type":"Feature"},{"geometry":{"coordinates":[-118.13257,34.15402],"type":"Point"},"properties":{"kind":"stop","name":"Lake Ave & Villa St","stop_id":"214"},"type":"Feature"},{"geometry":{"coordinates":[-118.13254,34.15137],"type":"Point"},"properties":{"kind":"stop","name":"Lake Ave & Corson St","stop_id":"216"},"type":"Feature"},{"geometry":{"coordinates":[-118.13252,34.14906],"type":"Point"},"properties":{"kind":"stop","name":"Lake Ave & Walnut St","stop_id":"217"},"type":"Feature"},{"geometry":{"coordinates":[-118.13229,34.15004],"type":"Point"},"properties":{"kind":"stop","name":"Lake Ave & Walnut St","stop_id":"218"},"type":"Feature"},{"geometry":{"coordinates":[-118.13201,34.15425],"type":"Point"},"properties":{"kind":"stop","name":"Villa St & Lake Ave","stop_id":"220"},"type":"Feature"},{"geometry":{"coordinates":[-118.13215,34.15434],"type":"Point"},"properties":{"kind":"stop","name":"Villa St & Lake Ave","stop_id":"221"},"type":"Feature"},{"geometry":{"coordinates":[-118.13232,34.1546],"type":"Point"},"properties":{"kind":"stop","name":"Lake Ave & Villa St","stop_id":"222"},"type":"Feature"},{"geometry":{"coordinates":[-118.13233,34.15579],"type":"Point"},"properties":{"kind":"stop","name":"Lake Ave & Santa Barbara St","stop_id":"223"},"type":"Feature"},{"geometry":{"coordinates":[-118.13236,34.15814],"type":"Point"},"properties":{"kind":"stop","name":"Lake Ave & Orange Grove Blvd","stop_id":"224"},"type":"Feature"},{"geometry":{"coordinates":[-118.13237,34.15971],"type":"Point"},"properties":{"kind":"stop","name":"Lake Ave & Boylston St","stop_id":"225"},"type":"Feature"},{"geometry":{"coordinates":[-118.13238,34.16132],"type":"Point"},"properties":{"kind":"stop","name":"Lake Ave & Mountain St","stop_id":"226"},"type":"Feature"},{"geometry":{"coordinates":[-118.13235,34.16402],"type":"Point"},"properties":{"kind":"stop","name":"Lake Ave & Belvidere St","stop_id":"227"},"type":"Feature"},{"geometry":{"coordinates":[-118.13222,34.16725],"type":"Point"},"properties":{"kind":"stop","name":"Lake Ave & Claremont St","stop_id":"228"},"type":"Feature"},{"geometry":{"coordinates":[-118.08219,34.15353],"type":"Point"},"properties":{"kind":"stop","name":"Sierra Madre Villa Ave & Alameda St","stop_id":"229"},"type":"Feature"},{"geometry":{"coordinates":[-118.08154,34.15744],"type":"Point"},"properties":{"kind":"stop","name":"Sierra Madre Villa Ave & Rosemead Blvd","stop_id":"230"},"type":"Feature"},{"geometry":{"coordinates":[-118.0816,34.15843],"type":"Point"},"properties":{"kind":"stop","name":"Sierra Madre Villa Ave & Orange Grove Ave","stop_id":"232"},"type":"Feature"},{"geometry":{"coordinates":[-118.08114,34.16022],"type":"Point"},"properties":{"kind":"stop","name":"Sierra Madre Villa Ave & Primavera St","stop_id":"233"},"type":"Feature"},{"geometry":{"coordinates":[-118.08139,34.1602],"type":"Point"},"properties":{"kind":"stop","name":"Sierra Madre Villa Ave & Primavera St","stop_id":"234"},"type":"Feature"},{"geometry":{"coordinates":[-118.0724,34.16153],"type":"Point"},"properties":{"kind":"stop","name":"Sierra Madre Blvd & Hastings Ranch Dr","stop_id":"239"},"type":"Feature"},{"geometry":{"coordinates":[-118.06885,34.162],"type":"Point"},"properties":{"kind":"stop","name":"Sierra Madre Blvd & Michillinda Ave","stop_id":"242"},"type":"Feature"},{"geometry":{"coordinates":[-118.07388,34.15031],"type":"Point"},"properties":{"kind":"stop","name":"Foothill Blvd & Rosemead Blvd","stop_id":"249"},"type":"Feature"},{"geometry":{"coordinates":[-118.07582,34.15027],"type":"Point"},"properties":{"kind":"stop","name":"Foothill Blvd Between Rosemead Blvd & Halstead St","stop_id":"251"},"type":"Feature"},{"geometry":{"coordinates":[-118.07905,34.15004],"type":"Point"},"properties":{"kind":"stop","name":"Foothill Blvd & Halstead St","stop_id":"253"},"type":"Feature"},{"geometry":{"coordinates":[-118.07977,34.15083],"type":"Point"},"properties":{"kind":"stop","name":"Halstead St & Foothill Blvd","stop_id":"254"},"type":"Feature"},{"geometry":{"coordinates":[-118.07869,34.155],"type":"Point"},"properties":{"kind":"stop","name":"Rosemead Blvd & Halstead St","stop_id":"255"},"type":"Feature"},{"geometry":{"coordinates":[-118.07854,34.15519],"type":"Point"},"properties":{"kind":"stop","name":"Rosemead Blvd & Greenhill Rd","stop_id":"256"},"type":"Feature"},{"geometry":{"coordinates":[-118.07779,34.15375],"type":"Point"},"properties":{"kind":"stop","name":"Rosemead Blvd Between Hastings Ranch & Halstead St","stop_id":"257"},"type":"Feature"},{"geometry":{"coordinates":[-118.07421,34.15165],"type":"Point"},"properties":{"kind":"stop","name":"Rosemead Blvd & Hastings Ranch Dr","stop_id":"258"},"type":"Feature"},{"geometry":{"coordinates":[-118.0734,34.15098],"type":"Point"},"properties":{"kind":"stop","name":"Rosemead Blvd & Foothill & Hastings Ranch Dr","stop_id":"259"},"type":"Feature"},{"geometry":{"coordinates":[-118.07349,34.15225],"type":"Point"},"properties":{"kind":"stop","name":"Hastings Ranch Dr & Sears Way","stop_id":"260"},"type":"Feature"},{"geometry":{"coordinates":[-118.07314,34.15323],"type":"Point"},"properties":{"kind":"stop","name":"Hastings Ranch Dr & Hampton Rd","stop_id":"261"},"type":"Feature"},{"geometry":{"coordinates":[-118.07272,34.15373],"type":"Point"},"properties":{"kind":"stop","name":"Hastings Ranch Dr & Hampton Rd","stop_id":"262"},"type":"Feature"},{"geometry":{"coordinates":[-118.07241,34.15538],"type":"Point"},"properties":{"kind":"stop","name":"Hastings Ranch Dr & Fairmeade Rd","stop_id":"263"},"type":"Feature"},{"geometry":{"coordinates":[-118.07255,34.15537],"type":"Point"},"properties":{"kind":"stop","name":"Hastings Ranch Dr & Fairmeade Rd","stop_id":"264"},"type":"Feature"},{"geometry":{"coordinates":[-118.07306,34.15751],"type":"Point"},"properties":{"kind":"stop","name":"Hastings Ranch Dr & Shadow Grove Rd","stop_id":"265"},"type":"Feature"},{"geometry":{"coordinates":[-118.07293,34.15753],"type":"Point"},"properties":{"kind":"stop","name":"Hastings Ranch Dr & Shadow Grove Rd","stop_id":"266"},"type":"Feature"},{"geometry":{"coordinates":[-118.07281,34.1613],"type":"Point"},"properties":{"kind":"stop","name":"Hastings Ranch Dr & Sierra Madre Blvd","stop_id":"267"},"type":"Feature"},{"geometry":{"coordinates":[-118.08169,34.16244],"type":"Point"},"properties":{"kind":"stop","name":"New York Dr & Sierra Madre Villa Ave","stop_id":"269"},"type":"Feature"},{"geometry":{"coordinates":[-118.13252,34.14534],"type":"Point"},"properties":{"kind":"stop","name":"Lake Ave & Colorado Blvd","stop_id":"27"},"type":"Feature"},{"geometry":{"coordinates":[-118.08111,34.1621],"type":"Point"},"properties":{"kind":"stop","name":"Sierra Madre Villa Ave & Sierra Madre Blvd","stop_id":"270"},"type":"Feature"},{"geometry":{"coordinates":[-118.08723,34.16775],"type":"Point"},"properties":{"kind":"stop","name":"New York Dr & Bradley St","stop_id":"271"},"type":"Feature"},{"geometry":{"coordinates":[-118.08691,34.16719],"type":"Point"},"properties":{"kind":"stop","name":"New York Dr & Bradley St","stop_id":"272"},"type":"Feature"},{"geometry":{"coordinates":[-118.09238,34.17247],"type":"Point"},"properties":{"kind":"stop","name":"New York Dr & Eaton Canyon Dr","stop_id":"273"},"type":"Feature"},{"geometry":{"coordinates":[-118.0931,34.17249],"type":"Point"},"properties":{"kind":"stop","name":"New York Dr & Eaton Canyon Dr","stop_id":"274"},"type":"Feature"},{"geometry":{"coordinates":[-118.09783,34.17446],"type":"Point"},"properties":{"kind":"stop","name":"New York Dr & Altadena Dr","stop_id":"275"},"type":"Feature"},{"geometry":{"coordinates":[-118.09833,34.17416],"type":"Point"},"properties":{"kind":"stop","name":"Altadena Dr & New York Dr","stop_id":"276"},"type":"Feature"},{"geometry":{"coordinates":[-118.09815,34.17309],"type":"Point"},"properties":{"kind":"stop","name":"Altadena Dr & Crary St","stop_id":"277"},"type":"Feature"},{"geometry":{"coordinates":[-118.09836,34.17273],"type":"Point"},"properties":{"kind":"stop","name":"Altadena Dr & Crary St","stop_id":"278"},"type":"Feature"},{"geometry":{"coordinates":[-118.09819,34.17112],"type":"Point"},"properties":{"kind":"stop","name":"Altadena Dr & Meguiar Dr","stop_id":"279"},"type":"Feature"},{"geometry":{"coordinates":[-118.09838,34.17111],"type":"Point"},"properties":{"kind":"stop","name":"Altadena Dr & Garfias Dr","stop_id":"280"},"type":"Feature"},{"geometry":{"coordinates":[-118.09821,34.1697],"type":"Point"},"properties":{"kind":"stop","name":"Altadena Dr & Washington Blvd","stop_id":"281"},"type":"Feature"},{"geometry":{"coordinates":[-118.09842,34.16863],"type":"Point"},"properties":{"kind":"stop","name":"Altadena Dr & Washington Blvd","stop_id":"282"},"type":"Feature"},{"geometry":{"coordinates":[-118.09845,34.16613],"type":"Point"},"properties":{"kind":"stop","name":"Altadena Dr & Brigden Rd","stop_id":"284"},"type":"Feature"},{"geometry":{"coordinates":[-118.09827,34.16605],"type":"Point"},"properties":{"kind":"stop","name":"Altadena Dr & Brigden Rd","stop_id":"285"},"type":"Feature"},{"geometry":{"coordinates":[-118.09851,34.16279],"type":"Point"},"properties":{"kind":"stop","name":"Altadena Dr & Cooley Pl","stop_id":"286"},"type":"Feature"},{"geometry":{"coordinates":[-118.09832,34.16284],"type":"Point"},"properties":{"kind":"stop","name":"Altadena Dr & Cooley Pl","stop_id":"287"},"type":"Feature"},{"geometry":{"coordinates":[-118.09856,34.1595],"type":"Point"},"properties":{"kind":"stop","name":"Altadena Dr & Paloma St","stop_id":"288"},"type":"Feature"},{"geometry":{"coordinates":[-118.09837,34.15967],"type":"Point"},"properties":{"kind":"stop","name":"Altadena Dr & Paloma St","stop_id":"289"},"type":"Feature"},{"geometry":{"coordinates":[-118.13486,34.14579],"type":"Point"},"properties":{"kind":"stop","name":"Colorado Blvd & Oak Knoll Ave","stop_id":"29"},"type":"Feature"},{"geometry":{"coordinates":[-118.0986,34.15794],"type":"Point"},"properties":{"kind":"stop","name":"Altadena Dr & Orange Grove Blvd","stop_id":"290"},"type":"Feature"},{"geometry":{"coordinates":[-118.09832,34.15839],"type":"Point"},"properties":{"kind":"stop","name":"Orange Grove Blvd & Altadena Dr","stop_id":"291"},"type":"Feature"},{"geometry":{"coordinates":[-118.09803,34.15819],"type":"Point"},"properties":{"kind":"stop","name":"Orange Grove Blvd & Altadena Dr","stop_id":"292"},"type":"Feature"},{"geometry":{"coordinates":[-118.09457,34.15848],"type":"Point"},"properties":{"kind":"stop","name":"Orange Grove Blvd & Sierra Madre Blvd","stop_id":"293"},"type":"Feature"},{"geometry":{"coordinates":[-118.0944,34.15829],"type":"Point"},"properties":{"kind":"stop","name":"Orange Grove Blvd & Sierra Madre Blvd","stop_id":"294"},"type":"Feature"},{"geometry":{"coordinates":[-118.08149,34.14661],"type":"Point"},"properties":{"kind":"stop","name":"Sierra Madre Villa Ave & Colorado Blvd","stop_id":"3"},"type":"Feature"},{"geometry":{"coordinates":[-118.08908,34.15858],"type":"Point"},"properties":{"kind":"stop","name":"Orange Grove Blvd & Sunny Slope Ave","stop_id":"301"},"type":"Feature"},{"geometry":{"coordinates":[-118.08891,34.15843],"type":"Point"},"properties":{"kind":"stop","name":"Orange Grove Blvd & Sunny Slope Ave","stop_id":"302"},"type":"Feature"},{"geometry":{"coordinates":[-118.09827,34.14973],"type":"Point"},"properties":{"kind":"stop","name":"Foothill Blvd & Altadena Dr","stop_id":"305"},"type":"Feature"},{"geometry":{"coordinates":[-118.09826,34.14991],"type":"Point"},"properties":{"kind":"stop","name":"Foothill Blvd & Altadena Dr","stop_id":"306"},"type":"Feature"},{"geometry":{"coordinates":[-118.09837,34.15167],"type":"Point"},"properties":{"kind":"stop","name":"Altadena Dr & Corson St","stop_id":"307"},"type":"Feature"},{"geometry":{"coordinates":[-118.09869,34.15405],"type":"Point"},"properties":{"kind":"stop","name":"Altadena Dr & Villa St","stop_id":"309"},"type":"Feature"},{"geometry":{"coordinates":[-118.09845,34.1548],"type":"Point"},"properties":{"kind":"stop","name":"Altadena Dr & Villa St","stop_id":"310"},"type":"Feature"},{"geometry":{"coordinates":[-118.09863,34.15601],"type":"Point"},"properties":{"kind":"stop","name":"Altadena Dr & Las Lunas St","stop_id":"311"},"type":"Feature"},{"geometry":{"coordinates":[-118.09843,34.15639],"type":"Point"},"properties":{"kind":"stop","name":"Altadena Dr & Las Lunas St","stop_id":"312"},"type":"Feature"},{"geometry":{"coordinates":[-118.09463,34.14997],"type":"Point"},"properties":{"kind":"stop","name":"Foothill Blvd & San Gabriel Blvd","stop_id":"314"},"type":"Feature"},{"geometry":{"coordinates":[-118.09368,34.1498],"type":"Point"},"properties":{"kind":"stop","name":"Foothill Blvd & San Gabriel Blvd","stop_id":"315"},"type":"Feature"},{"geometry":{"coordinates":[-118.0909,34.15003],"type":"Point"},"properties":{"kind":"stop","name":"Foothill Blvd & Sunny Slope Ave","stop_id":"319"},"type":"Feature"},{"geometry":{"coordinates":[-118.09016,34.14987],"type":"Point"},"properties":{"kind":"stop","name":"Foothill Blvd & Sunny Slope Ave","stop_id":"320"},"type":"Feature"},{"geometry":{"coordinates":[-118.14109,34.14575],"type":"Point"},"properties":{"kind":"stop","name":"Colorado Blvd & Los Robles Ave","stop_id":"33"},"type":"Feature"},{"geometry":{"coordinates":[-118.12932,34.16893],"type":"Point"},"properties":{"kind":"stop","name":"Washington Blvd & Catalina Ave","stop_id":"341"},"type":"Feature"},{"geometry":{"coordinates":[-118.12666,34.16895],"type":"Point"},"properties":{"kind":"stop","name":"Washington Blvd & Mar Vista Ave","stop_id":"342"},"type":"Feature"},{"geometry":{"coordinates":[-118.12416,34.16898],"type":"Point"},"properties":{"kind":"stop","name":"Washington Blvd & Chester Ave","stop_id":"343"},"type":"Feature"},{"geometry":{"coordinates":[-118.12169,34.169],"type":"Point"},"properties":{"kind":"stop","name":"Washington Blvd & Hill Ave","stop_id":"344"},"type":"Feature"},{"geometry":{"coordinates":[-118.11933,34.16902],"type":"Point"},"properties":{"kind":"stop","name":"Washington Blvd & Bresee Ave","stop_id":"346"},"type":"Feature"},{"geometry":{"coordinates":[-118.11503,34.16905],"type":"Point"},"properties":{"kind":"stop","name":"Washington Blvd & Sinaloa Ave","stop_id":"347"},"type":"Feature"},{"geometry":{"coordinates":[-118.11265,34.16906],"type":"Point"},"properties":{"kind":"stop","name":"Washington Blvd & Allen Ave","stop_id":"349"},"type":"Feature"},{"geometry":{"coordinates":[-118.14372,34.14574],"type":"Point"},"properties":{"kind":"stop","name":"Colorado Blvd & Garfield Ave","stop_id":"35"},"type":"Feature"},{"geometry":{"coordinates":[-118.11339,34.16923],"type":"Point"},"properties":{"kind":"stop","name":"Washington Blvd & Allen Ave","stop_id":"351"},"type":"Feature"},{"geometry":{"coordinates":[-118.11528,34.16919],"type":"Point"},"properties":{"kind":"stop","name":"Washington Blvd & Sinaloa Ave","stop_id":"352"},"type":"Feature"},{"geometry":{"coordinates":[-118.11859,34.16916],"type":"Point"},"properties":{"kind":"stop","name":"Washington Blvd & Bresee Ave","stop_id":"353"},"type":"Feature"},{"geometry":{"coordinates":[-118.12132,34.16916],"type":"Point"},"properties":{"kind":"stop","name":"Washington Blvd & Hill Ave","stop_id":"354"},"type":"Feature"},{"geometry":{"coordinates":[-118.12485,34.16912],"type":"Point"},"properties":{"kind":"stop","name":"Washington Blvd & Chester Ave","stop_id":"355"},"type":"Feature"},{"geometry":{"coordinates":[-118.12752,34.16909],"type":"Point"},"properties":{"kind":"stop","name":"Washington Blvd & Mar Vista Ave","stop_id":"356"},"type":"Feature"},{"geometry":{"coordinates":[-118.12988,34.16908],"type":"Point"},"properties":{"kind":"stop","name":"Washington Blvd & Catalina Ave","stop_id":"357"},"type":"Feature"},{"geometry":{"coordinates":[-118.10975,34.16905],"type":"Point"},"properties":{"kind":"stop","name":"Washington Blvd & Tierra Alta Dr","stop_id":"358"},"type":"Feature"},{"geometry":{"coordinates":[-118.1094,34.16923],"type":"Point"},"properties":{"kind":"stop","name":"Washington Blvd & Tierra Alta Dr","stop_id":"359"},"type":"Feature"},{"geometry":{"coordinates":[-118.14556,34.14573],"type":"Point"},"properties":{"kind":"stop","name":"Colorado Blvd & Marengo Ave","stop_id":"36"},"type":"Feature"},{"geometry":{"coordinates":[-118.10798,34.16906],"type":"Point"},"properties":{"kind":"stop","name":"Washington Blvd & Pepper Dr","stop_id":"360"},"type":"Feature"},{"geometry":{"coordinates":[-118.10793,34.16923],"type":"Point"},"properties":{"kind":"stop","name":"Washington Blvd & Pepper Dr","stop_id":"361"},"type":"Feature"},{"geometry":{"coordinates":[-118.10578,34.16905],"type":"Point"},"properties":{"kind":"stop","name":"Washington Blvd & Craig Ave","stop_id":"362"},"type":"Feature"},{"geometry":{"coordinates":[-118.10574,34.16923],"type":"Point"},"properties":{"kind":"stop","name":"Washington Blvd & Craig Ave","stop_id":"363"},"type":"Feature"},{"geometry":{"coordinates":[-118.10301,34.16905],"type":"Point"},"properties":{"kind":"stop","name":"Washington Blvd & Martelo Ave","stop_id":"364"},"type":"Feature"},{"geometry":{"coordinates":[-118.103,34.16923],"type":"Point"},"properties":{"kind":"stop","name":"Washington Blvd & Roosevelt Ave","stop_id":"365"},"type":"Feature"},{"geometry":{"coordinates":[-118.10075,34.16906],"type":"Point"},"properties":{"kind":"stop","name":"Washington Blvd & Coolidge Ave","stop_id":"366"},"type":"Feature"},{"geometry":{"coordinates":[-118.10093,34.16922],"type":"Point"},"properties":{"kind":"stop","name":"Washington Blvd & Coolidge Ave","stop_id":"367"},"type":"Feature"},{"geometry":{"coordinates":[-118.10279,34.15817],"type":"Point"},"properties":{"kind":"stop","name":"Orange Grove Blvd & Martelo Ave","stop_id":"368"},"type":"Feature"},{"geometry":{"coordinates":[-118.1035,34.15836],"type":"Point"},"properties":{"kind":"stop","name":"Orange Grove Blvd & Martelo Ave","stop_id":"369"},"type":"Feature"},{"geometry":{"coordinates":[-118.14702,34.1457],"type":"Point"},"properties":{"kind":"stop","name":"Colorado Blvd & Arroyo Pkwy","stop_id":"37"},"type":"Feature"},{"geometry":{"coordinates":[-118.11309,34.1576],"type":"Point"},"properties":{"kind":"stop","name":"Allen Ave & Orange Grove Blvd","stop_id":"371"},"type":"Feature"},{"geometry":{"coordinates":[-118.11329,34.15745],"type":"Point"},"properties":{"kind":"stop","name":"Allen Ave & Orange Grove Blvd","stop_id":"372"},"type":"Feature"},{"geometry":{"coordinates":[-118.14848,34.14571],"type":"Point"},"properties":{"kind":"stop","name":"Colorado Blvd & Raymond Ave","stop_id":"38"},"type":"Feature"},{"geometry":{"coordinates":[-118.1499,34.14569],"type":"Point"},"properties":{"kind":"stop","name":"Colorado Blvd & Fair Oaks Ave","stop_id":"39"},"type":"Feature"},{"geometry":{"coordinates":[-118.11311,34.15622],"type":"Point"},"properties":{"kind":"stop","name":"Allen Ave & Las Lunas St","stop_id":"394"},"type":"Feature"},{"geometry":{"coordinates":[-118.11332,34.15586],"type":"Point"},"properties":{"kind":"stop","name":"Allen Ave & Monte Vista St","stop_id":"395"},"type":"Feature"},{"geometry":{"coordinates":[-118.1136,34.15445],"type":"Point"},"properties":{"kind":"stop","name":"Villa St & Allen Ave","stop_id":"396"},"type":"Feature"},{"geometry":{"coordinates":[-118.11808,34.15442],"type":"Point"},"properties":{"kind":"stop","name":"Villa St & Sierra Bonita Ave","stop_id":"399"},"type":"Feature"},{"geometry":{"coordinates":[-118.08203,34.14999],"type":"Point"},"properties":{"kind":"stop","name":"Foothill Blvd & Sierra Madre Villa Ave","stop_id":"4"},"type":"Feature"},{"geometry":{"coordinates":[-118.15184,34.14565],"type":"Point"},"properties":{"kind":"stop","name":"Colorado Blvd & De Lacey Ave","stop_id":"40"},"type":"Feature"},{"geometry":{"coordinates":[-118.11749,34.15429],"type":"Point"},"properties":{"kind":"stop","name":"Villa St & Sierra Bonita Ave","stop_id":"400"},"type":"Feature"},{"geometry":{"coordinates":[-118.1218,34.15427],"type":"Point"},"properties":{"kind":"stop","name":"Villa St & Hill Ave","stop_id":"401"},"type":"Feature"},{"geometry":{"coordinates":[-118.12177,34.15443],"type":"Point"},"properties":{"kind":"stop","name":"Villa St & Hill Ave","stop_id":"402"},"type":"Feature"},{"geometry":{"coordinates":[-118.1246,34.1544],"type":"Point"},"properties":{"kind":"stop","name":"Villa St & Chester Ave","stop_id":"403"},"type":"Feature"},{"geometry":{"coordinates":[-118.12411,34.15428],"type":"Point"},"properties":{"kind":"stop","name":"Villa St & Chester Ave","stop_id":"404"},"type":"Feature"},{"geometry":{"coordinates":[-118.12785,34.15427],"type":"Point"},"properties":{"kind":"stop","name":"Villa St & Wilson Ave","stop_id":"405"},"type":"Feature"},{"geometry":{"coordinates":[-118.12803,34.15436],"type":"Point"},"properties":{"kind":"stop","name":"Villa St & Wilson Ave","stop_id":"406"},"type":"Feature"},{"geometry":{"coordinates":[-118.13226,34.14819],"type":"Point"},"properties":{"kind":"stop","name":"Lake Ave & Union St","stop_id":"408"},"type":"Feature"},{"geometry":{"coordinates":[-118.1573,34.14566],"type":"Point"},"properties":{"kind":"stop","name":"Colorado Blvd & Terrace Dr","stop_id":"41"},"type":"Feature"},{"geometry":{"coordinates":[-118.13251,34.14752],"type":"Point"},"properties":{"kind":"stop","name":"Lake Ave & Union St","stop_id":"410"},"type":"Feature"},{"geometry":{"coordinates":[-118.13224,34.14512],"type":"Point"},"properties":{"kind":"stop","name":"Lake Ave & Green St","stop_id":"411"},"type":"Feature"},{"geometry":{"coordinates":[-118.17763,34.19472],"type":"Point"},"properties":{"kind":"stop","name":"Oak Grove Dr & Foothill Blvd","stop_id":"413"},"type":"Feature"},{"geometry":{"coordinates":[-118.17756,34.19447],"type":"Point"},"properties":{"kind":"stop","name":"Oak Grove Dr & Foothill Blvd","stop_id":"414"},"type":"Feature"},{"geometry":{"coordinates":[-118.17835,34.18906],"type":"Point"},"properties":{"kind":"stop","name":"Oak Grove Dr & Berkshire Pl","stop_id":"416"},"type":"Feature"},{"geometry":{"coordinates":[-118.17862,34.18893],"type":"Point"},"properties":{"kind":"stop","name":"Oak Grove Dr & Berkshire Pl","stop_id":"417"},"type":"Feature"},{"geometry":{"coordinates":[-118.17686,34.1756],"type":"Point"},"properties":{"kind":"stop","name":"Linda Vista Ave & Inverness Dr","stop_id":"418"},"type":"Feature"},{"geometry":{"coordinates":[-118.17675,34.17551],"type":"Point"},"properties":{"kind":"stop","name":"Linda Vista Ave & Inverness Dr","stop_id":"419"},"type":"Feature"},{"geometry":{"coordinates":[-118.16009,34.14564],"type":"Point"},"properties":{"kind":"stop","name":"Colorado Blvd & Orange Grove Blvd","stop_id":"42"},"type":"Feature"},{"geometry":{"coordinates":[-118.17672,34.17395],"type":"Point"},"properties":{"kind":"stop","name":"Linda Vista Ave & Madia St","stop_id":"420"},"type":"Feature"},{"geometry":{"coordinates":[-118.17683,34.17375],"type":"Point"},"properties":{"kind":"stop","name":"Linda Vista Ave & Madia St","stop_id":"421"},"type":"Feature"},{"geometry":{"coordinates":[-118.1767,34.17173],"type":"Point"},"properties":{"kind":"stop","name":"Linda Vista Ave & Lida St","stop_id":"422"},"type":"Feature"},{"geometry":{"coordinates":[-118.17677,34.17122],"type":"Point"},"properties":{"kind":"stop","name":"Linda Vista Ave & Lida St","stop_id":"423"},"type":"Feature"},{"geometry":{"coordinates":[-118.17714,34.1715],"type":"Point"},"properties":{"kind":"stop","name":"Lida St & Linda Vista Ave","stop_id":"424"},"type":"Feature"},{"geometry":{"coordinates":[-118.18047,34.17146],"type":"Point"},"properties":{"kind":"stop","name":"Lida St & Arroyo Vw Dr","stop_id":"425"},"type":"Feature"},{"geometry":{"coordinates":[-118.18108,34.1714],"type":"Point"},"properties":{"kind":"stop","name":"Lida St & Lida Ln","stop_id":"426"},"type":"Feature"},{"geometry":{"coordinates":[-118.18559,34.1688],"type":"Point"},"properties":{"kind":"stop","name":"Art Center Main Building","stop_id":"428"},"type":"Feature"},{"geometry":{"coordinates":[-118.18483,34.16728],"type":"Point"},"properties":{"kind":"stop","name":"Art Center Parking Lot","stop_id":"429"},"type":"Feature"},{"geometry":{"coordinates":[-118.17666,34.17001],"type":"Point"},"properties":{"kind":"stop","name":"Linda Vista Ave & Laurel St","stop_id":"430"},"type":"Feature"},{"geometry":{"coordinates":[-118.17677,34.16966],"type":"Point"},"properties":{"kind":"stop","name":"Linda Vista Ave & Bryant St","stop_id":"431"},"type":"Feature"},{"geometry":{"coordinates":[-118.17663,34.16787],"type":"Point"},"properties":{"kind":"stop","name":"Linda Vista Ave & Salvia Canon Rd","stop_id":"432"},"type":"Feature"},{"geometry":{"coordinates":[-118.17672,34.16746],"type":"Point"},"properties":{"kind":"stop","name":"Linda Vista Ave & Afton St","stop_id":"433"},"type":"Feature"},{"geometry":{"coordinates":[-118.17585,34.16561],"type":"Point"},"properties":{"kind":"stop","name":"Linda Vista Ave & Linda Vista Way","stop_id":"434"},"type":"Feature"},{"geometry":{"coordinates":[-118.17584,34.16528],"type":"Point"},"properties":{"kind":"stop","name":"Linda Vista Ave & El Mirador Dr","stop_id":"435"},"type":"Feature"},{"geometry":{"coordinates":[-118.17528,34.16401],"type":"Point"},"properties":{"kind":"stop","name":"Linda Vista Ave & Charles St","stop_id":"436"},"type":"Feature"},{"geometry":{"coordinates":[-118.17497,34.16357],"type":"Point"},"properties":{"kind":"stop","name":"Linda Vista Ave & Charles St","stop_id":"437"},"type":"Feature"},{"geometry":{"coordinates":[-118.17377,34.16078],"type":"Point"},"properties":{"kind":"stop","name":"Linda Vista Ave & Chula Vista Pl","stop_id":"438"},"type":"Feature"},{"geometry":{"coordinates":[-118.17379,34.16061],"type":"Point"},"properties":{"kind":"stop","name":"Linda Vista Ave & Rancheros Rd","stop_id":"439"},"type":"Feature"},{"geometry":{"coordinates":[-118.16026,34.14582],"type":"Point"},"properties":{"kind":"stop","name":"Colorado Blvd & Orange Grove Blvd","stop_id":"44"},"type":"Feature"},{"geometry":{"coordinates":[-118.17223,34.15789],"type":"Point"},"properties":{"kind":"stop","name":"Linda Vista Ave & Heatherside Rd","stop_id":"440"},"type":"Feature"},{"geometry":{"coordinates":[-118.17234,34.15785],"type":"Point"},"properties":{"kind":"stop","name":"Linda Vista Ave & Heatherside Rd","stop_id":"441"},"type":"Feature"},{"geometry":{"coordinates":[-118.17105,34.15509],"type":"Point"},"properties":{"kind":"stop","name":"Linda Vista Ave & Linda Gln Dr","stop_id":"442"},"type":"Feature"},{"geometry":{"coordinates":[-118.17106,34.15495],"type":"Point"},"properties":{"kind":"stop","name":"Linda Vista Ave & Linda Gln Dr","stop_id":"443"},"type":"Feature"},{"geometry":{"coordinates":[-118.16779,34.15338],"type":"Point"},"properties":{"kind":"stop","name":"Seco St & Linda Vista Ave","stop_id":"444"},"type":"Feature"},{"geometry":{"coordinates":[-118.16722,34.15643],"type":"Point"},"properties":{"kind":"stop","name":"Seco St & Arroyo Blvd","stop_id":"445"},"type":"Feature"},{"geometry":{"coordinates":[-118.16623,34.15632],"type":"Point"},"properties":{"kind":"stop","name":"Seco St & Arroyo Blvd","stop_id":"446"},"type":"Feature"},{"geometry":{"coordinates":[-118.16464,34.15751],"type":"Point"},"properties":{"kind":"stop","name":"Seco St & Rosemont Ave","stop_id":"447"},"type":"Feature"},{"geometry":{"coordinates":[-118.16045,34.16198],"type":"Point"},"properties":{"kind":"stop","name":"Seco St & Lincoln Ave","stop_id":"448"},"type":"Feature"},{"geometry":{"coordinates":[-118.15979,34.16195],"type":"Point"},"properties":{"kind":"stop","name":"Lincoln Ave & Mountain St","stop_id":"449"},"type":"Feature"},{"geometry":{"coordinates":[-118.15833,34.14584],"type":"Point"},"properties":{"kind":"stop","name":"Colorado Blvd & Terrace Dr","stop_id":"45"},"type":"Feature"},{"geometry":{"coordinates":[-118.15982,34.16176],"type":"Point"},"properties":{"kind":"stop","name":"Lincoln Ave & Seco St","stop_id":"450"},"type":"Feature"},{"geometry":{"coordinates":[-118.15724,34.16218],"type":"Point"},"properties":{"kind":"stop","name":"City of Pasadena Maintenance Yards","stop_id":"451"},"type":"Feature"},{"geometry":{"coordinates":[-118.15391,34.16137],"type":"Point"},"properties":{"kind":"stop","name":"Mountain St & Sunset Ave","stop_id":"452"},"type":"Feature"},{"geometry":{"coordinates":[-118.15372,34.16123],"type":"Point"},"properties":{"kind":"stop","name":"Mountain St & Sunset Ave","stop_id":"453"},"type":"Feature"},{"geometry":{"coordinates":[-118.15106,34.16157],"type":"Point"},"properties":{"kind":"stop","name":"Mountain St & Fair Oaks Ave","stop_id":"454"},"type":"Feature"},{"geometry":{"coordinates":[-118.15961,34.16596],"type":"Point"},"properties":{"kind":"stop","name":"Lincoln Ave & Hammond St","stop_id":"455"},"type":"Feature"},{"geometry":{"coordinates":[-118.15944,34.16635],"type":"Point"},"properties":{"kind":"stop","name":"Lincoln Ave & Hammond St","stop_id":"456"},"type":"Feature"},{"geometry":{"coordinates":[-118.15742,34.15912],"type":"Point"},"properties":{"kind":"stop","name":"Lincoln Ave & Barthe Dr","stop_id":"457"},"type":"Feature"},{"geometry":{"coordinates":[-118.15723,34.15869],"type":"Point"},"properties":{"kind":"stop","name":"Lincoln Ave & Barthe Dr","stop_id":"458"},"type":"Feature"},{"geometry":{"coordinates":[-118.16814,34.15326],"type":"Point"},"properties":{"kind":"stop","name":"Seco St & Linda Vista Ave","stop_id":"459"},"type":"Feature"},{"geometry":{"coordinates":[-118.15583,34.14588],"type":"Point"},"properties":{"kind":"stop","name":"Colorado Blvd & St John Ave","stop_id":"46"},"type":"Feature"},{"geometry":{"coordinates":[-118.16427,34.15743],"type":"Point"},"properties":{"kind":"stop","name":"Seco St & Rosemont Ave","stop_id":"460"},"type":"Feature"},{"geometry":{"coordinates":[-118.15809,34.16202],"type":"Point"},"properties":{"kind":"stop","name":"Mountain St & I-210","stop_id":"461"},"type":"Feature"},{"geometry":{"coordinates":[-118.17519,34.19793],"type":"Point"},"properties":{"kind":"stop","name":"JPL","stop_id":"462"},"type":"Feature"},{"geometry":{"coordinates":[-118.1526,34.14585],"type":"Point"},"properties":{"kind":"stop","name":"Colorado Blvd & De Lacey Ave","stop_id":"47"},"type":"Feature"},{"geometry":{"coordinates":[-118.13177,34.13581],"type":"Point"},"properties":{"kind":"stop","name":"California Blvd & Lake Ave","stop_id":"472"},"type":"Feature"},{"geometry":{"coordinates":[-118.13217,34.13626],"type":"Point"},"properties":{"kind":"stop","name":"Lake Ave & California Blvd","stop_id":"474"},"type":"Feature"},{"geometry":{"coordinates":[-118.13239,34.13748],"type":"Point"},"properties":{"kind":"stop","name":"Lake Ave & San Pasqual St","stop_id":"475"},"type":"Feature"},{"geometry":{"coordinates":[-118.13218,34.13812],"type":"Point"},"properties":{"kind":"stop","name":"Lake Ave & San Pasqual St","stop_id":"476"},"type":"Feature"},{"geometry":{"coordinates":[-118.15078,34.14588],"type":"Point"},"properties":{"kind":"stop","name":"Colorado Blvd & Fair Oaks Ave","stop_id":"48"},"type":"Feature"},{"geometry":{"coordinates":[-118.14655,34.14592],"type":"Point"},"properties":{"kind":"stop","name":"Colorado Blvd & Marengo Ave","stop_id":"49"},"type":"Feature"},{"geometry":{"coordinates":[-118.13406,34.13594],"type":"Point"},"properties":{"kind":"stop","name":"California Blvd & Hudson Ave","stop_id":"498"},"type":"Feature"},{"geometry":{"coordinates":[-118.13633,34.13579],"type":"Point"},"properties":{"kind":"stop","name":"California Blvd & El Molino Ave","stop_id":"499"},"type":"Feature"},{"geometry":{"coordinates":[-118.08236,34.15061],"type":"Point"},"properties":{"kind":"stop","name":"Sierra Madre Villa Ave & Foothill Blvd","stop_id":"5"},"type":"Feature"},{"geometry":{"coordinates":[-118.14477,34.14593],"type":"Point"},"properties":{"kind":"stop","name":"Colorado Blvd & Garfield Ave","stop_id":"50"},"type":"Feature"},{"geometry":{"coordinates":[-118.13708,34.13593],"type":"Point"},"properties":{"kind":"stop","name":"California Blvd & El Molino Ave","stop_id":"500"},"type":"Feature"},{"geometry":{"coordinates":[-118.14101,34.13575],"type":"Point"},"properties":{"kind":"stop","name":"California Blvd & Los Robles Ave","stop_id":"501"},"type":"Feature"},{"geometry":{"coordinates":[-118.14173,34.13589],"type":"Point"},"properties":{"kind":"stop","name":"California Blvd & Los Robles Ave","stop_id":"502"},"type":"Feature"},{"geometry":{"coordinates":[-118.14554,34.13574],"type":"Point"},"properties":{"kind":"stop","name":"California Blvd & Marengo Ave","stop_id":"503"},"type":"Feature"},{"geometry":{"coordinates":[-118.14687,34.13569],"type":"Point"},"properties":{"kind":"stop","name":"California Blvd & Arroyo Pkwy","stop_id":"505"},"type":"Feature"},{"geometry":{"coordinates":[-118.1434,34.14594],"type":"Point"},"properties":{"kind":"stop","name":"Colorado Blvd & Euclid Ave","stop_id":"51"},"type":"Feature"},{"geometry":{"coordinates":[-118.14204,34.14595],"type":"Point"},"properties":{"kind":"stop","name":"Colorado Blvd & Los Robles Ave","stop_id":"52"},"type":"Feature"},{"geometry":{"coordinates":[-118.15956,34.14462],"type":"Point"},"properties":{"kind":"stop","name":"Green St & Orange Grove Blvd","stop_id":"520"},"type":"Feature"},{"geometry":{"coordinates":[-118.15728,34.14465],"type":"Point"},"properties":{"kind":"stop","name":"Green St & Terrace Dr","stop_id":"521"},"type":"Feature"},{"geometry":{"coordinates":[-118.14787,34.14444],"type":"Point"},"properties":{"kind":"stop","name":"Green St & Arroyo Pkwy","stop_id":"524"},"type":"Feature"},{"geometry":{"coordinates":[-118.14749,34.13542],"type":"Point"},"properties":{"kind":"stop","name":"Arroyo Pkwy & California Blvd","stop_id":"531"},"type":"Feature"},{"geometry":{"coordinates":[-118.14743,34.13273],"type":"Point"},"properties":{"kind":"stop","name":"Arroyo Pkwy & Fillmore St","stop_id":"532"},"type":"Feature"},{"geometry":{"coordinates":[-118.14718,34.13323],"type":"Point"},"properties":{"kind":"stop","name":"Arroyo Pkwy & Fillmore St","stop_id":"533"},"type":"Feature"},{"geometry":{"coordinates":[-118.14743,34.12767],"type":"Point"},"properties":{"kind":"stop","name":"Arroyo Pkwy & Glenarm St","stop_id":"534"},"type":"Feature"},{"geometry":{"coordinates":[-118.14714,34.12846],"type":"Point"},"properties":{"kind":"stop","name":"Arroyo Pkwy & Glenarm St","stop_id":"535"},"type":"Feature"},{"geometry":{"coordinates":[-118.14864,34.12814],"type":"Point"},"properties":{"kind":"stop","name":"Raymond Ave & Glenarm St","stop_id":"536"},"type":"Feature"},{"geometry":{"coordinates":[-118.14585,34.14798],"type":"Point"},"properties":{"kind":"stop","name":"Marengo Ave & Holly St","stop_id":"538"},"type":"Feature"},{"geometry":{"coordinates":[-118.14585,34.15153],"type":"Point"},"properties":{"kind":"stop","name":"Marengo Ave & Corson St","stop_id":"539"},"type":"Feature"},{"geometry":{"coordinates":[-118.13877,34.14596],"type":"Point"},"properties":{"kind":"stop","name":"Colorado Blvd & Madison Ave","stop_id":"54"},"type":"Feature"},{"geometry":{"coordinates":[-118.14615,34.15146],"type":"Point"},"properties":{"kind":"stop","name":"Marengo Ave & Corson St","stop_id":"540"},"type":"Feature"},{"geometry":{"coordinates":[-118.14611,34.15388],"type":"Point"},"properties":{"kind":"stop","name":"Marengo Ave & Villa St","stop_id":"541"},"type":"Feature"},{"geometry":{"coordinates":[-118.14593,34.15441],"type":"Point"},"properties":{"kind":"stop","name":"Marengo Ave & Villa St","stop_id":"542"},"type":"Feature"},{"geometry":{"coordinates":[-118.14615,34.15752],"type":"Point"},"properties":{"kind":"stop","name":"Marengo Ave & Orange Grove Blvd","stop_id":"543"},"type":"Feature"},{"geometry":{"coordinates":[-118.14639,34.15793],"type":"Point"},"properties":{"kind":"stop","name":"Orange Grove Blvd & Marengo Ave","stop_id":"544"},"type":"Feature"},{"geometry":{"coordinates":[-118.15494,34.1561],"type":"Point"},"properties":{"kind":"stop","name":"Lincoln Ave & Orange Grove Blvd","stop_id":"546"},"type":"Feature"},{"geometry":{"coordinates":[-118.17006,34.14296],"type":"Point"},"properties":{"kind":"stop","name":"Colorado Blvd & San Rafael Ave","stop_id":"556"},"type":"Feature"},{"geometry":{"coordinates":[-118.17074,34.14263],"type":"Point"},"properties":{"kind":"stop","name":"Colorado Blvd & San Rafael Ave","stop_id":"557"},"type":"Feature"},{"geometry":{"coordinates":[-118.17399,34.14175],"type":"Point"},"properties":{"kind":"stop","name":"Colorado Blvd & Club Rd","stop_id":"558"},"type":"Feature"},{"geometry":{"coordinates":[-118.17438,34.14172],"type":"Point"},"properties":{"kind":"stop","name":"Colorado Blvd & Club Rd","stop_id":"559"},"type":"Feature"},{"geometry":{"coordinates":[-118.13554,34.14598],"type":"Point"},"properties":{"kind":"stop","name":"Colorado Blvd & Oak Knoll Ave","stop_id":"56"},"type":"Feature"},{"geometry":{"coordinates":[-118.17738,34.14084],"type":"Point"},"properties":{"kind":"stop","name":"Colorado Blvd & Melrose Ave","stop_id":"560"},"type":"Feature"},{"geometry":{"coordinates":[-118.17791,34.14059],"type":"Point"},"properties":{"kind":"stop","name":"Melrose Ave & Colorado Blvd","stop_id":"562"},"type":"Feature"},{"geometry":{"coordinates":[-118.17711,34.13063],"type":"Point"},"properties":{"kind":"stop","name":"Ave 64 & La Loma Rd","stop_id":"564"},"type":"Feature"},{"geometry":{"coordinates":[-118.17692,34.13087],"type":"Point"},"properties":{"kind":"stop","name":"Avenue 64 & La Loma Rd","stop_id":"565"},"type":"Feature"},{"geometry":{"coordinates":[-118.17639,34.12758],"type":"Point"},"properties":{"kind":"stop","name":"Avenue 64 & Burleigh Dr","stop_id":"566"},"type":"Feature"},{"geometry":{"coordinates":[-118.17662,34.12682],"type":"Point"},"properties":{"kind":"stop","name":"Avenue 64 & Burleigh Dr","stop_id":"567"},"type":"Feature"},{"geometry":{"coordinates":[-118.17661,34.12541],"type":"Point"},"properties":{"kind":"stop","name":"Avenue 64 & Church St","stop_id":"568"},"type":"Feature"},{"geometry":{"coordinates":[-118.13267,34.13595],"type":"Point"},"properties":{"kind":"stop","name":"California Blvd & Lake Ave","stop_id":"569"},"type":"Feature"},{"geometry":{"coordinates":[-118.14902,34.14775],"type":"Point"},"properties":{"kind":"stop","name":"Raymond Ave & Holly St","stop_id":"570"},"type":"Feature"},{"geometry":{"coordinates":[-118.14897,34.14423],"type":"Point"},"properties":{"kind":"stop","name":"Raymond Ave & Green St","stop_id":"574"},"type":"Feature"},{"geometry":{"coordinates":[-118.14876,34.14447],"type":"Point"},"properties":{"kind":"stop","name":"Raymond Ave & Green St","stop_id":"575"},"type":"Feature"},{"geometry":{"coordinates":[-118.14892,34.1465],"type":"Point"},"properties":{"kind":"stop","name":"Raymond Ave & Union St","stop_id":"576"},"type":"Feature"},{"geometry":{"coordinates":[-118.14887,34.14675],"type":"Point"},"properties":{"kind":"stop","name":"Raymond Ave & Union St","stop_id":"577"},"type":"Feature"},{"geometry":{"coordinates":[-118.14896,34.14143],"type":"Point"},"properties":{"kind":"stop","name":"Raymond Ave & Del Mar Blvd","stop_id":"579"},"type":"Feature"},{"geometry":{"coordinates":[-118.14877,34.14178],"type":"Point"},"properties":{"kind":"stop","name":"Raymond Ave & Del Mar Blvd","stop_id":"580"},"type":"Feature"},{"geometry":{"coordinates":[-118.113,34.15335],"type":"Point"},"properties":{"kind":"stop","name":"Allen Ave & Maple St","stop_id":"582"},"type":"Feature"},{"geometry":{"coordinates":[-118.114,34.15305],"type":"Point"},"properties":{"kind":"stop","name":"Maple St & Allen Ave","stop_id":"584"},"type":"Feature"},{"geometry":{"coordinates":[-118.15021,34.12788],"type":"Point"},"properties":{"kind":"stop","name":"Fair Oaks Ave & Glenarm St","stop_id":"588"},"type":"Feature"},{"geometry":{"coordinates":[-118.15021,34.13003],"type":"Point"},"properties":{"kind":"stop","name":"Fair Oaks Ave & Hurlbut St","stop_id":"589"},"type":"Feature"},{"geometry":{"coordinates":[-118.15023,34.13184],"type":"Point"},"properties":{"kind":"stop","name":"Fair Oaks Ave & Bellefontaine St","stop_id":"590"},"type":"Feature"},{"geometry":{"coordinates":[-118.15023,34.1343],"type":"Point"},"properties":{"kind":"stop","name":"Fair Oaks Ave & Congress St","stop_id":"591"},"type":"Feature"},{"geometry":{"coordinates":[-118.15024,34.13632],"type":"Point"},"properties":{"kind":"stop","name":"Fair Oaks Ave & California Blvd","stop_id":"592"},"type":"Feature"},{"geometry":{"coordinates":[-118.15027,34.13871],"type":"Point"},"properties":{"kind":"stop","name":"Fair Oaks Ave & Bellevue Dr","stop_id":"593"},"type":"Feature"},{"geometry":{"coordinates":[-118.148,34.14942],"type":"Point"},"properties":{"kind":"stop","name":"Walnut St & Raymond Ave","stop_id":"594"},"type":"Feature"},{"geometry":{"coordinates":[-118.15044,34.15811],"type":"Point"},"properties":{"kind":"stop","name":"Fair Oaks Ave & Orange Grove Blvd","stop_id":"595"},"type":"Feature"},{"geometry":{"coordinates":[-118.15047,34.15981],"type":"Point"},"properties":{"kind":"stop","name":"Fair Oaks Ave & Painter St","stop_id":"596"},"type":"Feature"},{"geometry":{"coordinates":[-118.15046,34.16162],"type":"Point"},"properties":{"kind":"stop","name":"Fair Oaks Ave & Mountain St","stop_id":"597"},"type":"Feature"},{"geometry":{"coordinates":[-118.15048,34.16363],"type":"Point"},"properties":{"kind":"stop","name":"Fair Oaks Ave & Jackie Robinson Ctr","stop_id":"598"},"type":"Feature"},{"geometry":{"coordinates":[-118.15051,34.16504],"type":"Point"},"properties":{"kind":"stop","name":"Fair Oaks Ave & Hammond St","stop_id":"599"},"type":"Feature"},{"geometry":{"coordinates":[-118.083,34.15016],"type":"Point"},"properties":{"kind":"stop","name":"Foothill Blvd & Sierra Madre Villa Ave","stop_id":"6"},"type":"Feature"},{"geometry":{"coordinates":[-118.15053,34.16715],"type":"Point"},"properties":{"kind":"stop","name":"Fair Oaks Ave & Claremont St","stop_id":"600"},"type":"Feature"},{"geometry":{"coordinates":[-118.15078,34.16651],"type":"Point"},"properties":{"kind":"stop","name":"Fair Oaks Ave & Claremont St","stop_id":"601"},"type":"Feature"},{"geometry":{"coordinates":[-118.15077,34.16486],"type":"Point"},"properties":{"kind":"stop","name":"Fair Oaks Ave & Hammond St","stop_id":"602"},"type":"Feature"},{"geometry":{"coordinates":[-118.15077,34.1634],"type":"Point"},"properties":{"kind":"stop","name":"Fair Oaks Ave & Jackie Robinson Ctr","stop_id":"603"},"type":"Feature"},{"geometry":{"coordinates":[-118.15074,34.16112],"type":"Point"},"properties":{"kind":"stop","name":"Fair Oaks Ave & Mountain St","stop_id":"604"},"type":"Feature"},{"geometry":{"coordinates":[-118.15073,34.16],"type":"Point"},"properties":{"kind":"stop","name":"Fair Oaks Ave & Yale St","stop_id":"605"},"type":"Feature"},{"geometry":{"coordinates":[-118.14633,34.14966],"type":"Point"},"properties":{"kind":"stop","name":"Walnut St & Marengo Ave","stop_id":"606"},"type":"Feature"},{"geometry":{"coordinates":[-118.15057,34.14033],"type":"Point"},"properties":{"kind":"stop","name":"Fair Oaks Ave & Del Mar Blvd","stop_id":"607"},"type":"Feature"},{"geometry":{"coordinates":[-118.15054,34.13805],"type":"Point"},"properties":{"kind":"stop","name":"Fair Oaks Ave & Bellevue Dr","stop_id":"608"},"type":"Feature"},{"geometry":{"coordinates":[-118.15051,34.13536],"type":"Point"},"properties":{"kind":"stop","name":"Fair Oaks Ave & California Blvd","stop_id":"609"},"type":"Feature"},{"geometry":{"coordinates":[-118.15051,34.1338],"type":"Point"},"properties":{"kind":"stop","name":"Fair Oaks Ave & Congress St","stop_id":"610"},"type":"Feature"},{"geometry":{"coordinates":[-118.15048,34.1313],"type":"Point"},"properties":{"kind":"stop","name":"Fair Oaks Ave & Bellefontaine St","stop_id":"611"},"type":"Feature"},{"geometry":{"coordinates":[-118.15046,34.1298],"type":"Point"},"properties":{"kind":"stop","name":"Fair Oaks Ave & Hurlbut St","stop_id":"612"},"type":"Feature"},{"geometry":{"coordinates":[-118.1386,34.15431],"type":"Point"},"properties":{"kind":"stop","name":"Villa St & Madison Ave","stop_id":"614"},"type":"Feature"},{"geometry":{"coordinates":[-118.14163,34.15397],"type":"Point"},"properties":{"kind":"stop","name":"Los Robles Ave & Villa St","stop_id":"615"},"type":"Feature"},{"geometry":{"coordinates":[-118.14164,34.15224],"type":"Point"},"properties":{"kind":"stop","name":"Los Robles Ave & Maple St","stop_id":"616"},"type":"Feature"},{"geometry":{"coordinates":[-118.14179,34.14966],"type":"Point"},"properties":{"kind":"stop","name":"Walnut St & Los Robles Ave","stop_id":"617"},"type":"Feature"},{"geometry":{"coordinates":[-118.14405,34.14964],"type":"Point"},"properties":{"kind":"stop","name":"Walnut St & Garfield Ave","stop_id":"618"},"type":"Feature"},{"geometry":{"coordinates":[-118.14567,34.14941],"type":"Point"},"properties":{"kind":"stop","name":"Walnut St & Marengo Ave","stop_id":"619"},"type":"Feature"},{"geometry":{"coordinates":[-118.14401,34.14938],"type":"Point"},"properties":{"kind":"stop","name":"Walnut St & Garfield Ave","stop_id":"620"},"type":"Feature"},{"geometry":{"coordinates":[-118.14129,34.14983],"type":"Point"},"properties":{"kind":"stop","name":"Los Robles Ave & Walnut St","stop_id":"621"},"type":"Feature"},{"geometry":{"coordinates":[-118.14133,34.15402],"type":"Point"},"properties":{"kind":"stop","name":"Los Robles Ave & Villa St","stop_id":"622"},"type":"Feature"},{"geometry":{"coordinates":[-118.13818,34.15412],"type":"Point"},"properties":{"kind":"stop","name":"Villa St & Madison Ave","stop_id":"623"},"type":"Feature"},{"geometry":{"coordinates":[-118.13435,34.15421],"type":"Point"},"properties":{"kind":"stop","name":"Villa St between Maple Way & Lake Ave","stop_id":"624"},"type":"Feature"},{"geometry":{"coordinates":[-118.15071,34.1575],"type":"Point"},"properties":{"kind":"stop","name":"Fair Oaks Ave & Orange Grove Blvd","stop_id":"625"},"type":"Feature"},{"geometry":{"coordinates":[-118.15069,34.15433],"type":"Point"},"properties":{"kind":"stop","name":"Fair Oaks Ave & Villa St","stop_id":"626"},"type":"Feature"},{"geometry":{"coordinates":[-118.15019,34.14945],"type":"Point"},"properties":{"kind":"stop","name":"Walnut St & Fair Oaks Ave","stop_id":"627"},"type":"Feature"},{"geometry":{"coordinates":[-118.14868,34.13338],"type":"Point"},"properties":{"kind":"stop","name":"Raymond Ave & Fillmore St","stop_id":"628"},"type":"Feature"},{"geometry":{"coordinates":[-118.14869,34.13634],"type":"Point"},"properties":{"kind":"stop","name":"Raymond Ave & California Blvd","stop_id":"629"},"type":"Feature"},{"geometry":{"coordinates":[-118.14914,34.14961],"type":"Point"},"properties":{"kind":"stop","name":"Walnut St & Raymond Ave","stop_id":"630"},"type":"Feature"},{"geometry":{"coordinates":[-118.15033,34.15084],"type":"Point"},"properties":{"kind":"stop","name":"Fair Oaks Ave & Corson St","stop_id":"631"},"type":"Feature"},{"geometry":{"coordinates":[-118.15042,34.15429],"type":"Point"},"properties":{"kind":"stop","name":"Fair Oaks Ave & Villa St","stop_id":"632"},"type":"Feature"},{"geometry":{"coordinates":[-118.14988,34.12746],"type":"Point"},"properties":{"kind":"stop","name":"Glenarm St & Fair Oaks Ave","stop_id":"633"},"type":"Feature"},{"geometry":{"coordinates":[-118.1414,34.1523],"type":"Point"},"properties":{"kind":"stop","name":"Los Robles Ave & Maple St","stop_id":"634"},"type":"Feature"},{"geometry":{"coordinates":[-118.09861,34.16924],"type":"Point"},"properties":{"kind":"stop","name":"Washington Blvd & Altadena Dr","stop_id":"635"},"type":"Feature"},{"geometry":{"coordinates":[-118.1322,34.14638],"type":"Point"},"properties":{"kind":"stop","name":"Lake Ave & Colorado Blvd","stop_id":"636"},"type":"Feature"},{"geometry":{"coordinates":[-118.11334,34.15127],"type":"Point"},"properties":{"kind":"stop","name":"Allen Ave & Corson St","stop_id":"637"},"type":"Feature"},{"geometry":{"coordinates":[-118.1133,34.14914],"type":"Point"},"properties":{"kind":"stop","name":"Allen Ave & Walnut St","stop_id":"638"},"type":"Feature"},{"geometry":{"coordinates":[-118.14802,34.14592],"type":"Point"},"properties":{"kind":"stop","name":"Colorado Blvd & Arroyo Pkwy","stop_id":"639"},"type":"Feature"},{"geometry":{"coordinates":[-118.14919,34.14589],"type":"Point"},"properties":{"kind":"stop","name":"Colorado Blvd &  Raymond Ave","stop_id":"641"},"type":"Feature"},{"geometry":{"coordinates":[-118.11304,34.15008],"type":"Point"},"properties":{"kind":"stop","name":"Allen Ave & Walnut St","stop_id":"643"},"type":"Feature"},{"geometry":{"coordinates":[-118.11692,34.15174],"type":"Point"},"properties":{"kind":"stop","name":"Corson St & Sierra Bonita Ave","stop_id":"644"},"type":"Feature"},{"geometry":{"coordinates":[-118.13247,34.14221],"type":"Point"},"properties":{"kind":"stop","name":"Lake Ave & Cordova St","stop_id":"646"},"type":"Feature"},{"geometry":{"coordinates":[-118.13249,34.14434],"type":"Point"},"properties":{"kind":"stop","name":"Lake Ave & Green St","stop_id":"647"},"type":"Feature"},{"geometry":{"coordinates":[-118.13213,34.15215],"type":"Point"},"properties":{"kind":"stop","name":"Lake Ave & Maple St","stop_id":"649"},"type":"Feature"},{"geometry":{"coordinates":[-118.15619,34.16928],"type":"Point"},"properties":{"kind":"stop","name":"Washington Blvd & Glen Ave","stop_id":"650"},"type":"Feature"},{"geometry":{"coordinates":[-118.08185,34.15778],"type":"Point"},"properties":{"kind":"stop","name":"Orange Grove Blvd & Sierra Madre Villa Ave","stop_id":"651"},"type":"Feature"},{"geometry":{"coordinates":[-118.08199,34.15799],"type":"Point"},"properties":{"kind":"stop","name":"Orange Grove Blvd & Sierra Madre Villa Ave","stop_id":"653"},"type":"Feature"},{"geometry":{"coordinates":[-118.15408,34.14561],"type":"Point"},"properties":{"kind":"stop","name":"Pasadena Ave & Colorado Blvd","stop_id":"658"},"type":"Feature"},{"geometry":{"coordinates":[-118.09834,34.15876],"type":"Point"},"properties":{"kind":"stop","name":"Altadena Dr & Orange Grove Blvd","stop_id":"669"},"type":"Feature"},{"geometry":{"coordinates":[-118.08639,34.14951],"type":"Point"},"properties":{"kind":"stop","name":"Kinneloa Ave & Foothill Blvd","stop_id":"673"},"type":"Feature"},{"geometry":{"coordinates":[-118.11561,34.14532],"type":"Point"},"properties":{"kind":"stop","name":"Bonnie Ave & Colorado Blvd","stop_id":"683"},"type":"Feature"},{"geometry":{"coordinates":[-118.14585,34.14511],"type":"Point"},"properties":{"kind":"stop","name":"Marengo Ave & Green St","stop_id":"687"},"type":"Feature"},{"geometry":{"coordinates":[-118.1596,34.16211],"type":"Point"},"properties":{"kind":"stop","name":"Mountain St & Lincoln Ave","stop_id":"688"},"type":"Feature"},{"geometry":{"coordinates":[-118.14884,34.14821],"type":"Point"},"properties":{"kind":"stop","name":"Raymond Ave & Holly St","stop_id":"689"},"type":"Feature"},{"geometry":{"coordinates":[-118.11303,34.14645],"type":"Point"},"properties":{"kind":"stop","name":"Allen Ave & Colorado Blvd","stop_id":"69"},"type":"Feature"},{"geometry":{"coordinates":[-118.08588,34.15012],"type":"Point"},"properties":{"kind":"stop","name":"Foothill Blvd & Santa Paula Ave","stop_id":"7"},"type":"Feature"},{"geometry":{"coordinates":[-118.13888,34.14577],"type":"Point"},"properties":{"kind":"stop","name":"Colorado Blvd & Madison Ave","stop_id":"716"},"type":"Feature"},{"geometry":{"coordinates":[-118.1501,34.15771],"type":"Point"},"properties":{"kind":"stop","name":"Orange Grove Blvd & Fair Oaks Ave","stop_id":"717"},"type":"Feature"},{"geometry":{"coordinates":[-118.15098,34.15791],"type":"Point"},"properties":{"kind":"stop","name":"Orange Grove Blvd & Fair Oaks Ave","stop_id":"718"},"type":"Feature"},{"geometry":{"coordinates":[-118.15426,34.15593],"type":"Point"},"properties":{"kind":"stop","name":"Orange Grove Blvd & Lincoln Ave","stop_id":"719"},"type":"Feature"},{"geometry":{"coordinates":[-118.14103,34.14048],"type":"Point"},"properties":{"kind":"stop","name":"Del Mar Blvd & Los Robles Ave","stop_id":"726"},"type":"Feature"},{"geometry":{"coordinates":[-118.13717,34.1405],"type":"Point"},"properties":{"kind":"stop","name":"Del Mar Blvd & El Molino Ave","stop_id":"727"},"type":"Feature"},{"geometry":{"coordinates":[-118.12794,34.14072],"type":"Point"},"properties":{"kind":"stop","name":"Wilson Ave & Del Mar Blvd","stop_id":"728"},"type":"Feature"},{"geometry":{"coordinates":[-118.07959,34.15079],"type":"Point"},"properties":{"kind":"stop","name":"Halstead St & Foothill Blvd","stop_id":"729"},"type":"Feature"},{"geometry":{"coordinates":[-118.15612,34.16903],"type":"Point"},"properties":{"kind":"stop","name":"Washington Blvd & Glen Ave","stop_id":"730"},"type":"Feature"},{"geometry":{"coordinates":[-118.18407,34.1972],"type":"Point"},"properties":{"kind":"stop","name":"Foothill Blvd & Crown Ave","stop_id":"731"},"type":"Feature"},{"geometry":{"coordinates":[-118.18375,34.19683],"type":"Point"},"properties":{"kind":"stop","name":"Foothill Blvd & Crown Ave","stop_id":"732"},"type":"Feature"},{"geometry":{"coordinates":[-118.17686,34.12487],"type":"Point"},"properties":{"kind":"stop","name":"Avenue 64 & Church St","stop_id":"733"},"type":"Feature"},{"geometry":{"coordinates":[-118.17699,34.12203],"type":"Point"},"properties":{"kind":"stop","name":"Avenue 64 & Elder St","stop_id":"734"},"type":"Feature"},{"geometry":{"coordinates":[-118.17717,34.12207],"type":"Point"},"properties":{"kind":"stop","name":"Avenue 64 & Elder St","stop_id":"735"},"type":"Feature"},{"geometry":{"coordinates":[-118.17818,34.11997],"type":"Point"},"properties":{"kind":"stop","name":"Avenue 64 & Pollard St","stop_id":"736"},"type":"Feature"},{"geometry":{"coordinates":[-118.17839,34.11988],"type":"Point"},"properties":{"kind":"stop","name":"Avenue 64 & Pollard St","stop_id":"737"},"type":"Feature"},{"geometry":{"coordinates":[-118.17983,34.11739],"type":"Point"},"properties":{"kind":"stop","name":"Avenue 64 & Crescent St","stop_id":"738"},"type":"Feature"},{"geometry":{"coordinates":[-118.17983,34.11709],"type":"Point"},"properties":{"kind":"stop","name":"Avenue 64 & Crescent St","stop_id":"739"},"type":"Feature"},{"geometry":{"coordinates":[-118.18119,34.11478],"type":"Point"},"properties":{"kind":"stop","name":"Avenue 64 & York Blvd","stop_id":"740"},"type":"Feature"},{"geometry":{"coordinates":[-118.18174,34.11464],"type":"Point"},"properties":{"kind":"stop","name":"York Blvd & Avenue 64","stop_id":"741"},"type":"Feature"},{"geometry":{"coordinates":[-118.18409,34.11525],"type":"Point"},"properties":{"kind":"stop","name":"York Blvd & Figueroa St","stop_id":"742"},"type":"Feature"},{"geometry":{"coordinates":[-118.18522,34.1148],"type":"Point"},"properties":{"kind":"stop","name":"Figueroa St & York Blvd","stop_id":"743"},"type":"Feature"},{"geometry":{"coordinates":[-118.18621,34.1135],"type":"Point"},"properties":{"kind":"stop","name":"Figueroa St & Arroyo Glen St","stop_id":"744"},"type":"Feature"},{"geometry":{"coordinates":[-118.18756,34.11231],"type":"Point"},"properties":{"kind":"stop","name":"Figueroa St & Avenue 61","stop_id":"745"},"type":"Feature"},{"geometry":{"coordinates":[-118.189,34.11159],"type":"Point"},"properties":{"kind":"stop","name":"Figueroa St & Avenue 60","stop_id":"746"},"type":"Feature"},{"geometry":{"coordinates":[-118.19285,34.10971],"type":"Point"},"properties":{"kind":"stop","name":"Figueroa St & Avenue 57","stop_id":"747"},"type":"Feature"},{"geometry":{"coordinates":[-118.19336,34.11036],"type":"Point"},"properties":{"kind":"stop","name":"Avenue 57 & Marmion Way","stop_id":"748"},"type":"Feature"},{"geometry":{"coordinates":[-118.19015,34.11383],"type":"Point"},"properties":{"kind":"stop","name":"Monte Vista St & Avenue 61","stop_id":"750"},"type":"Feature"},{"geometry":{"coordinates":[-118.19246,34.11268],"type":"Point"},"properties":{"kind":"stop","name":"Monte Vista St & Avenue 59","stop_id":"751"},"type":"Feature"},{"geometry":{"coordinates":[-118.07973,34.14887],"type":"Point"},"properties":{"kind":"stop","name":"Sierra Madre Villa Station layover","stop_id":"759"},"type":"Feature"},{"geometry":{"coordinates":[-118.08598,34.14993],"type":"Point"},"properties":{"kind":"stop","name":"Foothill Blvd & Kinneloa Ave","stop_id":"8"},"type":"Feature"},{"geometry":{"coordinates":[-118.08151,34.14866],"type":"Point"},"properties":{"kind":"stop","name":"Sierra Madre Villa Station","stop_id":"80"},"type":"Feature"},{"geometry":{"coordinates":[-118.08188,34.14232],"type":"Point"},"properties":{"kind":"stop","name":"Del Mar Blvd & Madre St","stop_id":"81"},"type":"Feature"},{"geometry":{"coordinates":[-118.0854,34.1423],"type":"Point"},"properties":{"kind":"stop","name":"Del Mar Blvd & Kinneloa Ave","stop_id":"82"},"type":"Feature"},{"geometry":{"coordinates":[-118.08509,34.14213],"type":"Point"},"properties":{"kind":"stop","name":"Del Mar Blvd & Kinneloa Ave","stop_id":"83"},"type":"Feature"},{"geometry":{"coordinates":[-118.08976,34.14227],"type":"Point"},"properties":{"kind":"stop","name":"Del Mar Blvd & El Nido Ave","stop_id":"84"},"type":"Feature"},{"geometry":{"coordinates":[-118.0895,34.1421],"type":"Point"},"properties":{"kind":"stop","name":"Del Mar Blvd & El Nido Ave","stop_id":"85"},"type":"Feature"},{"geometry":{"coordinates":[-118.09211,34.14225],"type":"Point"},"properties":{"kind":"stop","name":"Del Mar Blvd & Eastern Ave","stop_id":"86"},"type":"Feature"},{"geometry":{"coordinates":[-118.0915,34.14209],"type":"Point"},"properties":{"kind":"stop","name":"Del Mar Blvd & Eastern Ave","stop_id":"87"},"type":"Feature"},{"geometry":{"coordinates":[-118.09505,34.14223],"type":"Point"},"properties":{"kind":"stop","name":"Del Mar Blvd & San Gabriel Blvd","stop_id":"88"},"type":"Feature"},{"geometry":{"coordinates":[-118.08639,34.14609],"type":"Point"},"properties":{"kind":"stop","name":"Colorado Blvd & Kinneloa Ave","stop_id":"9"},"type":"Feature"},{"geometry":{"coordinates":[-118.09482,34.14207],"type":"Point"},"properties":{"kind":"stop","name":"Del Mar Blvd & San Gabriel Blvd","stop_id":"91"},"type":"Feature"},{"geometry":{"coordinates":[-118.09842,34.14204],"type":"Point"},"properties":{"kind":"stop","name":"Del Mar Blvd & Altadena Dr","stop_id":"92"},"type":"Feature"},{"geometry":{"coordinates":[-118.09913,34.1422],"type":"Point"},"properties":{"kind":"stop","name":"Del Mar Blvd & Altadena Dr","stop_id":"93"},"type":"Feature"},{"geometry":{"coordinates":[-118.10117,34.14203],"type":"Point"},"properties":{"kind":"stop","name":"Del Mar Blvd & Sierra Madre Blvd","stop_id":"94"},"type":"Feature"},{"geometry":{"coordinates":[-118.10209,34.14221],"type":"Point"},"properties":{"kind":"stop","name":"Del Mar Blvd & Sierra Madre Blvd","stop_id":"95"},"type":"Feature"},{"geometry":{"coordinates":[-118.10436,34.14221],"type":"Point"},"properties":{"kind":"stop","name":"Del Mar Blvd & Grand Oaks Ave","stop_id":"96"},"type":"Feature"},{"geometry":{"coordinates":[-118.10401,34.14204],"type":"Point"},"properties":{"kind":"stop","name":"Del Mar Blvd & Bonita Ave","stop_id":"97"},"type":"Feature"},{"geometry":{"coordinates":[-118.10601,34.14216],"type":"Point"},"properties":{"kind":"stop","name":"Del Mar Blvd & Craig Ave","stop_id":"98"},"type":"Feature"},{"geometry":{"coordinates":[-118.10633,34.14194],"type":"Point"},"properties":{"kind":"stop","name":"Del Mar Blvd & Craig Ave","stop_id":"99"},"type":"Feature"}],"type":"FeatureCollection"}
