{"features":[{"geometry":{"coordinates":[[-79.95923,36.09346],[-79.95943,36.09304],[-79.96759,36.09436],[-79.96776,36.09443],[-79.96796,36.09513],[-79.9679,36.09569],[-79.96739,36.09598],[-79.96687,36.09569],[-79.96619,36.09292],[-79.96523,36.09059],[-79.96138,36.08431],[-79.96026,36.08196],[-79.96038,36.08174],[-79.9608,36.08174],[-79.9634,36.08203],[-80.01637,36.09857],[-80.02939,36.10313],[-80.05504,36.10853],[-80.05657,36.10932],[-80.05877,36.11137],[-80.0606,36.11247],[-80.06243,36.11304],[-80.06584,36.11324],[-80.06828,36.11311],[-80.07069,36.11273],[-80.08126,36.10954],[-80.08325,36.1092],[-80.08527,36.10911],[-80.08768,36.10935],[-80.0924,36.11068],[-80.09521,36.11105],[-80.14534,36.11376],[-80.15308,36.11415],[-80.15552,36.1141],[-80.15872,36.11365],[-80.16214,36.11264],[-80.17504,36.1067],[-80.17684,36.10637],[-80.18189,36.10626],[-80.18691,36.1051],[-80.18845,36.10452],[-80.19434,36.1016],[-80.2093,36.09753],[-80.21121,36.09737],[-80.21251,36.09759],[-80.22189,36.10093],[-80.22332,36.10038],[-80.23416,36.10057],[-80.24046,36.10045],[-80.24515,36.09994],[-80.24505,36.09927]],"type":"LineString"},"properties":{"color":"#9A3ABA","color_name":"purple","kind":"route","label":"1","long":"Winston Salem Express","route_id":"1","text_color":"#FFFFFF","type_label":"Bus"},"type":"Feature"},{"geometry":{"coordinates":[[-79.78704,36.06918],[-79.78814,36.06886],[-79.78935,36.06919],[-79.78946,36.06852],[-79.79014,36.06807],[-79.79038,36.06739],[-79.78913,36.06694],[-79.7893,36.06462],[-79.79199,36.06468],[-79.79319,36.06491],[-79.79639,36.06462],[-79.81497,36.06246],[-79.81794,36.06114],[-79.82288,36.06076],[-79.82496,36.06096],[-79.82632,36.06067],[-79.82689,36.06022],[-79.82801,36.05815],[-79.83123,36.05533],[-79.8359,36.04817],[-79.83964,36.04532],[-79.84254,36.04268],[-79.84209,36.04032],[-79.84063,36.04051],[-79.83973,36.04156],[-79.83827,36.04182],[-79.83828,36.04222],[-79.83775,36.04248],[-79.82457,36.03797],[-79.8235,36.03752],[-79.8225,36.03664],[-79.8218,36.03505],[-79.82101,36.03394],[-79.82108,36.03318],[-79.82552,36.02469],[-79.82609,36.02304],[-79.82655,36.00748],[-79.82697,36.00537],[-79.82837,36.0005],[-79.82862,35.99791],[-79.82845,35.99589],[-79.82811,35.99438],[-79.82289,35.97975],[-79.82187,35.9757],[-79.82137,35.97151],[-79.8205,35.95898],[-79.82048,35.95614],[-79.82087,35.95351],[-79.8216,35.95111],[-79.82679,35.9391],[-79.82765,35.93512],[-79.8278,35.93209],[-79.82737,35.92823],[-79.82404,35.91697],[-79.82298,35.91068],[-79.82245,35.90368],[-79.82333,35.89448],[-79.8233,35.89245],[-79.823,35.89041],[-79.81874,35.87381],[-79.8182,35.85636],[-79.81867,35.85326],[-79.81908,35.85203],[-79.82645,35.83567],[-79.82723,35.83247],[-79.82725,35.82799],[-79.82815,35.82582],[-79.82139,35.82321],[-79.8214,35.82305],[-79.82209,35.82276],[-79.82356,35.82223],[-79.82387,35.82228],[-79.82345,35.82147],[-79.82426,35.82123],[-79.82424,35.82106],[-79.82219,35.82154],[-79.82266,35.82258],[-79.821,35.82307],[-79.82136,35.82335],[-79.82815,35.82582],[-79.82841,35.8252],[-79.82837,35.82443],[-79.82815,35.82408],[-79.82635,35.82253],[-79.82541,35.82045],[-79.82235,35.80448],[-79.8222,35.80249],[-79.82251,35.79973],[-79.8233,35.79734],[-79.82806,35.78918],[-79.82905,35.78698],[-79.82967,35.78442],[-79.82977,35.78167],[-79.82864,35.77228],[-79.82727,35.75691],[-79.82721,35.75488],[-79.82781,35.75292],[-79.82152,35.75267],[-79.81988,35.75196],[-79.81793,35.75035],[-79.8171,35.74931],[-79.81052,35.74719],[-79.80803,35.74573],[-79.80746,35.74631],[-79.8069,35.74619],[-79.80828,35.74169],[-79.80836,35.73627],[-79.80799,35.73067],[-79.80807,35.72939],[-79.80937,35.72476],[-79.81032,35.71859],[-79.81376,35.70778],[-79.81406,35.70624],[-79.81685,35.68296],[-79.82008,35.67407],[-79.8296,35.67402],[-79.83011,35.67369],[-79.83079,35.67163],[-79.83077,35.67105],[-79.83032,35.67006],[-79.8332,35.67078],[-79.8333,35.66921],[-79.8336,35.66821],[-79.83592,35.66342],[-79.83627,35.66188],[-79.83632,35.6601],[-79.83516,35.65526],[-79.83327,35.64949],[-79.83348,35.6487],[-79.83433,35.64857],[-79.83472,35.64888],[-79.83472,35.64939],[-79.83434,35.64971],[-79.83373,35.64985],[-79.83003,35.64981],[-79.82807,35.64948],[-79.82624,35.64885],[-79.81549,35.64385],[-79.81376,35.64346],[-79.81197,35.64345],[-79.81,35.6439],[-79.80809,35.64495],[-79.80354,35.64957],[-79.80206,35.6508],[-79.80008,35.65149],[-79.79811,35.65139],[-79.7903,35.64867],[-79.78782,35.64718],[-79.78656,35.64589],[-79.78555,35.64422],[-79.78503,35.64242],[-79.78497,35.64118],[-79.78561,35.63715],[-79.78558,35.6362],[-79.78496,35.63493],[-79.7839,35.63405],[-79.78089,35.63253],[-79.7698,35.63035],[-79.76742,35.63065],[-79.76675,35.63029],[-79.76654,35.62983],[-79.76549,35.62966],[-79.76496,35.62974],[-79.76569,35.63086],[-79.76545,35.63113]],"type":"LineString"},"properties":{"color":"#E87F0E","color_name":"orange","kind":"route","label":"10","long":"Randolph Express","route_id":"10","text_color":"#FFFFFF","type_label":"Bus"},"type":"Feature"},{"geometry":{"coordinates":[[-80.24541,36.0994],[-80.24513,36.09943],[-80.24491,36.09841],[-80.23465,36.09957],[-80.22878,36.09948],[-80.2288,36.09701],[-80.22799,36.09473],[-80.22787,36.0939],[-80.22553,36.09435],[-80.22312,36.0941],[-80.22121,36.09418],[-80.19484,36.10115],[-80.19291,36.10191],[-80.18848,36.10421],[-80.18679,36.10482],[-80.18217,36.10591],[-80.17715,36.10607],[-80.17545,36.10637],[-80.16206,36.11251],[-80.15905,36.11342],[-80.1559,36.11392],[-80.15269,36.11399],[-80.09523,36.1109],[-80.09207,36.11045],[-80.08732,36.10914],[-80.08528,36.10896],[-80.08322,36.10905],[-80.08121,36.1094],[-80.07219,36.1122],[-80.06946,36.11281],[-80.06645,36.113],[-80.06437,36.11245],[-80.06379,36.11246],[-80.06586,36.11635],[-80.06819,36.1178],[-80.07084,36.11897],[-80.07151,36.11808],[-80.07229,36.11844],[-80.07181,36.11928],[-80.06819,36.1178],[-80.06586,36.11635],[-80.0644,36.11385],[-80.06372,36.11231],[-80.06131,36.10562],[-80.06123,36.09603],[-80.06158,36.09272],[-80.0623,36.09053],[-80.05919,36.08945],[-80.05404,36.08941],[-80.05155,36.0899],[-80.04646,36.09242],[-80.04771,36.09403],[-80.04845,36.09345],[-80.0489,36.0934],[-80.04914,36.09309],[-80.04867,36.09313],[-80.04771,36.09403],[-80.04621,36.09218],[-80.04519,36.09247],[-80.0439,36.09234],[-80.04407,36.09288],[-80.04315,36.09309],[-80.0419,36.0939],[-80.04627,36.09878],[-80.04648,36.09923],[-80.04588,36.10558],[-80.04584,36.109],[-80.04352,36.10872],[-80.03587,36.10949],[-80.03391,36.11006],[-80.03376,36.10957],[-80.03474,36.10938],[-80.0348,36.1092],[-80.03303,36.10899],[-80.03309,36.10881],[-80.0348,36.1092],[-80.03474,36.10938],[-80.03394,36.10942],[-80.03376,36.10957],[-80.03391,36.11006],[-80.0336,36.11013],[-80.02671,36.11003],[-80.02536,36.10965],[-80.02257,36.10816],[-80.02338,36.10743],[-80.02321,36.10724],[-80.02321,36.10673],[-80.02187,36.10674],[-80.02187,36.10724],[-80.0216,36.1075],[-80.02021,36.10679],[-80.01744,36.1059],[-80.01712,36.10636],[-80.01515,36.10767],[-80.01378,36.10962],[-80.01356,36.11074],[-80.01432,36.1124],[-80.0131,36.11189],[-80.0114,36.11012],[-80.00937,36.1089],[-80.00441,36.10508],[-80.00211,36.10391],[-79.9975,36.10226],[-79.99602,36.10213],[-79.99173,36.10282],[-79.98931,36.10412],[-79.98831,36.10441],[-79.98491,36.10425],[-79.97926,36.10098],[-79.9717,36.09582],[-79.96973,36.09488],[-79.96665,36.09407],[-79.96004,36.09313],[-79.95978,36.09425],[-79.95908,36.09414],[-79.95913,36.09392]],"type":"LineString"},"properties":{"color":"#272EF5","color_name":"blue","kind":"route","label":"17","long":"Kernersville Express","route_id":"17","text_color":"#FFFFFF","type_label":"Bus"},"type":"Feature"},{"geometry":{"coordinates":[[-79.95937,36.09362],[-79.95925,36.09417],[-79.95978,36.09425],[-79.96004,36.09313],[-79.96777,36.0944],[-79.96795,36.09558],[-79.96748,36.09595],[-79.96689,36.09569],[-79.96553,36.09125],[-79.961,36.08368],[-79.96004,36.08163],[-79.9593,36.07953],[-79.96125,36.0799],[-79.96177,36.08026],[-79.96174,36.08068],[-79.96064,36.08082],[-79.93925,36.07406],[-79.92859,36.07011],[-79.92634,36.06883],[-79.92404,36.06694],[-79.9232,36.0665],[-79.92145,36.06596],[-79.91668,36.06557],[-79.91542,36.06527],[-79.8708,36.04881],[-79.86858,36.04846],[-79.86136,36.04874],[-79.8591,36.04861],[-79.84565,36.04557],[-79.84393,36.04481],[-79.84322,36.04401],[-79.84254,36.04268],[-79.84193,36.03953],[-79.84075,36.03969],[-79.84058,36.03987],[-79.84093,36.04046],[-79.84209,36.04032],[-79.84254,36.04268],[-79.8412,36.04352],[-79.83888,36.04319],[-79.83308,36.0408],[-79.8254,36.03827],[-79.82282,36.0372],[-79.81865,36.03481],[-79.81828,36.03435],[-79.81833,36.03392],[-79.81877,36.03368],[-79.81933,36.03367],[-79.81997,36.03401],[-79.82006,36.0347],[-79.81841,36.03802],[-79.81721,36.0419],[-79.81663,36.04254],[-79.81167,36.04586],[-79.81033,36.04866],[-79.80466,36.05405],[-79.8036,36.05531],[-79.80171,36.05806],[-79.80049,36.06049],[-79.7992,36.06484],[-79.79854,36.06603],[-79.79732,36.06742],[-79.79654,36.06868],[-79.79623,36.07043],[-79.78609,36.07002],[-79.78641,36.06947],[-79.7872,36.06912]],"type":"LineString"},"properties":{"color":"#3ABA62","color_name":"green","kind":"route","label":"2","long":"Greensboro Express","route_id":"2","text_color":"#FFFFFF","type_label":"Bus"},"type":"Feature"},{"geometry":{"coordinates":[[-79.95915,36.0938],[-79.95928,36.09301],[-79.96759,36.09436],[-79.96777,36.0944],[-79.96797,36.09542],[-79.96785,36.09576],[-79.96738,36.09596],[-79.96705,36.09586],[-79.96677,36.09545],[-79.96614,36.09287],[-79.96553,36.09125],[-79.961,36.08368],[-79.96004,36.08163],[-79.9593,36.07953],[-79.95884,36.07684],[-79.95878,36.07412],[-79.95904,36.07209],[-79.96197,36.05882],[-79.96234,36.03943],[-79.96274,36.03743],[-79.96339,36.03613],[-79.96444,36.03464],[-79.97007,36.02852],[-79.97135,36.0269],[-79.97527,36.02067],[-79.97678,36.01867],[-79.99015,36.00459],[-79.99701,35.99413],[-80.00015,35.99106],[-80.00054,35.9832],[-80.00129,35.98103],[-80.00157,35.97781],[-80.00174,35.97059],[-80.00233,35.96187],[-80.00208,35.96053],[-80.00358,35.96029],[-80.00501,35.96032],[-80.00685,35.95938],[-80.00874,35.95822],[-80.00806,35.95694],[-80.00706,35.95752]],"type":"LineString"},"properties":{"color":"#6C6CC1","color_name":"purple","kind":"route","label":"3","long":"High Point Express","route_id":"3","text_color":"#FFFFFF","type_label":"Bus"},"type":"Feature"},{"geometry":{"coordinates":[[-79.05585,35.90052],[-79.05545,35.90028],[-79.0558,35.89973],[-79.05655,35.90011],[-79.05679,35.90066],[-79.05671,35.90113],[-79.05606,35.9021],[-79.05405,35.90216],[-79.05125,35.90146],[-79.05092,35.90171],[-79.05037,35.90303],[-79.05411,35.90425],[-79.05457,35.90458],[-79.0536,35.90535],[-79.05314,35.90601],[-79.05283,35.90813],[-79.05312,35.90893],[-79.05444,35.91084],[-79.05695,35.91533],[-79.05587,35.92115],[-79.05409,35.92507],[-79.05384,35.92664],[-79.05559,35.9325],[-79.05852,35.94727],[-79.05837,35.94942],[-79.05765,35.95256],[-79.05781,35.9562],[-79.05727,35.95882],[-79.0573,35.96024],[-79.05772,35.96247],[-79.05935,35.96665],[-79.06027,35.96811],[-79.06228,35.97058],[-79.06331,35.9726],[-79.06625,35.97346],[-79.06774,35.9744],[-79.06848,35.97516],[-79.07131,35.97936],[-79.07402,35.98449],[-79.07494,35.9867],[-79.07535,35.98847],[-79.07545,35.99005],[-79.07528,35.99389],[-79.07563,35.99578],[-79.07638,35.99729],[-79.08366,36.00872],[-79.08534,36.01197],[-79.08681,36.01621],[-79.08976,36.02948],[-79.09082,36.03194],[-79.09291,36.03442],[-79.0946,36.03566],[-79.09636,36.03658],[-79.09973,36.03758],[-79.10637,36.03831],[-79.1081,36.03892],[-79.10969,36.03989],[-79.12275,36.05355],[-79.12378,36.05513],[-79.12524,36.05847],[-79.12685,36.05996],[-79.12884,36.06083],[-79.1332,36.06129],[-79.13598,36.0622],[-79.15614,36.07175],[-79.15986,36.07289],[-79.16367,36.07339],[-79.18385,36.07433],[-79.22063,36.0792],[-79.22427,36.07942],[-79.25494,36.07687],[-79.25803,36.07612],[-79.26793,36.07259],[-79.27186,36.07206],[-79.27223,36.07212],[-79.27265,36.07281],[-79.27262,36.07311],[-79.27056,36.07371],[-79.27083,36.07437],[-79.26987,36.07468],[-79.26937,36.07508],[-79.2687,36.07456],[-79.2691,36.07431],[-79.27294,36.0732],[-79.27245,36.07227],[-79.27238,36.07172],[-79.27469,36.07019],[-79.2793,36.06857],[-79.28233,36.06803],[-79.30354,36.06886],[-79.30728,36.06833],[-79.31536,36.066],[-79.31717,36.0657],[-79.31931,36.06562],[-79.32172,36.06588],[-79.33606,36.06867],[-79.33875,36.06885],[-79.34744,36.06886],[-79.3505,36.06913],[-79.35242,36.0698],[-79.35566,36.06609],[-79.35706,36.06636],[-79.35763,36.06569],[-79.35675,36.06483],[-79.35242,36.0698],[-79.35332,36.06982],[-79.35549,36.06905],[-79.35674,36.06887],[-79.37171,36.06884],[-79.37428,36.06844],[-79.37672,36.06762],[-79.38404,36.06327],[-79.38695,36.06209],[-79.39436,36.06066],[-79.3958,36.06053],[-79.39728,36.0605],[-79.39914,36.06099],[-79.4003,36.06094],[-79.40028,36.0589],[-79.39987,36.05546],[-79.39914,36.05557],[-79.39856,36.05594],[-79.39898,36.05652],[-79.4,36.0565],[-79.4001,36.06011],[-79.39991,36.06072],[-79.39934,36.06087],[-79.39898,36.06052],[-79.39929,36.06006],[-79.40157,36.06004],[-79.41498,36.06269],[-79.42684,36.06336],[-79.4405,36.06523],[-79.46573,36.06466],[-79.46837,36.06519],[-79.48077,36.06901],[-79.48277,36.06937],[-79.48473,36.06946],[-79.48677,36.0693],[-79.49361,36.06817],[-79.49574,36.06802],[-79.49738,36.0682],[-79.50153,36.06452],[-79.50095,36.06424],[-79.5,36.0643],[-79.49915,36.06538],[-79.49896,36.06528],[-79.49762,36.06303],[-79.49906,36.06293],[-79.49896,36.06272],[-79.49762,36.06303],[-79.49588,36.05986],[-79.50178,36.0589],[-79.50361,36.05885],[-79.50583,36.0592],[-79.50867,36.06029],[-79.51617,36.06574],[-79.51645,36.06612],[-79.51642,36.06657],[-79.51581,36.06694],[-79.51532,36.06685],[-79.51497,36.06648],[-79.51504,36.06602],[-79.51539,36.06574],[-79.51927,36.0649],[-79.53293,36.06394],[-79.55077,36.06134],[-79.55302,36.06116],[-79.55525,36.06118],[-79.57002,36.06256],[-79.57385,36.0627],[-79.59221,36.06069],[-79.60442,36.0605],[-79.63472,36.05793],[-79.64715,36.05895],[-79.68528,36.05983],[-79.70915,36.05741],[-79.73181,36.05261],[-79.73415,36.05239],[-79.73594,36.05247],[-79.74202,36.05413],[-79.74796,36.05725],[-79.75264,36.05897],[-79.75989,36.06256],[-79.76089,36.06279],[-79.76573,36.06314],[-79.77078,36.06438],[-79.77753,36.06487],[-79.77735,36.06918],[-79.78046,36.06937],[-79.7817,36.07013],[-79.78202,36.06984],[-79.78609,36.07002],[-79.78647,36.06943],[-79.78814,36.06886],[-79.78935,36.06919],[-79.78925,36.07019],[-79.79747,36.07048],[-79.79747,36.06769],[-79.7992,36.06484],[-79.80081,36.05986],[-79.80408,36.05499],[-79.81043,36.04877],[-79.81089,36.04805],[-79.81141,36.04649],[-79.81191,36.04584],[-79.81677,36.04264],[-79.81729,36.04213],[-79.81774,36.04138],[-79.81833,36.03882],[-79.81875,36.03808],[-79.81966,36.03767],[-79.8213,36.03756],[-79.82289,36.03772],[-79.83117,36.04038],[-79.84165,36.04466],[-79.84396,36.0454],[-79.8594,36.04882],[-79.86139,36.04894],[-79.86847,36.04863],[-79.8711,36.04909],[-79.93929,36.07433],[-79.95464,36.07917],[-79.95716,36.08042],[-79.95796,36.08098],[-79.95841,36.08163],[-79.9582,36.08197],[-79.9578,36.08206],[-79.95672,36.0816],[-79.95407,36.08845],[-79.95383,36.09347],[-79.95332,36.09378],[-79.95289,36.09369],[-79.95264,36.0934],[-79.95264,36.09211],[-79.95366,36.09219],[-79.95928,36.09301],[-79.95943,36.09332],[-79.95929,36.09398]],"type":"LineString"},"properties":{"color":"#D4260F","color_name":"red","kind":"route","label":"4","long":"Alamance Burlington Express","route_id":"4","text_color":"#FFFFFF","type_label":"Bus"},"type":"Feature"},{"geometry":{"coordinates":[[-80.00717,35.95745],[-80.00684,35.95772],[-80.00773,35.95882],[-80.00874,35.95822],[-80.01176,35.9617],[-80.01235,35.96335],[-80.01487,35.96653],[-80.01475,35.96706],[-80.01412,35.96756],[-80.02483,35.98591],[-80.02505,35.98804],[-80.02474,35.99214],[-80.02545,35.99387],[-80.03007,35.99306],[-80.03325,35.99659],[-80.03567,36.00001],[-80.03616,36.00154],[-80.03423,36.00966],[-80.03433,36.0115],[-80.03504,36.01293],[-80.03589,36.01373],[-80.03679,36.01425],[-80.04702,36.01918],[-80.04997,36.02118],[-80.05381,36.02439],[-80.05689,36.02616],[-80.06014,36.02738],[-80.07055,36.0304],[-80.08159,36.03472],[-80.08626,36.03624],[-80.09233,36.03742],[-80.1047,36.03839],[-80.10806,36.03902],[-80.1126,36.04033],[-80.11791,36.04268],[-80.13302,36.05156],[-80.13628,36.05319],[-80.13828,36.0539],[-80.14029,36.05437],[-80.14471,36.05499],[-80.14691,36.05491],[-80.15032,36.0552],[-80.16401,36.0557],[-80.16721,36.05617],[-80.17088,36.05708],[-80.17367,36.05804],[-80.18186,36.06143],[-80.18442,36.06298],[-80.18717,36.06524],[-80.18796,36.06557],[-80.18948,36.06553],[-80.19079,36.06485],[-80.19135,36.0642],[-80.19242,36.06228],[-80.19377,36.06112],[-80.19905,36.05851],[-80.20198,36.05795],[-80.21504,36.05875],[-80.22259,36.06122],[-80.22814,36.0623],[-80.22924,36.06277],[-80.22971,36.06337],[-80.22981,36.06424],[-80.22896,36.06664],[-80.22829,36.07158],[-80.22868,36.07264],[-80.23024,36.0746],[-80.23055,36.07601],[-80.23008,36.08069],[-80.22866,36.08341],[-80.22886,36.08378],[-80.22977,36.08408],[-80.23125,36.08495],[-80.23223,36.0859],[-80.23294,36.08723],[-80.23361,36.08998],[-80.22988,36.09045],[-80.2276,36.09043],[-80.22779,36.09445],[-80.22868,36.09702],[-80.22864,36.10046],[-80.24046,36.10045],[-80.24515,36.09994],[-80.24426,36.09472],[-80.24732,36.09435],[-80.24717,36.09353],[-80.24736,36.09329],[-80.25148,36.09205],[-80.2587,36.08928],[-80.26033,36.08932],[-80.26165,36.08979],[-80.26349,36.0912],[-80.26393,36.0919],[-80.26415,36.09271],[-80.26531,36.09256],[-80.26533,36.09073],[-80.26641,36.08897],[-80.2687,36.08648],[-80.26886,36.08447],[-80.26929,36.0838],[-80.27745,36.07895],[-80.27879,36.07855],[-80.28546,36.07795],[-80.29728,36.07821],[-80.29853,36.07603]],"type":"LineString"},"properties":{"color":"#5D1010","color_name":"black","kind":"route","label":"74","long":"Winston Salem High Point Express","route_id":"74","text_color":"#FFFFFF","type_label":"Bus"},"type":"Feature"},{"geometry":{"coordinates":[[-80.0917,35.89844],[-80.09208,35.89899],[-80.09365,35.89986],[-80.09505,35.89996],[-80.1017,35.8959],[-80.10186,35.89607],[-80.09333,35.90129],[-80.08508,35.90496],[-80.0825,35.90586],[-80.0774,35.90686],[-80.04053,35.91276],[-80.03536,35.91383],[-80.01886,35.92005],[-80.00519,35.92831],[-79.99755,35.93176],[-79.9898,35.93579],[-79.98938,35.93583],[-79.98917,35.93548],[-79.98949,35.93491],[-79.99003,35.9345],[-79.99081,35.93419],[-79.99277,35.93619],[-79.9994,35.9412],[-80.00267,35.94402],[-80.00305,35.94497],[-80.00527,35.9556],[-80.00687,35.95538],[-80.00806,35.95694],[-80.00682,35.95765],[-80.00722,35.95822],[-80.00408,35.95998],[-80.00088,35.96051],[-79.99728,35.96035],[-79.99209,35.96223],[-79.98769,35.96294],[-79.98592,35.96392],[-79.98357,35.96566],[-79.9822,35.96621],[-79.97395,35.9665],[-79.97191,35.9663],[-79.9664,35.9653],[-79.95359,35.96428],[-79.95263,35.96393],[-79.9484,35.96165],[-79.93975,35.9602],[-79.93804,35.95916],[-79.93772,35.9585],[-79.93814,35.95812],[-79.93875,35.95836],[-79.93862,35.9589],[-79.93583,35.96028],[-79.93472,35.96107],[-79.93145,35.96479],[-79.92992,35.96614],[-79.92801,35.96717],[-79.92235,35.96964],[-79.91305,35.97566],[-79.90779,35.97773],[-79.90112,35.98135],[-79.89882,35.98218],[-79.88793,35.98491],[-79.88635,35.98511],[-79.88269,35.98497],[-79.88122,35.98526],[-79.87989,35.98585],[-79.8787,35.98684],[-79.8773,35.98881],[-79.87634,35.98967],[-79.8688,35.99429],[-79.86066,36.00021],[-79.8555,36.00221],[-79.85196,36.00491],[-79.83756,36.01213],[-79.83275,36.01527],[-79.82599,36.01851],[-79.8251,36.01845],[-79.82498,36.01818],[-79.82514,36.01777],[-79.82565,36.01757],[-79.82616,36.01807],[-79.82606,36.02203],[-79.82566,36.02398],[-79.81886,36.03699],[-79.81809,36.03896],[-79.81742,36.0415],[-79.81663,36.04254],[-79.81903,36.0445],[-79.82162,36.04595],[-79.82222,36.04677],[-79.82234,36.04743],[-79.82218,36.04985],[-79.82364,36.06024],[-79.82346,36.06057],[-79.82288,36.06076],[-79.81794,36.06114],[-79.81451,36.06247],[-79.7988,36.0643],[-79.79925,36.06279],[-79.79964,36.06285],[-79.79972,36.0631],[-79.7992,36.06484],[-79.79854,36.06603],[-79.79732,36.06742],[-79.79651,36.06875],[-79.79623,36.07043],[-79.79615,36.07278],[-79.78682,36.07228],[-79.78696,36.07006],[-79.78609,36.07002],[-79.78641,36.06947],[-79.78725,36.06909]],"type":"LineString"},"properties":{"color":"#07875C","color_name":"green","kind":"route","label":"9","long":"Davidson County Greensboro Express","route_id":"9","text_color":"#FFFFFF","type_label":"Bus"},"type":"Feature"},{"geometry":{"coordinates":[-79.99681,35.93911],"type":"Point"},"properties":{"kind":"stop","name":"Main & College","stop_id":"10766898"},"type":"Feature"},{"geometry":{"coordinates":[-79.99637,35.93906],"type":"Point"},"properties":{"kind":"stop","name":"Main & University","stop_id":"10767824"},"type":"Feature"},{"geometry":{"coordinates":[-79.92511,36.08823],"type":"Point"},"properties":{"kind":"stop","name":"Gilbarco Veeder-Root","stop_id":"10768750"},"type":"Feature"},{"geometry":{"coordinates":[-80.01222,35.96297],"type":"Point"},"properties":{"kind":"stop","name":"High Point Regional Hospital (by helicopter pad)","stop_id":"10768751"},"type":"Feature"},{"geometry":{"coordinates":[-80.01206,35.96291],"type":"Point"},"properties":{"kind":"stop","name":"High Point Regional Hospital (by Triad Adult & Pediatric Med)","stop_id":"10768752"},"type":"Feature"},{"geometry":{"coordinates":[-80.26586,36.09],"type":"Point"},"properties":{"kind":"stop","name":"Hawthorne Rd At Baptist Medical (School of Medicine entrance)","stop_id":"10768753"},"type":"Feature"},{"geometry":{"coordinates":[-79.95912,36.09358],"type":"Point"},"properties":{"kind":"stop","name":"PART Coble Transportation Center","stop_id":"2800000"},"type":"Feature"},{"geometry":{"coordinates":[-79.98289,36.10569],"type":"Point"},"properties":{"kind":"stop","name":"USPS (call 336-883-7278 for pickup at least 30 minutes in advance)","stop_id":"2804963"},"type":"Feature"},{"geometry":{"coordinates":[-79.9801,36.11094],"type":"Point"},"properties":{"kind":"stop","name":"Bull Ridge (call 336-883-7278 for pickup at least 30 minutes in advance)","stop_id":"2804964"},"type":"Feature"},{"geometry":{"coordinates":[-79.96634,36.11959],"type":"Point"},"properties":{"kind":"stop","name":"Market America (call 336-883-7278 for pickup at least 30 minutes in advance)","stop_id":"2804965"},"type":"Feature"},{"geometry":{"coordinates":[-79.97621,36.09212],"type":"Point"},"properties":{"kind":"stop","name":"FedEx Freight (call 336-883-7278 for pickup at least 30 minutes in advance)","stop_id":"2804966"},"type":"Feature"},{"geometry":{"coordinates":[-79.92416,36.09828],"type":"Point"},"properties":{"kind":"stop","name":"GTCC Aviation II (call 336-883-7278 for pickup at least 30 minutes in advance)","stop_id":"2804967"},"type":"Feature"},{"geometry":{"coordinates":[-79.96548,36.07288],"type":"Point"},"properties":{"kind":"stop","name":"Qorvo (call 336-883-7278 for pickup at least 30 minutes in advance)","stop_id":"2804968"},"type":"Feature"},{"geometry":{"coordinates":[-79.94574,36.05369],"type":"Point"},"properties":{"kind":"stop","name":"Polo (call 336-883-7278 for pickup at least 30 minutes in advance)","stop_id":"2804969"},"type":"Feature"},{"geometry":{"coordinates":[-79.94007,36.05461],"type":"Point"},"properties":{"kind":"stop","name":"Lawrence Transportation (call 336-883-7278 for pickup at least 30 minutes in advance)","stop_id":"2804970"},"type":"Feature"},{"geometry":{"coordinates":[-79.95456,36.11446],"type":"Point"},"properties":{"kind":"stop","name":"N Regional at Business Park (call 336-883-7278 for pickup at least 30 minutes in advance)","stop_id":"2804971"},"type":"Feature"},{"geometry":{"coordinates":[-79.95759,36.11917],"type":"Point"},"properties":{"kind":"stop","name":"Spectrum (call 336-883-7278 for pickup at least 30 minutes in advance)","stop_id":"2804972"},"type":"Feature"},{"geometry":{"coordinates":[-80.02829,35.99348],"type":"Point"},"properties":{"kind":"stop","name":"North University Pkwy at North Main Street","stop_id":"33964"},"type":"Feature"},{"geometry":{"coordinates":[-80.02957,35.99202],"type":"Point"},"properties":{"kind":"stop","name":"North Main Street at Hartley Drive","stop_id":"34874"},"type":"Feature"},{"geometry":{"coordinates":[-80.24513,36.09929],"type":"Point"},"properties":{"kind":"stop","name":"Winston-Salem Transportation Center (L1)","stop_id":"7970131"},"type":"Feature"},{"geometry":{"coordinates":[-80.24226,36.09866],"type":"Point"},"properties":{"kind":"stop","name":"4th & Chestnut","stop_id":"7970132"},"type":"Feature"},{"geometry":{"coordinates":[-80.23797,36.09916],"type":"Point"},"properties":{"kind":"stop","name":"Innovation Quarter (4th & Research)","stop_id":"7970133"},"type":"Feature"},{"geometry":{"coordinates":[-80.22901,36.09943],"type":"Point"},"properties":{"kind":"stop","name":"4th & MLK","stop_id":"7970134"},"type":"Feature"},{"geometry":{"coordinates":[-80.07218,36.11843],"type":"Point"},"properties":{"kind":"stop","name":"Kernersville Town Hall Park & Ride","stop_id":"7970135"},"type":"Feature"},{"geometry":{"coordinates":[-80.04859,36.09349],"type":"Point"},"properties":{"kind":"stop","name":"VA Health Care Center","stop_id":"7970137"},"type":"Feature"},{"geometry":{"coordinates":[-80.04568,36.09225],"type":"Point"},"properties":{"kind":"stop","name":"Kernersville Medical Center Park & Ride Lot","stop_id":"7970138"},"type":"Feature"},{"geometry":{"coordinates":[-80.02685,36.10994],"type":"Point"},"properties":{"kind":"stop","name":"Old Greensboro Rd","stop_id":"7970140"},"type":"Feature"},{"geometry":{"coordinates":[-80.022,36.1067],"type":"Point"},"properties":{"kind":"stop","name":"Amazon","stop_id":"7970141"},"type":"Feature"},{"geometry":{"coordinates":[-79.95918,36.09394],"type":"Point"},"properties":{"kind":"stop","name":"Coble Transportation Center (B4)","stop_id":"7970142"},"type":"Feature"},{"geometry":{"coordinates":[-80.03436,36.10911],"type":"Point"},"properties":{"kind":"stop","name":"FedEx Ground","stop_id":"7970150"},"type":"Feature"},{"geometry":{"coordinates":[-80.21483,36.09846],"type":"Point"},"properties":{"kind":"stop","name":"WS Journal (5th Street)","stop_id":"7974462"},"type":"Feature"},{"geometry":{"coordinates":[-80.228,36.10052],"type":"Point"},"properties":{"kind":"stop","name":"5th & MLK Jr Dr.","stop_id":"7974463"},"type":"Feature"},{"geometry":{"coordinates":[-80.23756,36.10059],"type":"Point"},"properties":{"kind":"stop","name":"5th & Research","stop_id":"7974464"},"type":"Feature"},{"geometry":{"coordinates":[-80.24107,36.10045],"type":"Point"},"properties":{"kind":"stop","name":"Innovation Quarter (5th & Patterson)","stop_id":"7974465"},"type":"Feature"},{"geometry":{"coordinates":[-80.24233,36.10032],"type":"Point"},"properties":{"kind":"stop","name":"5th & Chestnut (Drop off only for Routes 1 & 17)","stop_id":"7974466"},"type":"Feature"},{"geometry":{"coordinates":[-80.0458,36.09235],"type":"Point"},"properties":{"kind":"stop","name":"Kernersville Medical Center Park & Ride Lot","stop_id":"7975296"},"type":"Feature"},{"geometry":{"coordinates":[-80.02742,36.11014],"type":"Point"},"properties":{"kind":"stop","name":"Old Greensboro Rd","stop_id":"7975742"},"type":"Feature"},{"geometry":{"coordinates":[-80.22843,36.0939],"type":"Point"},"properties":{"kind":"stop","name":"Excelsior St at Union Station","stop_id":"7980843"},"type":"Feature"},{"geometry":{"coordinates":[-79.95927,36.09344],"type":"Point"},"properties":{"kind":"stop","name":"Coble Transportation Center (B1)","stop_id":"7980844"},"type":"Feature"},{"geometry":{"coordinates":[-79.95921,36.09394],"type":"Point"},"properties":{"kind":"stop","name":"Coble Transportation Center (A4)","stop_id":"7985654"},"type":"Feature"},{"geometry":{"coordinates":[-79.78708,36.06928],"type":"Point"},"properties":{"kind":"stop","name":"Greensboro Depot (Slip 17)","stop_id":"7985844"},"type":"Feature"},{"geometry":{"coordinates":[-79.79351,36.07048],"type":"Point"},"properties":{"kind":"stop","name":"W Washington & Eugene St","stop_id":"7986279"},"type":"Feature"},{"geometry":{"coordinates":[-79.80661,36.0525],"type":"Point"},"properties":{"kind":"stop","name":"Freeman Mill & Florida","stop_id":"7986280"},"type":"Feature"},{"geometry":{"coordinates":[-79.81518,36.04378],"type":"Point"},"properties":{"kind":"stop","name":"Freeman Mill & Lovett","stop_id":"7986281"},"type":"Feature"},{"geometry":{"coordinates":[-79.84182,36.04046],"type":"Point"},"properties":{"kind":"stop","name":"Four Seasons","stop_id":"7986282"},"type":"Feature"},{"geometry":{"coordinates":[-79.95928,36.09364],"type":"Point"},"properties":{"kind":"stop","name":"Coble Transportation Center (A2)","stop_id":"7986283"},"type":"Feature"},{"geometry":{"coordinates":[-79.77906,36.06923],"type":"Point"},"properties":{"kind":"stop","name":"Bennett College (E Washington St)","stop_id":"7986761"},"type":"Feature"},{"geometry":{"coordinates":[-79.74759,36.05677],"type":"Point"},"properties":{"kind":"stop","name":"E Gate City Blvd & Florida","stop_id":"7986762"},"type":"Feature"},{"geometry":{"coordinates":[-79.49859,36.06271],"type":"Point"},"properties":{"kind":"stop","name":"Alamance Regional Medical Center Park & Ride","stop_id":"7986763"},"type":"Feature"},{"geometry":{"coordinates":[-79.39881,36.05642],"type":"Point"},"properties":{"kind":"stop","name":"Graham Park & Ride","stop_id":"7986764"},"type":"Feature"},{"geometry":{"coordinates":[-79.35752,36.06591],"type":"Point"},"properties":{"kind":"stop","name":"Alamance Community College","stop_id":"7986765"},"type":"Feature"},{"geometry":{"coordinates":[-79.26991,36.07461],"type":"Point"},"properties":{"kind":"stop","name":"Mebane Cone Health Park & Ride","stop_id":"7986766"},"type":"Feature"},{"geometry":{"coordinates":[-79.0557,35.93254],"type":"Point"},"properties":{"kind":"stop","name":"MLK Jr Blvd & Airport","stop_id":"7986767"},"type":"Feature"},{"geometry":{"coordinates":[-79.05481,35.92378],"type":"Point"},"properties":{"kind":"stop","name":"MLK Jr Blvd & Umstead","stop_id":"7986768"},"type":"Feature"},{"geometry":{"coordinates":[-79.05604,35.9134],"type":"Point"},"properties":{"kind":"stop","name":"N Columbia St at W Franklin St","stop_id":"7986769"},"type":"Feature"},{"geometry":{"coordinates":[-79.05502,35.91172],"type":"Point"},"properties":{"kind":"stop","name":"S Columbia St at Fraternity Ct","stop_id":"7986770"},"type":"Feature"},{"geometry":{"coordinates":[-79.05487,35.90689],"type":"Point"},"properties":{"kind":"stop","name":"Pittsboro St at SECU","stop_id":"7986771"},"type":"Feature"},{"geometry":{"coordinates":[-79.05125,35.90316],"type":"Point"},"properties":{"kind":"stop","name":"UNC Hospitals (Manning Dr, Dogwood Deck)","stop_id":"7986772"},"type":"Feature"},{"geometry":{"coordinates":[-79.05476,35.90228],"type":"Point"},"properties":{"kind":"stop","name":"Mason Farm Road at Marsico Hall","stop_id":"7986773"},"type":"Feature"},{"geometry":{"coordinates":[-79.05587,35.90044],"type":"Point"},"properties":{"kind":"stop","name":"Ambulatory Care Center","stop_id":"7986774"},"type":"Feature"},{"geometry":{"coordinates":[-79.80668,36.05206],"type":"Point"},"properties":{"kind":"stop","name":"Freeman Mill & Florida","stop_id":"7986777"},"type":"Feature"},{"geometry":{"coordinates":[-79.79562,36.07032],"type":"Point"},"properties":{"kind":"stop","name":"W Washington & Blandwood","stop_id":"7986778"},"type":"Feature"},{"geometry":{"coordinates":[-79.79193,36.07023],"type":"Point"},"properties":{"kind":"stop","name":"W Washington & Greene","stop_id":"7986779"},"type":"Feature"},{"geometry":{"coordinates":[-79.81607,36.04284],"type":"Point"},"properties":{"kind":"stop","name":"Freeman Mill & Coliseum","stop_id":"7986780"},"type":"Feature"},{"geometry":{"coordinates":[-79.9592,36.09379],"type":"Point"},"properties":{"kind":"stop","name":"Coble Transportation Center (B3)","stop_id":"7988164"},"type":"Feature"},{"geometry":{"coordinates":[-79.97008,36.02862],"type":"Point"},"properties":{"kind":"stop","name":"Hwy 68 & Ramsay","stop_id":"7988165"},"type":"Feature"},{"geometry":{"coordinates":[-79.99596,35.99595],"type":"Point"},"properties":{"kind":"stop","name":"Hwy 68 & Lassiter (Oak Hollow Village)","stop_id":"7988166"},"type":"Feature"},{"geometry":{"coordinates":[-80.00155,35.97934],"type":"Point"},"properties":{"kind":"stop","name":"Centennial & Charlotte","stop_id":"7988167"},"type":"Feature"},{"geometry":{"coordinates":[-80.00228,35.96376],"type":"Point"},"properties":{"kind":"stop","name":"Centennial & Hawthorne","stop_id":"7988168"},"type":"Feature"},{"geometry":{"coordinates":[-80.00704,35.95743],"type":"Point"},"properties":{"kind":"stop","name":"High Point Terminal (Outer Slip)","stop_id":"7988169"},"type":"Feature"},{"geometry":{"coordinates":[-80.00205,35.96456],"type":"Point"},"properties":{"kind":"stop","name":"Centennial & Hawthorne","stop_id":"7988577"},"type":"Feature"},{"geometry":{"coordinates":[-80.00135,35.97907],"type":"Point"},"properties":{"kind":"stop","name":"Centennial & Charlotte (Food Lion)","stop_id":"7988578"},"type":"Feature"},{"geometry":{"coordinates":[-79.99589,35.99557],"type":"Point"},"properties":{"kind":"stop","name":"Marathon (Oak Hollow Village)","stop_id":"7988579"},"type":"Feature"},{"geometry":{"coordinates":[-79.97075,36.02729],"type":"Point"},"properties":{"kind":"stop","name":"Hwy 68 & Sutton Way","stop_id":"7988580"},"type":"Feature"},{"geometry":{"coordinates":[-79.78932,36.0653],"type":"Point"},"properties":{"kind":"stop","name":"Arlington & Gate City Blvd","stop_id":"7989450"},"type":"Feature"},{"geometry":{"coordinates":[-79.81028,36.06309],"type":"Point"},"properties":{"kind":"stop","name":"Gate City Blvd & Glenwood (UNC-G)","stop_id":"7989451"},"type":"Feature"},{"geometry":{"coordinates":[-79.82255,36.0518],"type":"Point"},"properties":{"kind":"stop","name":"Coliseum & W Florida","stop_id":"7989452"},"type":"Feature"},{"geometry":{"coordinates":[-79.81753,36.04314],"type":"Point"},"properties":{"kind":"stop","name":"Coliseum & Freeman Mill","stop_id":"7989453"},"type":"Feature"},{"geometry":{"coordinates":[-79.95472,35.96451],"type":"Point"},"properties":{"kind":"stop","name":"MLK Jr. Dr. & Hendrix","stop_id":"7989454"},"type":"Feature"},{"geometry":{"coordinates":[-79.98577,35.96425],"type":"Point"},"properties":{"kind":"stop","name":"MLK Jr. Dr. & Hoskins","stop_id":"7989455"},"type":"Feature"},{"geometry":{"coordinates":[-80.00353,35.94635],"type":"Point"},"properties":{"kind":"stop","name":"GTCC High Point","stop_id":"7989456"},"type":"Feature"},{"geometry":{"coordinates":[-80.09165,35.89853],"type":"Point"},"properties":{"kind":"stop","name":"Thomasville Park & Ride","stop_id":"7989457"},"type":"Feature"},{"geometry":{"coordinates":[-80.00324,35.94627],"type":"Point"},"properties":{"kind":"stop","name":"GTCC High Point","stop_id":"7990395"},"type":"Feature"},{"geometry":{"coordinates":[-79.98605,35.96378],"type":"Point"},"properties":{"kind":"stop","name":"MLK Jr. Dr. & Oneka","stop_id":"7990396"},"type":"Feature"},{"geometry":{"coordinates":[-79.95529,35.96434],"type":"Point"},"properties":{"kind":"stop","name":"MLK Jr. Dr. & Hendrix","stop_id":"7990397"},"type":"Feature"},{"geometry":{"coordinates":[-79.81723,36.04319],"type":"Point"},"properties":{"kind":"stop","name":"Coliseum & Freeman Mill","stop_id":"7990398"},"type":"Feature"},{"geometry":{"coordinates":[-79.82227,36.05141],"type":"Point"},"properties":{"kind":"stop","name":"Coliseum & W Florida","stop_id":"7990399"},"type":"Feature"},{"geometry":{"coordinates":[-79.81063,36.06288],"type":"Point"},"properties":{"kind":"stop","name":"Gate City Blvd & Glenwood (UNC-G)","stop_id":"7990400"},"type":"Feature"},{"geometry":{"coordinates":[-79.79264,36.07252],"type":"Point"},"properties":{"kind":"stop","name":"W Market St & Greene St (Old Courthouse)","stop_id":"7990401"},"type":"Feature"},{"geometry":{"coordinates":[-79.05433,35.90212],"type":"Point"},"properties":{"kind":"stop","name":"Mason Farm Road at EPA","stop_id":"7992460"},"type":"Feature"},{"geometry":{"coordinates":[-79.05181,35.90357],"type":"Point"},"properties":{"kind":"stop","name":"UNC Hospitals (Manning Dr, CG Lot)","stop_id":"7992461"},"type":"Feature"},{"geometry":{"coordinates":[-79.05347,35.90541],"type":"Point"},"properties":{"kind":"stop","name":"Health Sciences Library on S Columbia","stop_id":"7992462"},"type":"Feature"},{"geometry":{"coordinates":[-79.05466,35.91145],"type":"Point"},"properties":{"kind":"stop","name":"Abernethy Hall on S Columiba","stop_id":"7992463"},"type":"Feature"},{"geometry":{"coordinates":[-79.05604,35.91375],"type":"Point"},"properties":{"kind":"stop","name":"Columbia & Rosemary","stop_id":"7992464"},"type":"Feature"},{"geometry":{"coordinates":[-79.05424,35.92448],"type":"Point"},"properties":{"kind":"stop","name":"MLK Jr Blvd & Hillsborough (Midtown Market)","stop_id":"7992465"},"type":"Feature"},{"geometry":{"coordinates":[-79.05568,35.93367],"type":"Point"},"properties":{"kind":"stop","name":"MLK Jr Blvd & Estes (YMCA)","stop_id":"7992466"},"type":"Feature"},{"geometry":{"coordinates":[-79.77897,36.06932],"type":"Point"},"properties":{"kind":"stop","name":"Bennett College (E Washington St)","stop_id":"7992469"},"type":"Feature"},{"geometry":{"coordinates":[-79.82741,35.67401],"type":"Point"},"properties":{"kind":"stop","name":"Randolph Community College","stop_id":"7998660"},"type":"Feature"},{"geometry":{"coordinates":[-79.81412,35.70529],"type":"Point"},"properties":{"kind":"stop","name":"S Fayetteville & Scarboro","stop_id":"7998661"},"type":"Feature"},{"geometry":{"coordinates":[-79.81259,35.71112],"type":"Point"},"properties":{"kind":"stop","name":"Randolph Hospital","stop_id":"7998662"},"type":"Feature"},{"geometry":{"coordinates":[-79.80761,35.74601],"type":"Point"},"properties":{"kind":"stop","name":"North Asheboro Park & Ride","stop_id":"7998663"},"type":"Feature"},{"geometry":{"coordinates":[-79.82292,35.82143],"type":"Point"},"properties":{"kind":"stop","name":"Randleman Park & Ride","stop_id":"7998664"},"type":"Feature"},{"geometry":{"coordinates":[-79.83754,36.04655],"type":"Point"},"properties":{"kind":"stop","name":"Gate City & Meadowview","stop_id":"7998665"},"type":"Feature"},{"geometry":{"coordinates":[-79.82908,36.057],"type":"Point"},"properties":{"kind":"stop","name":"Gate City & Patterson","stop_id":"7998666"},"type":"Feature"},{"geometry":{"coordinates":[-79.83069,35.67061],"type":"Point"},"properties":{"kind":"stop","name":"South Asheboro Park & Ride","stop_id":"7998667"},"type":"Feature"},{"geometry":{"coordinates":[-79.83079,36.05593],"type":"Point"},"properties":{"kind":"stop","name":"Gate City & Ellington","stop_id":"7999791"},"type":"Feature"},{"geometry":{"coordinates":[-79.83799,36.04654],"type":"Point"},"properties":{"kind":"stop","name":"Gate City & Meadowview","stop_id":"7999792"},"type":"Feature"},{"geometry":{"coordinates":[-79.81285,35.71096],"type":"Point"},"properties":{"kind":"stop","name":"Randolph Hospital","stop_id":"7999793"},"type":"Feature"},{"geometry":{"coordinates":[-79.81427,35.70529],"type":"Point"},"properties":{"kind":"stop","name":"S Fayetteville & Scarboro","stop_id":"7999794"},"type":"Feature"},{"geometry":{"coordinates":[-79.82748,35.67409],"type":"Point"},"properties":{"kind":"stop","name":"Randolph Community College","stop_id":"7999795"},"type":"Feature"},{"geometry":{"coordinates":[-79.76545,35.63112],"type":"Point"},"properties":{"kind":"stop","name":"NC Zoo","stop_id":"8004769"},"type":"Feature"},{"geometry":{"coordinates":[-79.95906,36.0934],"type":"Point"},"properties":{"kind":"stop","name":"Coble Transportation Center (C1)","stop_id":"8015796"},"type":"Feature"},{"geometry":{"coordinates":[-79.98354,36.10381],"type":"Point"},"properties":{"kind":"stop","name":"RSVP Communications (call 336-883-7278 for pickup at least 30 minutes in advance)","stop_id":"8018247"},"type":"Feature"},{"geometry":{"coordinates":[-79.98843,36.10199],"type":"Point"},"properties":{"kind":"stop","name":"Hayward Baker (call 336-883-7278 for pickup at least 30 minutes in advance)","stop_id":"8018248"},"type":"Feature"},{"geometry":{"coordinates":[-79.99091,36.09629],"type":"Point"},"properties":{"kind":"stop","name":"Little Santee near Carolina Boiler (call 336-883-7278 for pickup at least 30 minutes in advance)","stop_id":"8018249"},"type":"Feature"},{"geometry":{"coordinates":[-79.99083,36.09447],"type":"Point"},"properties":{"kind":"stop","name":"Little Santee & Triad (call 336-883-7278 for pickup at least 30 minutes in advance)","stop_id":"8018250"},"type":"Feature"},{"geometry":{"coordinates":[-79.98387,36.09702],"type":"Point"},"properties":{"kind":"stop","name":"Coca Cola (call 336-883-7278 for pickup at least 30 minutes in advance)","stop_id":"8018251"},"type":"Feature"},{"geometry":{"coordinates":[-79.98235,36.09435],"type":"Point"},"properties":{"kind":"stop","name":"Standard & Triad (call 336-883-7278 for pickup at least 30 minutes in advance)","stop_id":"8018252"},"type":"Feature"},{"geometry":{"coordinates":[-79.98356,36.08862],"type":"Point"},"properties":{"kind":"stop","name":"Caldwell Building (call 336-883-7278 for pickup at least 30 minutes in advance)","stop_id":"8018253"},"type":"Feature"},{"geometry":{"coordinates":[-79.97428,36.08696],"type":"Point"},"properties":{"kind":"stop","name":"415 Westcliff (call 336-883-7278 for pickup at least 30 minutes in advance)","stop_id":"8018254"},"type":"Feature"},{"geometry":{"coordinates":[-79.97424,36.08926],"type":"Point"},"properties":{"kind":"stop","name":"Westcliff & Industrial Village (call 336-883-7278 for pickup at least 30 minutes in advance)","stop_id":"8018255"},"type":"Feature"},{"geometry":{"coordinates":[-79.97692,36.09499],"type":"Point"},"properties":{"kind":"stop","name":"Camco (Landmark Rd Access) (call 336-883-7278 for pickup at least 30 minutes in advance)","stop_id":"8018881"},"type":"Feature"},{"geometry":{"coordinates":[-79.97637,36.0988],"type":"Point"},"properties":{"kind":"stop","name":"Landmark & Market (call 336-883-7278 for pickup at least 30 minutes in advance)","stop_id":"8018882"},"type":"Feature"},{"geometry":{"coordinates":[-79.97149,36.09555],"type":"Point"},"properties":{"kind":"stop","name":"Camco (Market St Access) (call 336-883-7278 for pickup at least 30 minutes in advance)","stop_id":"8018883"},"type":"Feature"},{"geometry":{"coordinates":[-79.9278,36.08024],"type":"Point"},"properties":{"kind":"stop","name":"Industries of the Blind (call 336-883-7278 for pickup at least 30 minutes in advance)","stop_id":"8030444"},"type":"Feature"},{"geometry":{"coordinates":[-79.93062,36.08711],"type":"Point"},"properties":{"kind":"stop","name":"Harris Teeter Distribution Center (call 336-883-7278 for pickup at least 30 minutes in advance)","stop_id":"8030445"},"type":"Feature"},{"geometry":{"coordinates":[-79.93457,36.08932],"type":"Point"},"properties":{"kind":"stop","name":"Pactiv (Radar Rd) (call 336-883-7278 for pickup at least 30 minutes in advance)","stop_id":"8030446"},"type":"Feature"},{"geometry":{"coordinates":[-79.93287,36.09351],"type":"Point"},"properties":{"kind":"stop","name":"HAECO (Radar Rd) (call 336-883-7278 for pickup at least 30 minutes in advance)","stop_id":"8030447"},"type":"Feature"},{"geometry":{"coordinates":[-79.92137,36.0994],"type":"Point"},"properties":{"kind":"stop","name":"GTCC Aviation III / Honda Aircraft (call 336-883-7278 for pickup at least 30 minutes in advance)","stop_id":"8030448"},"type":"Feature"},{"geometry":{"coordinates":[-79.92399,36.0942],"type":"Point"},"properties":{"kind":"stop","name":"Harris Teeter Perishable (call 336-883-7278 for pickup at least 30 minutes in advance)","stop_id":"8030449"},"type":"Feature"},{"geometry":{"coordinates":[-79.91835,36.07644],"type":"Point"},"properties":{"kind":"stop","name":"N Chimney Rock & W Market (call 336-883-7278 for pickup at least 30 minutes in advance)","stop_id":"8030450"},"type":"Feature"},{"geometry":{"coordinates":[-79.91023,36.07309],"type":"Point"},"properties":{"kind":"stop","name":"Swing Rd & Swing Ct (call 336-883-7278 for pickup at least 30 minutes in advance)","stop_id":"8030451"},"type":"Feature"},{"geometry":{"coordinates":[-79.95901,36.09339],"type":"Point"},"properties":{"kind":"stop","name":"Coble Transportation Center (D1)","stop_id":"8030788"},"type":"Feature"},{"geometry":{"coordinates":[-79.96304,36.08355],"type":"Point"},"properties":{"kind":"stop","name":"Embassy Suites (call 336-883-7278 for pickup at least 30 minutes in advance)","stop_id":"8030789"},"type":"Feature"},{"geometry":{"coordinates":[-79.96304,36.08574],"type":"Point"},"properties":{"kind":"stop","name":"Centerport & Triad Center  (call 336-883-7278 for pickup at least 30 minutes in advance)","stop_id":"8030790"},"type":"Feature"},{"geometry":{"coordinates":[-79.96018,36.07348],"type":"Point"},"properties":{"kind":"stop","name":"Bojangles (call 336-883-7278 for pickup at least 30 minutes in advance)","stop_id":"8030791"},"type":"Feature"},{"geometry":{"coordinates":[-79.96192,36.06423],"type":"Point"},"properties":{"kind":"stop","name":"Gallimore Dairy & Sedgebrook (call 336-883-7278 for pickup at least 30 minutes in advance)","stop_id":"8030792"},"type":"Feature"},{"geometry":{"coordinates":[-79.96961,36.06903],"type":"Point"},"properties":{"kind":"stop","name":"TE Connectivity (719 Pegg Rd) (call 336-883-7278 for pickup at least 30 minutes in advance)","stop_id":"8030793"},"type":"Feature"},{"geometry":{"coordinates":[-79.97124,36.07354],"type":"Point"},"properties":{"kind":"stop","name":"Pegg & Thorndike (call 336-883-7278 for pickup at least 30 minutes in advance)","stop_id":"8030795"},"type":"Feature"},{"geometry":{"coordinates":[-79.97372,36.08034],"type":"Point"},"properties":{"kind":"stop","name":"HAECO (Piedmont Triad Pkwy) (call 336-883-7278 for pickup at least 30 minutes in advance)","stop_id":"8030796"},"type":"Feature"},{"geometry":{"coordinates":[-79.97404,36.08407],"type":"Point"},"properties":{"kind":"stop","name":"Piedmont Triad Pkwy & National Service Rd (call 336-883-7278 for pickup at least 30 minutes in advance)","stop_id":"8030797"},"type":"Feature"},{"geometry":{"coordinates":[-79.96357,36.08113],"type":"Point"},"properties":{"kind":"stop","name":"Airpark West (call 336-883-7278 for pickup at least 30 minutes in advance)","stop_id":"8030798"},"type":"Feature"},{"geometry":{"coordinates":[-79.96027,36.07735],"type":"Point"},"properties":{"kind":"stop","name":"Hotel Area (National Service Rd) (call 336-883-7278 for pickup at least 30 minutes in advance)","stop_id":"8030799"},"type":"Feature"},{"geometry":{"coordinates":[-79.95798,36.0769],"type":"Point"},"properties":{"kind":"stop","name":"Motel 6","stop_id":"8030800"},"type":"Feature"},{"geometry":{"coordinates":[-79.95895,36.09358],"type":"Point"},"properties":{"kind":"stop","name":"Coble Transportation Center (D2)","stop_id":"8032704"},"type":"Feature"},{"geometry":{"coordinates":[-79.94717,36.07704],"type":"Point"},"properties":{"kind":"stop","name":"Triad Freightliner (call 336-883-7278 for pickup at least 30 minutes in advance)","stop_id":"8033956"},"type":"Feature"},{"geometry":{"coordinates":[-79.95172,36.06818],"type":"Point"},"properties":{"kind":"stop","name":"Simply Southern (call 336-883-7278 for pickup at least 30 minutes in advance)","stop_id":"8033957"},"type":"Feature"},{"geometry":{"coordinates":[-79.95151,36.06281],"type":"Point"},"properties":{"kind":"stop","name":"Alorica (call 336-883-7278 for pickup at least 30 minutes in advance)","stop_id":"8033958"},"type":"Feature"},{"geometry":{"coordinates":[-79.95562,36.05129],"type":"Point"},"properties":{"kind":"stop","name":"Aetna (call 336-883-7278 for pickup at least 30 minutes in advance)","stop_id":"8033959"},"type":"Feature"},{"geometry":{"coordinates":[-79.95443,36.04812],"type":"Point"},"properties":{"kind":"stop","name":"High Point Clinical Trials (call 336-883-7278 for pickup at least 30 minutes in advance)","stop_id":"8033960"},"type":"Feature"},{"geometry":{"coordinates":[-79.95962,36.04704],"type":"Point"},"properties":{"kind":"stop","name":"Meeting Way & Mendenhall Oaks (call 336-883-7278 for pickup at least 30 minutes in advance)","stop_id":"8033961"},"type":"Feature"},{"geometry":{"coordinates":[-79.959,36.09367],"type":"Point"},"properties":{"kind":"stop","name":"Coble Transportation Center (C3)","stop_id":"8034296"},"type":"Feature"},{"geometry":{"coordinates":[-79.95518,36.11308],"type":"Point"},"properties":{"kind":"stop","name":"Truist 1 (call 336-883-7278 for pickup at least 30 minutes in advance)","stop_id":"8034589"},"type":"Feature"},{"geometry":{"coordinates":[-79.95775,36.11264],"type":"Point"},"properties":{"kind":"stop","name":"Truist 2 (call 336-883-7278 for pickup at least 30 minutes in advance)","stop_id":"8034590"},"type":"Feature"},{"geometry":{"coordinates":[-79.96026,36.11125],"type":"Point"},"properties":{"kind":"stop","name":"ECPI/Cornerstone (call 336-883-7278 for pickup at least 30 minutes in advance)","stop_id":"8034591"},"type":"Feature"},{"geometry":{"coordinates":[-79.93658,36.07749],"type":"Point"},"properties":{"kind":"stop","name":"Citation & International Dr (call 336-883-7278 for pickup at least 30 minutes in advance)","stop_id":"8034620"},"type":"Feature"},{"geometry":{"coordinates":[-79.94124,36.08183],"type":"Point"},"properties":{"kind":"stop","name":"Twisted Paper (Cessna Dr) (call 336-883-7278 for pickup at least 30 minutes in advance)","stop_id":"8034621"},"type":"Feature"},{"geometry":{"coordinates":[-79.94576,36.08268],"type":"Point"},"properties":{"kind":"stop","name":"Cessna & Boeing Dr (call 336-883-7278 for pickup at least 30 minutes in advance)","stop_id":"8034622"},"type":"Feature"},{"geometry":{"coordinates":[-79.9554,36.08277],"type":"Point"},"properties":{"kind":"stop","name":"Arby's (call 336-883-7278 for pickup at least 30 minutes in advance)","stop_id":"8034623"},"type":"Feature"},{"geometry":{"coordinates":[-79.95902,36.09352],"type":"Point"},"properties":{"kind":"stop","name":"Coble Transportation Center (C2)","stop_id":"8039699"},"type":"Feature"},{"geometry":{"coordinates":[-79.95056,36.05766],"type":"Point"},"properties":{"kind":"stop","name":"Regency & Tudor (call 336-883-7278 for pickup at least 30 minutes in advance)","stop_id":"8040165"},"type":"Feature"},{"geometry":{"coordinates":[-79.92855,36.09692],"type":"Point"},"properties":{"kind":"stop","name":"HAECO / Harris Teeter Warehouse (call 336-883-7278 for pickup at least 30 minutes in advance)","stop_id":"8051809"},"type":"Feature"},{"geometry":{"coordinates":[-79.96177,36.10003],"type":"Point"},"properties":{"kind":"stop","name":"Airpark North (Burgess Rd) (call 336-883-7278 for pickup at least 30 minutes in advance)","stop_id":"8077462"},"type":"Feature"},{"geometry":{"coordinates":[-79.7478,36.05722],"type":"Point"},"properties":{"kind":"stop","name":"E Gate City/Aster Drive","stop_id":"8122586"},"type":"Feature"},{"geometry":{"coordinates":[-80.24567,36.09939],"type":"Point"},"properties":{"kind":"stop","name":"Winston-Salem Transportation Center (A1 or A2)","stop_id":"8631247"},"type":"Feature"},{"geometry":{"coordinates":[-79.96188,36.10028],"type":"Point"},"properties":{"kind":"stop","name":"Airpark North (Burgess Rd) (call 336-883-7278 for pickup at least 30 minutes in advance)","stop_id":"9002999"},"type":"Feature"},{"geometry":{"coordinates":[-79.95892,36.09368],"type":"Point"},"properties":{"kind":"stop","name":"Coble Transportation Center (D3)","stop_id":"9003000"},"type":"Feature"},{"geometry":{"coordinates":[-79.95269,36.09598],"type":"Point"},"properties":{"kind":"stop","name":"GTCC-AV1 (call 336-883-7278 for pickup at least 30 minutes in advance)","stop_id":"9003001"},"type":"Feature"},{"geometry":{"coordinates":[-79.95374,36.0902],"type":"Point"},"properties":{"kind":"stop","name":"Mateer Storage Trailer (call 336-883-7278 for pickup at least 30 minutes in advance)","stop_id":"9003002"},"type":"Feature"},{"geometry":{"coordinates":[-79.96217,36.06863],"type":"Point"},"properties":{"kind":"stop","name":"Out of the Garden (call 336-883-7278 for pickup at least 30 minutes in advance)","stop_id":"9003003"},"type":"Feature"},{"geometry":{"coordinates":[-79.93749,36.10482],"type":"Point"},"properties":{"kind":"stop","name":"PTI Airport Lower-Level Entrance 1 (call 336-883-7278 for pickup at least 30 minutes in advance)","stop_id":"9004708"},"type":"Feature"},{"geometry":{"coordinates":[-79.93569,36.10623],"type":"Point"},"properties":{"kind":"stop","name":"PTI Airport Lower-Level Entrance 7 (call 336-883-7278 for pickup at least 30 minutes in advance)","stop_id":"9004709"},"type":"Feature"},{"geometry":{"coordinates":[-79.96608,36.08226],"type":"Point"},"properties":{"kind":"stop","name":"Volvo Truck NA (call 336-883-7278 for pickup at least 30 minutes in advance)","stop_id":"9216579"},"type":"Feature"},{"geometry":{"coordinates":[-80.26564,36.09011],"type":"Point"},"properties":{"kind":"stop","name":"Hawthorne Rd At Baptist Medical (by parking deck)","stop_id":"9475198"},"type":"Feature"},{"geometry":{"coordinates":[-80.22779,36.09083],"type":"Point"},"properties":{"kind":"stop","name":"Martin Luther King Jr Drive at Rams Drive","stop_id":"9475696"},"type":"Feature"},{"geometry":{"coordinates":[-80.22757,36.0917],"type":"Point"},"properties":{"kind":"stop","name":"Martin Luther King Jr Drive at Cromartie Street","stop_id":"9475906"},"type":"Feature"},{"geometry":{"coordinates":[-80.29812,36.07618],"type":"Point"},"properties":{"kind":"stop","name":"Novant Forsyth Medical Center (shelter by hospital entrance)","stop_id":"9476666"},"type":"Feature"},{"geometry":{"coordinates":[-80.22768,36.09379],"type":"Point"},"properties":{"kind":"stop","name":"Martin Luther King Jr Drive At Union Station","stop_id":"9477310"},"type":"Feature"},{"geometry":{"coordinates":[-80.29852,36.07624],"type":"Point"},"properties":{"kind":"stop","name":"Novant Forsyth Medical Center (by valet parking lot)","stop_id":"9587063"},"type":"Feature"},{"geometry":{"coordinates":[-79.96987,36.13986],"type":"Point"},"properties":{"kind":"stop","name":"GTCC Cameron Campus (call 336-883-7278 for pickup at least 30 minutes in advance)","stop_id":"9783412"},"type":"Feature"},{"geometry":{"coordinates":[-79.91956,36.11853],"type":"Point"},"properties":{"kind":"stop","name":"FedEx Airport (call 336-883-7278 for pickup at least 30 minutes in advance)","stop_id":"9783413"},"type":"Feature"},{"geometry":{"coordinates":[-79.9644,36.04412],"type":"Point"},"properties":{"kind":"stop","name":"Cone Health Med Ctr High Point (call 336-883-7278 for pickup at least 30 minutes in advance)","stop_id":"9783414"},"type":"Feature"},{"geometry":{"coordinates":[-79.96481,36.02949],"type":"Point"},"properties":{"kind":"stop","name":"Walmart Precision Way (call 336-883-7278 for pickup at least 30 minutes in advance)","stop_id":"9783415"},"type":"Feature"},{"geometry":{"coordinates":[-79.99184,36.08777],"type":"Point"},"properties":{"kind":"stop","name":"Farmers Market (call 336-883-7278 for pickup at least 30 minutes in advance)","stop_id":"9783416"},"type":"Feature"},{"geometry":{"coordinates":[-79.94626,36.07585],"type":"Point"},"properties":{"kind":"stop","name":"Airpark East (call 336-883-7278 for pickup at least 30 minutes in advance)","stop_id":"9783417"},"type":"Feature"}],"type":"FeatureCollection"}
