{"features":[{"geometry":{"coordinates":[[-74.01445,40.71725],[-74.01455,40.71711],[-74.00673,40.71363],[-74.00731,40.71312],[-74.01132,40.71491],[-74.0146,40.71542],[-74.01546,40.71572],[-74.0162,40.71478],[-74.01396,40.71371],[-74.01462,40.71131],[-74.01482,40.71117],[-74.01587,40.71151],[-74.01653,40.70984],[-74.0174,40.7085],[-74.01667,40.70808],[-74.01798,40.70606],[-74.01791,40.70538],[-74.01765,40.70508],[-74.01693,40.7048],[-74.01569,40.70483],[-74.01427,40.70451],[-74.01437,40.70296],[-74.01383,40.7024],[-74.01313,40.70235],[-74.0101,40.70336],[-74.0041,40.70742],[-74.00176,40.70941],[-74.00085,40.70879],[-74.00016,40.70791],[-74.00164,40.7071]],"type":"LineString"},"properties":{"color":"#FF0000","color_name":"red","kind":"route","label":"Free Downtown Connection","long":"Free Downtown Connection","route_id":"dtconn","text_color":"#FFFFFF","type_label":"Bus"},"type":"Feature"},{"geometry":{"coordinates":[-74.01806,40.70577],"type":"Point"},"properties":{"kind":"stop","name":"Battery Pl & First Pl","stop_id":"batfirst"},"type":"Feature"},{"geometry":{"coordinates":[-74.01733,40.70729],"type":"Point"},"properties":{"kind":"stop","name":"Battery Pl & Third Pl","stop_id":"batthird"},"type":"Feature"},{"geometry":{"coordinates":[-74.01675,40.70781],"type":"Point"},"properties":{"kind":"stop","name":"Battery Pl & Third Pl","stop_id":"batthird_o"},"type":"Feature"},{"geometry":{"coordinates":[-74.01315,40.70224],"type":"Point"},"properties":{"kind":"stop","name":"State St & Whitehall St","stop_id":"battstate"},"type":"Feature"},{"geometry":{"coordinates":[-74.01536,40.70473],"type":"Point"},"properties":{"kind":"stop","name":"Battery Pl / Washington St","stop_id":"battwash"},"type":"Feature"},{"geometry":{"coordinates":[-74.01547,40.705],"type":"Point"},"properties":{"kind":"stop","name":"Battery Pl & Washington St","stop_id":"battwash_o"},"type":"Feature"},{"geometry":{"coordinates":[-74.01771,40.70522],"type":"Point"},"properties":{"kind":"stop","name":"Battery Pl & West St","stop_id":"battwest_o"},"type":"Feature"},{"geometry":{"coordinates":[-74.00746,40.71318],"type":"Point"},"properties":{"kind":"stop","name":"Murray St & Broadway","stop_id":"murbrod"},"type":"Feature"},{"geometry":{"coordinates":[-74.01038,40.71452],"type":"Point"},"properties":{"kind":"stop","name":"Murray St & Greenwich St (temp @ Broadway)","stop_id":"murgren"},"type":"Feature"},{"geometry":{"coordinates":[-74.01517,40.71584],"type":"Point"},"properties":{"kind":"stop","name":"Murray St & North End Ave","stop_id":"murnor"},"type":"Feature"},{"geometry":{"coordinates":[-74.01573,40.71559],"type":"Point"},"properties":{"kind":"stop","name":"North End Ave & Murray St","stop_id":"neavmury"},"type":"Feature"},{"geometry":{"coordinates":[-74.01418,40.71712],"type":"Point"},"properties":{"kind":"stop","name":"North End Ave & Warren St - Arrival","stop_id":"neavwar_a"},"type":"Feature"},{"geometry":{"coordinates":[-74.01452,40.71726],"type":"Point"},"properties":{"kind":"stop","name":"North End Ave & Warren St","stop_id":"neavwar_d"},"type":"Feature"},{"geometry":{"coordinates":[-74.00372,40.70763],"type":"Point"},"properties":{"kind":"stop","name":"Pearl St & Fulton St","stop_id":"pearfult"},"type":"Feature"},{"geometry":{"coordinates":[-74.016,40.71075],"type":"Point"},"properties":{"kind":"stop","name":"South End Ave & Albany St","stop_id":"seavalba"},"type":"Feature"},{"geometry":{"coordinates":[-74.01621,40.71081],"type":"Point"},"properties":{"kind":"stop","name":"South End Ave & Gateway Plz","stop_id":"seavgate"},"type":"Feature"},{"geometry":{"coordinates":[-74.01714,40.70895],"type":"Point"},"properties":{"kind":"stop","name":"South End Ave & Rector Pl","stop_id":"seavrec"},"type":"Feature"},{"geometry":{"coordinates":[-74.01667,40.70925],"type":"Point"},"properties":{"kind":"stop","name":"South End Ave & Rector Pl","stop_id":"seavrec_o"},"type":"Feature"},{"geometry":{"coordinates":[-74.01696,40.70821],"type":"Point"},"properties":{"kind":"stop","name":"West Thames St & South End Ave","stop_id":"seavwtha"},"type":"Feature"},{"geometry":{"coordinates":[-74.01718,40.70845],"type":"Point"},"properties":{"kind":"stop","name":"West Thames St & South End Ave","stop_id":"seavwtha_o"},"type":"Feature"},{"geometry":{"coordinates":[-74.00169,40.70718],"type":"Point"},"properties":{"kind":"stop","name":"South St & Peck Slip","stop_id":"soutpeck"},"type":"Feature"},{"geometry":{"coordinates":[-74.0142,40.70387],"type":"Point"},"properties":{"kind":"stop","name":"State St at Bridge St","stop_id":"statbrid"},"type":"Feature"},{"geometry":{"coordinates":[-74.01545,40.71436],"type":"Point"},"properties":{"kind":"stop","name":"Vesey St & North End Ave","stop_id":"vesworld"},"type":"Feature"},{"geometry":{"coordinates":[-74.01136,40.71569],"type":"Point"},"properties":{"kind":"stop","name":"Warren St & Greenwich St","stop_id":"wargreen"},"type":"Feature"},{"geometry":{"coordinates":[-74.008,40.71417],"type":"Point"},"properties":{"kind":"stop","name":"Warren St & Church St","stop_id":"warrchur"},"type":"Feature"},{"geometry":{"coordinates":[-74.01257,40.70249],"type":"Point"},"properties":{"kind":"stop","name":"Water St & Broad St","stop_id":"watbroad"},"type":"Feature"},{"geometry":{"coordinates":[-74.01188,40.7029],"type":"Point"},"properties":{"kind":"stop","name":"Water St & Broad St","stop_id":"watcoen"},"type":"Feature"},{"geometry":{"coordinates":[-74.00568,40.70627],"type":"Point"},"properties":{"kind":"stop","name":"Water St & Fletcher St","stop_id":"watflet"},"type":"Feature"},{"geometry":{"coordinates":[-74.00446,40.7073],"type":"Point"},"properties":{"kind":"stop","name":"Water St & Fulton St","stop_id":"watful_d"},"type":"Feature"},{"geometry":{"coordinates":[-74.00853,40.70428],"type":"Point"},"properties":{"kind":"stop","name":"Water St & Old Slip","stop_id":"watolds"},"type":"Feature"},{"geometry":{"coordinates":[-74.00669,40.7058],"type":"Point"},"properties":{"kind":"stop","name":"Water St & Pine St","stop_id":"watpine"},"type":"Feature"},{"geometry":{"coordinates":[-74.00707,40.70531],"type":"Point"},"properties":{"kind":"stop","name":"Water St & Wall St","stop_id":"watwall"},"type":"Feature"},{"geometry":{"coordinates":[-74.00862,40.70446],"type":"Point"},"properties":{"kind":"stop","name":"Water St & Gouverneur","stop_id":"watwall_o"},"type":"Feature"},{"geometry":{"coordinates":[-74.01354,40.70242],"type":"Point"},"properties":{"kind":"stop","name":"State St & Whitehall St","stop_id":"watwhit"},"type":"Feature"}],"type":"FeatureCollection"}
