{"features":[{"geometry":{"coordinates":[[-116.41092,34.12101],[-116.4101,34.12101],[-116.40997,34.12055],[-116.41504,34.12058],[-116.41494,34.12132],[-116.41383,34.12249],[-116.41399,34.12342],[-116.40489,34.12629],[-116.39608,34.12827],[-116.38686,34.13346],[-116.38456,34.13452],[-116.38306,34.13484],[-116.383,34.13428],[-116.3841,34.13423],[-116.38547,34.13374],[-116.38571,34.13404],[-116.38536,34.13421],[-116.38307,34.13485],[-116.36972,34.13491],[-116.36959,34.18071],[-116.36939,34.19301],[-116.387,34.19302],[-116.3867,34.23691],[-116.39334,34.23693],[-116.39316,34.26603],[-116.40456,34.26599],[-116.40449,34.29469],[-116.46175,34.29524],[-116.45184,34.28071],[-116.44987,34.27719],[-116.4482,34.2705],[-116.44705,34.26796],[-116.44547,34.26592],[-116.44221,34.26588],[-116.44223,34.2663],[-116.44252,34.26629],[-116.44252,34.26588],[-116.44547,34.26591],[-116.43964,34.25882],[-116.43882,34.25766],[-116.43856,34.25685],[-116.43859,34.25606],[-116.43954,34.25227],[-116.43977,34.24796],[-116.43965,34.20878],[-116.44023,34.20678],[-116.44126,34.20511],[-116.44552,34.20106],[-116.44582,34.20029],[-116.44586,34.19959],[-116.44533,34.19828],[-116.43994,34.194],[-116.43457,34.1891],[-116.43298,34.19076],[-116.43183,34.19323],[-116.43116,34.19346],[-116.40461,34.19347],[-116.40236,34.19315],[-116.36939,34.19301],[-116.36959,34.18071],[-116.36972,34.13491],[-116.38309,34.13496],[-116.383,34.13428],[-116.38409,34.13423],[-116.38547,34.13374],[-116.38572,34.13359],[-116.38573,34.13286],[-116.38661,34.13252],[-116.38727,34.13499],[-116.39591,34.13503],[-116.39604,34.13002],[-116.39577,34.12936],[-116.39522,34.12871],[-116.39656,34.1281],[-116.40529,34.12619],[-116.41415,34.12349],[-116.41393,34.12237],[-116.41495,34.12132],[-116.41504,34.12058],[-116.41095,34.12055],[-116.41094,34.12101]],"type":"LineString"},"properties":{"color":"#00A4D9","color_name":"teal","kind":"route","label":"21","long":"Landers - Yucca Valley","route_id":"344","text_color":"#000000","type_label":"Bus"},"type":"Feature"},{"geometry":{"coordinates":[[-116.06303,34.23416],[-116.06346,34.23463],[-116.05784,34.23825],[-116.06034,34.24095],[-116.06599,34.23732],[-116.06267,34.23376],[-116.06079,34.23496],[-116.05577,34.22956],[-116.05823,34.22797],[-116.0454,34.21416],[-116.04501,34.2133],[-116.04503,34.20959],[-116.04558,34.20836],[-116.04577,34.19333],[-116.04628,34.19258],[-116.04695,34.19207],[-116.05229,34.18867],[-116.05284,34.18843],[-116.05405,34.1884],[-116.05418,34.1514],[-116.05442,34.13534],[-116.05441,34.13458],[-116.05384,34.13458],[-116.05414,34.13428],[-116.05441,34.13427],[-116.05441,34.13563],[-116.05459,34.13567],[-116.06936,34.13545],[-116.09717,34.13547],[-116.14214,34.13501],[-116.22739,34.13521],[-116.33478,34.13492],[-116.38309,34.13496],[-116.383,34.13428],[-116.38409,34.13423],[-116.38553,34.13371],[-116.38572,34.13359],[-116.38573,34.13286],[-116.38592,34.13275],[-116.38661,34.13252],[-116.38686,34.13346],[-116.39608,34.12827],[-116.40512,34.12628],[-116.41017,34.12467],[-116.40941,34.12286],[-116.40938,34.12054],[-116.40997,34.12055],[-116.41001,34.12078],[-116.41129,34.12078],[-116.4112,34.12101],[-116.41092,34.12101],[-116.41092,34.12055],[-116.41504,34.12058],[-116.41494,34.12134],[-116.41389,34.12242],[-116.41408,34.12345],[-116.42364,34.12057],[-116.44118,34.12066],[-116.4578,34.11642],[-116.45775,34.11696],[-116.45731,34.11779],[-116.45685,34.11773],[-116.45731,34.11782],[-116.45777,34.11697],[-116.45783,34.11641],[-116.46907,34.11362],[-116.47523,34.11154],[-116.47831,34.11007],[-116.48135,34.10912],[-116.49241,34.10378],[-116.50942,34.09522],[-116.53665,34.07977],[-116.56887,34.0574],[-116.57382,34.05334],[-116.58681,34.04124],[-116.58896,34.03759],[-116.59131,34.03575],[-116.59189,34.03481],[-116.5919,34.03337],[-116.59029,34.03041],[-116.58929,34.02963],[-116.5864,34.02837],[-116.5855,34.02741],[-116.58523,34.02643],[-116.58535,34.02416],[-116.58384,34.02056],[-116.58159,34.01856],[-116.58085,34.01662],[-116.58027,34.01585],[-116.57943,34.01525],[-116.57706,34.01439],[-116.57616,34.01354],[-116.57527,34.01145],[-116.57515,34.00978],[-116.59369,33.95231],[-116.60188,33.919],[-116.60259,33.91775],[-116.60384,33.91675],[-116.6049,33.91631],[-116.60802,33.9159],[-116.6085,33.91543],[-116.60852,33.91495],[-116.60832,33.91461],[-116.60771,33.91431],[-116.60373,33.91417],[-116.55849,33.905],[-116.55636,33.90475],[-116.54648,33.90466],[-116.54436,33.90441],[-116.54251,33.90394],[-116.53231,33.90068],[-116.52473,33.8967],[-116.52269,33.89542],[-116.52104,33.8941],[-116.5084,33.88337],[-116.50624,33.88103],[-116.50549,33.8793],[-116.50437,33.87861],[-116.50548,33.87644],[-116.50574,33.87368],[-116.50586,33.84492],[-116.5194,33.84484],[-116.51971,33.84353],[-116.52116,33.84221],[-116.52161,33.84105],[-116.52161,33.83979],[-116.52141,33.83911],[-116.51998,33.83759],[-116.51941,33.83618],[-116.51851,33.83506],[-116.51824,33.83434],[-116.51824,33.8243],[-116.51803,33.82308],[-116.51064,33.8231],[-116.51063,33.82388],[-116.50957,33.82415],[-116.50912,33.82462],[-116.5082,33.82502],[-116.50809,33.82445],[-116.50907,33.82417]],"type":"LineString"},"properties":{"color":"#E0088C","color_name":"pink","kind":"route","label":"15","long":"MCAGCC - Palm Springs","route_id":"345","text_color":"#FFFFFF","type_label":"Bus"},"type":"Feature"},{"geometry":{"coordinates":[[-116.41093,34.12101],[-116.4113,34.12094],[-116.41129,34.12056],[-116.41303,34.12057],[-116.41301,34.11225],[-116.39013,34.11232],[-116.39015,34.11602],[-116.39003,34.11677],[-116.38945,34.11814],[-116.38942,34.12046],[-116.37861,34.12047],[-116.37859,34.12185],[-116.37811,34.12184],[-116.3786,34.12187],[-116.37862,34.12048],[-116.36994,34.12054],[-116.36972,34.13491],[-116.38309,34.13496],[-116.383,34.13428],[-116.3846,34.13407],[-116.383,34.13428],[-116.38309,34.13496],[-116.38569,34.1342],[-116.39608,34.12827],[-116.40512,34.12628],[-116.42313,34.12072],[-116.4412,34.1207],[-116.45599,34.11693],[-116.45629,34.11786],[-116.4573,34.11781],[-116.45781,34.11679],[-116.45779,34.11527],[-116.45349,34.11639],[-116.45343,34.11202],[-116.44399,34.11209],[-116.44401,34.1157],[-116.43873,34.11572],[-116.43875,34.11789],[-116.43895,34.11829],[-116.43693,34.11998],[-116.43659,34.12003],[-116.43659,34.11934],[-116.4316,34.11938],[-116.43156,34.11215],[-116.41597,34.11225],[-116.4161,34.11116],[-116.41843,34.10798],[-116.4186,34.10549],[-116.41969,34.10302],[-116.41958,34.10236],[-116.41629,34.09817],[-116.41501,34.09772],[-116.41315,34.09771],[-116.41316,34.09746],[-116.4138,34.09714],[-116.41413,34.09714],[-116.41414,34.09771],[-116.41501,34.09772],[-116.41629,34.09817],[-116.41958,34.10236],[-116.41969,34.10302],[-116.4186,34.10549],[-116.41843,34.10798],[-116.41597,34.11146],[-116.41598,34.11598],[-116.40537,34.11606],[-116.40538,34.11934],[-116.40487,34.1205],[-116.4113,34.12056],[-116.4113,34.12095],[-116.41092,34.12101]],"type":"LineString"},"properties":{"color":"#6552A2","color_name":"purple","kind":"route","label":"7B","long":"South Yucca Valley","route_id":"346","text_color":"#FFFFFF","type_label":"Bus"},"type":"Feature"},{"geometry":{"coordinates":[[-116.41092,34.12101],[-116.4101,34.12101],[-116.40997,34.12055],[-116.41504,34.12058],[-116.41494,34.12134],[-116.41389,34.12242],[-116.41408,34.12345],[-116.40463,34.12636],[-116.39656,34.1281],[-116.39504,34.12873],[-116.38509,34.13433],[-116.38306,34.13484],[-116.383,34.13428],[-116.3841,34.13423],[-116.38547,34.13374],[-116.38571,34.13404],[-116.3851,34.13432],[-116.38307,34.13485],[-116.37991,34.13494],[-116.37994,34.13949],[-116.37885,34.1395],[-116.37883,34.13526],[-116.38719,34.13524],[-116.38727,34.13499],[-116.38778,34.13497],[-116.39591,34.13503],[-116.39603,34.12972],[-116.39522,34.12871],[-116.39656,34.1281],[-116.40512,34.12628],[-116.41017,34.12467],[-116.41027,34.12491],[-116.41414,34.12376],[-116.41448,34.1258],[-116.4139,34.12854],[-116.41499,34.1279],[-116.41757,34.1279],[-116.41499,34.1279],[-116.4139,34.12854],[-116.41455,34.12532],[-116.41415,34.12349],[-116.41767,34.1224],[-116.41773,34.12273],[-116.41746,34.12365],[-116.41862,34.12357],[-116.41873,34.12389],[-116.41943,34.12397],[-116.41873,34.12389],[-116.41862,34.12357],[-116.41875,34.12346],[-116.42206,34.12248],[-116.43129,34.12244],[-116.43132,34.12852],[-116.43737,34.12855],[-116.43961,34.12797],[-116.446,34.12794],[-116.44702,34.1276],[-116.44665,34.12691],[-116.44665,34.12164],[-116.44659,34.12106],[-116.44632,34.12065],[-116.45483,34.12069],[-116.45725,34.12042],[-116.45758,34.12004],[-116.45758,34.11876],[-116.45731,34.11779],[-116.45684,34.11778],[-116.45731,34.11782],[-116.45777,34.11697],[-116.45783,34.11641],[-116.44118,34.12066],[-116.42364,34.12057],[-116.40463,34.12636],[-116.40489,34.12629],[-116.40489,34.12472],[-116.40443,34.12362],[-116.40441,34.12237],[-116.40483,34.12141],[-116.40487,34.1205],[-116.40997,34.12055],[-116.41001,34.12078],[-116.41129,34.12078],[-116.4112,34.12101],[-116.41092,34.12101]],"type":"LineString"},"properties":{"color":"#00A894","color_name":"teal","kind":"route","label":"7A","long":"North Yucca Valley","route_id":"347","text_color":"#000000","type_label":"Bus"},"type":"Feature"},{"geometry":{"coordinates":[[-116.05405,34.13435],[-116.05378,34.13458],[-116.05441,34.13459],[-116.05442,34.13557],[-116.05408,34.15488],[-116.05418,34.17931],[-116.05405,34.1884],[-116.05284,34.18843],[-116.05229,34.18867],[-116.04695,34.19207],[-116.04628,34.19258],[-116.04577,34.19333],[-116.04558,34.20836],[-116.04503,34.20959],[-116.04502,34.21182],[-116.04622,34.2117],[-116.04622,34.21101],[-116.04502,34.211],[-116.04502,34.21353],[-116.04622,34.21506],[-116.05138,34.22066],[-116.04707,34.22347],[-116.04848,34.22499],[-116.04827,34.22547],[-116.04919,34.22647],[-116.04932,34.22641],[-116.04849,34.2255],[-116.04828,34.22551],[-116.04849,34.225],[-116.05069,34.22738],[-116.05261,34.22617],[-116.05905,34.23311],[-116.06154,34.23156],[-116.06327,34.23337],[-116.06267,34.23376],[-116.06346,34.23463],[-116.05784,34.23825],[-116.06348,34.24435],[-116.06167,34.24554],[-116.06725,34.24193],[-116.05577,34.22956],[-116.05823,34.22797],[-116.0454,34.21416],[-116.04501,34.2133],[-116.04503,34.20959],[-116.04558,34.20836],[-116.04577,34.19333],[-116.04628,34.19258],[-116.04695,34.19207],[-116.05229,34.18867],[-116.05284,34.18843],[-116.05405,34.1884],[-116.05418,34.17964],[-116.05407,34.1636],[-116.05448,34.13557],[-116.05441,34.13428],[-116.05405,34.13435]],"type":"LineString"},"properties":{"color":"#8F020D","color_name":"red","kind":"route","label":"3A","long":"Twentynine Palms Marine Base","route_id":"348","text_color":"#FFFFFF","type_label":"Bus"},"type":"Feature"},{"geometry":{"coordinates":[[-116.45684,34.11778],[-116.45731,34.11782],[-116.45777,34.11697],[-116.45783,34.11641],[-116.45767,34.11638],[-116.44118,34.12066],[-116.42364,34.12057],[-116.40489,34.12629],[-116.40488,34.12455],[-116.40441,34.12326],[-116.40441,34.12237],[-116.40483,34.12141],[-116.40487,34.1205],[-116.40997,34.12055],[-116.41001,34.12078],[-116.41129,34.12078],[-116.4112,34.12101],[-116.4101,34.12101],[-116.40997,34.12055],[-116.41504,34.12058],[-116.41494,34.12134],[-116.41389,34.12242],[-116.41408,34.12345],[-116.40463,34.12636],[-116.39608,34.12827],[-116.38509,34.13433],[-116.38306,34.13484],[-116.383,34.13428],[-116.3841,34.13423],[-116.38547,34.13374],[-116.38571,34.13404],[-116.38536,34.13421],[-116.38373,34.13474],[-116.38222,34.13489],[-116.27673,34.13508],[-116.27672,34.13238],[-116.27566,34.13214],[-116.27533,34.13231],[-116.27561,34.13219],[-116.27671,34.13234],[-116.27671,34.13433],[-116.27626,34.13449],[-116.27671,34.13459],[-116.27671,34.13507],[-116.27592,34.13508],[-116.22739,34.13521],[-116.14153,34.13501],[-116.05217,34.13566],[-116.05098,34.13462],[-116.05382,34.13459],[-116.05405,34.13435],[-116.05378,34.13458],[-116.05441,34.13459],[-116.05408,34.15488],[-116.05393,34.20958],[-116.05359,34.21343],[-116.05353,34.21854],[-116.05293,34.21967],[-116.05147,34.22071],[-116.04509,34.21378],[-116.04501,34.21182],[-116.04621,34.2118],[-116.04619,34.211],[-116.04501,34.211],[-116.04501,34.21332],[-116.04509,34.21377],[-116.06325,34.23335],[-116.06266,34.23376],[-116.06302,34.23415]],"type":"LineString"},"properties":{"color":"#F89C1C","color_name":"orange","kind":"route","label":"1","long":"Yucca Valley-Twentynine Palms","route_id":"349","text_color":"#000000","type_label":"Bus"},"type":"Feature"},{"geometry":{"coordinates":[[-116.41092,34.12099],[-116.41092,34.12055],[-116.41504,34.12058],[-116.41494,34.12134],[-116.41389,34.12242],[-116.41408,34.12345],[-116.42364,34.12057],[-116.44118,34.12066],[-116.4578,34.11642],[-116.45775,34.11696],[-116.45731,34.11779],[-116.45685,34.11773],[-116.45731,34.11782],[-116.45777,34.11697],[-116.45783,34.11641],[-116.47023,34.11326],[-116.47596,34.11127],[-116.47831,34.11007],[-116.48173,34.10895],[-116.49459,34.1027],[-116.51282,34.09341],[-116.53665,34.07977],[-116.54176,34.07612],[-116.54191,34.07624],[-116.54176,34.07611],[-116.57045,34.05624],[-116.57382,34.05334],[-116.58681,34.04124],[-116.58896,34.03759],[-116.59131,34.03575],[-116.59189,34.03481],[-116.5919,34.03337],[-116.59029,34.03041],[-116.58929,34.02963],[-116.5864,34.02837],[-116.5855,34.02741],[-116.58523,34.02643],[-116.58535,34.02416],[-116.58384,34.02056],[-116.58159,34.01856],[-116.58085,34.01662],[-116.58027,34.01585],[-116.57943,34.01525],[-116.57706,34.01439],[-116.57616,34.01354],[-116.57527,34.01145],[-116.57515,34.00978],[-116.59369,33.95231],[-116.60188,33.919],[-116.60259,33.91775],[-116.60384,33.91675],[-116.6049,33.91631],[-116.60802,33.9159],[-116.6085,33.91543],[-116.60852,33.91495],[-116.60832,33.91461],[-116.60771,33.91431],[-116.60373,33.91417],[-116.55849,33.905],[-116.55636,33.90475],[-116.54648,33.90466],[-116.54436,33.90441],[-116.54251,33.90394],[-116.53231,33.90068],[-116.52473,33.8967],[-116.52269,33.89542],[-116.52104,33.8941],[-116.5084,33.88337],[-116.50624,33.88103],[-116.50549,33.8793],[-116.50437,33.87861],[-116.50548,33.87644],[-116.50574,33.87368],[-116.50586,33.84492],[-116.5194,33.84484],[-116.51971,33.84353],[-116.52116,33.84221],[-116.52161,33.84105],[-116.52161,33.83979],[-116.52141,33.83911],[-116.51998,33.83759],[-116.51941,33.83618],[-116.51851,33.83506],[-116.51824,33.83434],[-116.51824,33.8243],[-116.51803,33.82308],[-116.51064,33.8231],[-116.51063,33.82388],[-116.50957,33.82415],[-116.50912,33.82462],[-116.5082,33.82502],[-116.50809,33.82445],[-116.50907,33.82417]],"type":"LineString"},"properties":{"color":"#E0088C","color_name":"pink","kind":"route","label":"12","long":"Yucca Valley - Palm Springs","route_id":"350","text_color":"#FFFFFF","type_label":"Bus"},"type":"Feature"},{"geometry":{"coordinates":[[-116.05404,34.13432],[-116.05441,34.13427],[-116.05438,34.12836],[-116.07403,34.12814],[-116.08359,34.13241],[-116.08358,34.12809],[-116.0836,34.13429],[-116.08728,34.1343],[-116.08731,34.1341],[-116.08947,34.13511],[-116.08946,34.13546],[-116.09821,34.13541],[-116.09824,34.13876],[-116.09333,34.13874],[-116.09335,34.14551],[-116.09331,34.14591],[-116.09276,34.14688],[-116.09279,34.14967],[-116.09721,34.1497],[-116.09715,34.157],[-116.09075,34.15696],[-116.09056,34.15693],[-116.09062,34.14963],[-116.08501,34.14969],[-116.08501,34.14565],[-116.08195,34.14568],[-116.08097,34.14613],[-116.07184,34.14626],[-116.07185,34.1427],[-116.05773,34.14285],[-116.05785,34.1482],[-116.0576,34.14887],[-116.05671,34.15014],[-116.03658,34.15043],[-116.03663,34.14676],[-116.04546,34.14665],[-116.04542,34.15027],[-116.05419,34.15018],[-116.05436,34.13927],[-116.04553,34.13937],[-116.04556,34.13572],[-116.03669,34.13588],[-116.03669,34.11606],[-116.03613,34.11606],[-116.03669,34.11606],[-116.03666,34.12153],[-116.03666,34.12139],[-116.05125,34.12119],[-116.05124,34.11999],[-116.05251,34.11997],[-116.05255,34.12116],[-116.0544,34.12118],[-116.05441,34.13428],[-116.05405,34.13435]],"type":"LineString"},"properties":{"color":"#D0000A","color_name":"red","kind":"route","label":"3B","long":"Twentynine Palms Neighborhood","route_id":"351","text_color":"#FFFFFF","type_label":"Bus"},"type":"Feature"},{"geometry":{"coordinates":[-116.41092,34.12101],"type":"Point"},"properties":{"kind":"stop","name":"Yucca Valley Transit Center (Yucca Trail & Airway)","stop_id":"11798"},"type":"Feature"},{"geometry":{"coordinates":[-116.40886,34.12492],"type":"Point"},"properties":{"kind":"stop","name":"Hwy 62 & Park Hill Plaza","stop_id":"11800"},"type":"Feature"},{"geometry":{"coordinates":[-116.3937,34.26578],"type":"Point"},"properties":{"kind":"stop","name":"Landers Lane & Reche (Landers Post Office)","stop_id":"11803"},"type":"Feature"},{"geometry":{"coordinates":[-116.44255,34.26628],"type":"Point"},"properties":{"kind":"stop","name":"Hwy 247 & Reche Rd (Halliday Mkt.)","stop_id":"11804"},"type":"Feature"},{"geometry":{"coordinates":[-116.43975,34.23137],"type":"Point"},"properties":{"kind":"stop","name":"Hwy 247 & Starlight Mesa (Hero's Mkt)","stop_id":"11805"},"type":"Feature"},{"geometry":{"coordinates":[-116.36989,34.1932],"type":"Point"},"properties":{"kind":"stop","name":"Aberdeen & Yucca Mesa Rd","stop_id":"11806"},"type":"Feature"},{"geometry":{"coordinates":[-116.4398,34.24789],"type":"Point"},"properties":{"kind":"stop","name":"Hwy 247 & Mira Rd (Mojave Mkt.)","stop_id":"11808"},"type":"Feature"},{"geometry":{"coordinates":[-116.06299,34.23418],"type":"Point"},"properties":{"kind":"stop","name":"Bourke & 6th","stop_id":"11809"},"type":"Feature"},{"geometry":{"coordinates":[-116.06007,34.24083],"type":"Point"},"properties":{"kind":"stop","name":"Building 1664 (8th St & Griffin)","stop_id":"11810"},"type":"Feature"},{"geometry":{"coordinates":[-116.05405,34.13435],"type":"Point"},"properties":{"kind":"stop","name":"29 Palms Transit Center (Adobe & Cactus)","stop_id":"11812"},"type":"Feature"},{"geometry":{"coordinates":[-116.31476,34.13478],"type":"Point"},"properties":{"kind":"stop","name":"Hwy 62 & Park Blvd","stop_id":"11814"},"type":"Feature"},{"geometry":{"coordinates":[-116.40942,34.12147],"type":"Point"},"properties":{"kind":"stop","name":"Yucca Trail & Airway","stop_id":"11815"},"type":"Feature"},{"geometry":{"coordinates":[-116.39964,34.11223],"type":"Point"},"properties":{"kind":"stop","name":"Onaga & Victoria","stop_id":"11816"},"type":"Feature"},{"geometry":{"coordinates":[-116.37812,34.12197],"type":"Point"},"properties":{"kind":"stop","name":"Indio & Yucca Trail (Montery Bus. Ctr)","stop_id":"11817"},"type":"Feature"},{"geometry":{"coordinates":[-116.38778,34.13502],"type":"Point"},"properties":{"kind":"stop","name":"Paxton & Avalon","stop_id":"11818"},"type":"Feature"},{"geometry":{"coordinates":[-116.40556,34.12622],"type":"Point"},"properties":{"kind":"stop","name":"Hwy 62 & Warren Vista (McDonalds)","stop_id":"11819"},"type":"Feature"},{"geometry":{"coordinates":[-116.41732,34.12235],"type":"Point"},"properties":{"kind":"stop","name":"Hwy 62 & Dumosa (Bank of America)","stop_id":"11821"},"type":"Feature"},{"geometry":{"coordinates":[-116.42275,34.12094],"type":"Point"},"properties":{"kind":"stop","name":"Hwy 62 & Sage (Arco Station)","stop_id":"11822"},"type":"Feature"},{"geometry":{"coordinates":[-116.43353,34.12052],"type":"Point"},"properties":{"kind":"stop","name":"Hwy 62 & Cholla (Cinema 6)","stop_id":"11823"},"type":"Feature"},{"geometry":{"coordinates":[-116.43546,34.12078],"type":"Point"},"properties":{"kind":"stop","name":"Hwy 62 & Church St. (Hi Desert Car Wash)","stop_id":"11824"},"type":"Feature"},{"geometry":{"coordinates":[-116.44566,34.11968],"type":"Point"},"properties":{"kind":"stop","name":"Hwy 62 & Pioneertown Rd.","stop_id":"11826"},"type":"Feature"},{"geometry":{"coordinates":[-116.44732,34.11926],"type":"Point"},"properties":{"kind":"stop","name":"Hwy 62 & Elk (Diamond Automotive)","stop_id":"11827"},"type":"Feature"},{"geometry":{"coordinates":[-116.45177,34.11811],"type":"Point"},"properties":{"kind":"stop","name":"Hwy 62 & Hopi (Dr.s Office)","stop_id":"11828"},"type":"Feature"},{"geometry":{"coordinates":[-116.45686,34.11766],"type":"Point"},"properties":{"kind":"stop","name":"Hwy 62 & Kickapoo (Park & Ride)","stop_id":"11829"},"type":"Feature"},{"geometry":{"coordinates":[-116.43586,34.11929],"type":"Point"},"properties":{"kind":"stop","name":"Church & Pima (DPSS)","stop_id":"11830"},"type":"Feature"},{"geometry":{"coordinates":[-116.42564,34.11205],"type":"Point"},"properties":{"kind":"stop","name":"Onaga & Grand (YV High School)","stop_id":"11831"},"type":"Feature"},{"geometry":{"coordinates":[-116.41071,34.12001],"type":"Point"},"properties":{"kind":"stop","name":"Joshua View & Yucca Trail","stop_id":"11832"},"type":"Feature"},{"geometry":{"coordinates":[-116.45231,34.11771],"type":"Point"},"properties":{"kind":"stop","name":"Hwy 62 & Hopi (Dr.s Bldg)","stop_id":"11834"},"type":"Feature"},{"geometry":{"coordinates":[-116.44856,34.11865],"type":"Point"},"properties":{"kind":"stop","name":"Hwy 62 & Fox (Valero Mkt)","stop_id":"11835"},"type":"Feature"},{"geometry":{"coordinates":[-116.44701,34.1191],"type":"Point"},"properties":{"kind":"stop","name":"Hwy 62 & Elk (C&S Caf )","stop_id":"11836"},"type":"Feature"},{"geometry":{"coordinates":[-116.44517,34.11952],"type":"Point"},"properties":{"kind":"stop","name":"Hwy 62 & Cherokee (Hat Rack Motel)","stop_id":"11837"},"type":"Feature"},{"geometry":{"coordinates":[-116.44178,34.1204],"type":"Point"},"properties":{"kind":"stop","name":"Hwy 62 & Apache (Yucca Rental)","stop_id":"11838"},"type":"Feature"},{"geometry":{"coordinates":[-116.43908,34.12056],"type":"Point"},"properties":{"kind":"stop","name":"Hwy 62 & Acoma (Rib Co.)","stop_id":"11839"},"type":"Feature"},{"geometry":{"coordinates":[-116.43627,34.12053],"type":"Point"},"properties":{"kind":"stop","name":"Hwy 62 & Church (YV Physical Therapy)","stop_id":"11840"},"type":"Feature"},{"geometry":{"coordinates":[-116.43127,34.12052],"type":"Point"},"properties":{"kind":"stop","name":"Hwy 62 & Palm (Auto Zone)","stop_id":"11841"},"type":"Feature"},{"geometry":{"coordinates":[-116.42627,34.12051],"type":"Point"},"properties":{"kind":"stop","name":"Hwy 62 & Trojan Lane (CA Welcome Center)","stop_id":"11843"},"type":"Feature"},{"geometry":{"coordinates":[-116.4137,34.12345],"type":"Point"},"properties":{"kind":"stop","name":"Hwy 62 & Joshua Lane (Chase Bank)","stop_id":"11846"},"type":"Feature"},{"geometry":{"coordinates":[-116.41177,34.12447],"type":"Point"},"properties":{"kind":"stop","name":"Hwy 62 & Airway","stop_id":"11847"},"type":"Feature"},{"geometry":{"coordinates":[-116.40459,34.12624],"type":"Point"},"properties":{"kind":"stop","name":"Hwy 62 & Warren Vista","stop_id":"11848"},"type":"Feature"},{"geometry":{"coordinates":[-116.38743,34.13299],"type":"Point"},"properties":{"kind":"stop","name":"Hwy 62 & Avalon","stop_id":"11849"},"type":"Feature"},{"geometry":{"coordinates":[-116.35137,34.13483],"type":"Point"},"properties":{"kind":"stop","name":"Hwy 62 & Joshua Tree Memorial Park","stop_id":"11850"},"type":"Feature"},{"geometry":{"coordinates":[-116.31451,34.13517],"type":"Point"},"properties":{"kind":"stop","name":"Hwy 62 & Park Blvd","stop_id":"11851"},"type":"Feature"},{"geometry":{"coordinates":[-116.30814,34.13486],"type":"Point"},"properties":{"kind":"stop","name":"Hwy 62 & Bonair","stop_id":"11852"},"type":"Feature"},{"geometry":{"coordinates":[-116.27523,34.13221],"type":"Point"},"properties":{"kind":"stop","name":"Hwy 62 & Whitefeather Rd (Hi- Desert Medical Center)","stop_id":"11853"},"type":"Feature"},{"geometry":{"coordinates":[-116.24741,34.13503],"type":"Point"},"properties":{"kind":"stop","name":"Hwy 62 & Sunfair","stop_id":"11854"},"type":"Feature"},{"geometry":{"coordinates":[-116.22993,34.13509],"type":"Point"},"properties":{"kind":"stop","name":"Hwy 62 & Cascade","stop_id":"11855"},"type":"Feature"},{"geometry":{"coordinates":[-116.22324,34.13506],"type":"Point"},"properties":{"kind":"stop","name":"Hwy 62 & Sierra","stop_id":"11856"},"type":"Feature"},{"geometry":{"coordinates":[-116.21366,34.14149],"type":"Point"},"properties":{"kind":"stop","name":"Hwy 62 & Rotary Way (Copper Mountain College)","stop_id":"11857"},"type":"Feature"},{"geometry":{"coordinates":[-116.18604,34.13493],"type":"Point"},"properties":{"kind":"stop","name":"Hwy 62 & Petersen (Fraternal Order of Eagles)","stop_id":"11858"},"type":"Feature"},{"geometry":{"coordinates":[-116.15449,34.1349],"type":"Point"},"properties":{"kind":"stop","name":"Hwy 62 & Indian Cove","stop_id":"11859"},"type":"Feature"},{"geometry":{"coordinates":[-116.15269,34.13491],"type":"Point"},"properties":{"kind":"stop","name":"Hwy 62 & Monte Vista","stop_id":"11860"},"type":"Feature"},{"geometry":{"coordinates":[-116.12686,34.13499],"type":"Point"},"properties":{"kind":"stop","name":"Hwy 62 & Timothy","stop_id":"11861"},"type":"Feature"},{"geometry":{"coordinates":[-116.11737,34.13502],"type":"Point"},"properties":{"kind":"stop","name":"Hwy 62 & Valley View (Bella Vista)","stop_id":"11862"},"type":"Feature"},{"geometry":{"coordinates":[-116.09806,34.13529],"type":"Point"},"properties":{"kind":"stop","name":"29 Palms Stater Bros (Hwy 62 & Encelia)","stop_id":"11863"},"type":"Feature"},{"geometry":{"coordinates":[-116.09156,34.13537],"type":"Point"},"properties":{"kind":"stop","name":"Hwy 62 & Cahuilla Ave","stop_id":"11864"},"type":"Feature"},{"geometry":{"coordinates":[-116.08682,34.13529],"type":"Point"},"properties":{"kind":"stop","name":"Hwy 62 & Estrella (Rite Aid)","stop_id":"11865"},"type":"Feature"},{"geometry":{"coordinates":[-116.08448,34.13533],"type":"Point"},"properties":{"kind":"stop","name":"Hwy 62 & EL Sol (Carousel Caf )","stop_id":"11866"},"type":"Feature"},{"geometry":{"coordinates":[-116.07999,34.13535],"type":"Point"},"properties":{"kind":"stop","name":"Hwy 62 & 49 Palms Rd (Motel 6)","stop_id":"11867"},"type":"Feature"},{"geometry":{"coordinates":[-116.07555,34.13557],"type":"Point"},"properties":{"kind":"stop","name":"Hwy 62 & Star Dune (29 Medical)","stop_id":"11868"},"type":"Feature"},{"geometry":{"coordinates":[-116.07218,34.1353],"type":"Point"},"properties":{"kind":"stop","name":"Hwy 62 & Mesquite Springs Rd.","stop_id":"11869"},"type":"Feature"},{"geometry":{"coordinates":[-116.05983,34.13544],"type":"Point"},"properties":{"kind":"stop","name":"Hwy 62 & Desert Queen (Chevron)","stop_id":"11870"},"type":"Feature"},{"geometry":{"coordinates":[-116.05849,34.13547],"type":"Point"},"properties":{"kind":"stop","name":"Hwy 62 & Tamarisk","stop_id":"11871"},"type":"Feature"},{"geometry":{"coordinates":[-116.0568,34.13548],"type":"Point"},"properties":{"kind":"stop","name":"Hwy 62 & Smoke Tree","stop_id":"11872"},"type":"Feature"},{"geometry":{"coordinates":[-116.05378,34.13574],"type":"Point"},"properties":{"kind":"stop","name":"Hwy 62 & Adobe","stop_id":"11873"},"type":"Feature"},{"geometry":{"coordinates":[-116.05427,34.13651],"type":"Point"},"properties":{"kind":"stop","name":"Adobe & Mc Donalds","stop_id":"11875"},"type":"Feature"},{"geometry":{"coordinates":[-116.05421,34.13828],"type":"Point"},"properties":{"kind":"stop","name":"Adobe & Alamo Storage","stop_id":"11876"},"type":"Feature"},{"geometry":{"coordinates":[-116.05419,34.13942],"type":"Point"},"properties":{"kind":"stop","name":"Adobe & Gorgonio (Pacific Bank)","stop_id":"11877"},"type":"Feature"},{"geometry":{"coordinates":[-116.05415,34.14257],"type":"Point"},"properties":{"kind":"stop","name":"Adobe & City Hall (across the street)","stop_id":"11878"},"type":"Feature"},{"geometry":{"coordinates":[-116.05411,34.14458],"type":"Point"},"properties":{"kind":"stop","name":"Adobe & South Slope","stop_id":"11879"},"type":"Feature"},{"geometry":{"coordinates":[-116.05406,34.14782],"type":"Point"},"properties":{"kind":"stop","name":"Adobe & Desert Trail","stop_id":"11880"},"type":"Feature"},{"geometry":{"coordinates":[-116.05403,34.15062],"type":"Point"},"properties":{"kind":"stop","name":"Adobe & Two Mile Rd. (Circle K)","stop_id":"11881"},"type":"Feature"},{"geometry":{"coordinates":[-116.05399,34.16713],"type":"Point"},"properties":{"kind":"stop","name":"Adobe & Amboy Rd (Fun Zone)","stop_id":"11882"},"type":"Feature"},{"geometry":{"coordinates":[-116.05418,34.18705],"type":"Point"},"properties":{"kind":"stop","name":"Adobe & Indian Trail (DMV @ Himalaya Plaza)","stop_id":"11883"},"type":"Feature"},{"geometry":{"coordinates":[-116.0539,34.18719],"type":"Point"},"properties":{"kind":"stop","name":"Adobe & Indian Trail (DMV @ Himalaya Plaza)","stop_id":"11884"},"type":"Feature"},{"geometry":{"coordinates":[-116.04625,34.21138],"type":"Point"},"properties":{"kind":"stop","name":"Devalle & Mineral (Commissary)","stop_id":"11885"},"type":"Feature"},{"geometry":{"coordinates":[-116.04932,34.22647],"type":"Point"},"properties":{"kind":"stop","name":"Sturgis & 1st St. (Hospital)","stop_id":"11886"},"type":"Feature"},{"geometry":{"coordinates":[-116.05434,34.17964],"type":"Point"},"properties":{"kind":"stop","name":"Adobe & Mesa (Rad Wheels)","stop_id":"11889"},"type":"Feature"},{"geometry":{"coordinates":[-116.05423,34.1636],"type":"Point"},"properties":{"kind":"stop","name":"Adobe & Amboy Rd (Adobe Liquor)","stop_id":"11890"},"type":"Feature"},{"geometry":{"coordinates":[-116.054,34.15972],"type":"Point"},"properties":{"kind":"stop","name":"Adobe & Blue Horizon Apts","stop_id":"11891"},"type":"Feature"},{"geometry":{"coordinates":[-116.05437,34.14988],"type":"Point"},"properties":{"kind":"stop","name":"Adobe & Two Mile Rd. (Combat Barber)","stop_id":"11892"},"type":"Feature"},{"geometry":{"coordinates":[-116.0545,34.1424],"type":"Point"},"properties":{"kind":"stop","name":"Adobe & City Hall","stop_id":"11893"},"type":"Feature"},{"geometry":{"coordinates":[-116.05449,34.14067],"type":"Point"},"properties":{"kind":"stop","name":"Adobe & Buena Vista","stop_id":"11894"},"type":"Feature"},{"geometry":{"coordinates":[-116.05455,34.1378],"type":"Point"},"properties":{"kind":"stop","name":"Adobe & Joshua Dr. (Cleaners)","stop_id":"11895"},"type":"Feature"},{"geometry":{"coordinates":[-116.05357,34.13551],"type":"Point"},"properties":{"kind":"stop","name":"Hwy 62 & Adobe Rd. (Rocky's Pizza)","stop_id":"11896"},"type":"Feature"},{"geometry":{"coordinates":[-116.05399,34.17174],"type":"Point"},"properties":{"kind":"stop","name":"Adobe & Raymond (Adobe Villas)","stop_id":"11897"},"type":"Feature"},{"geometry":{"coordinates":[-116.05669,34.1357],"type":"Point"},"properties":{"kind":"stop","name":"Hwy 62 & Smoketree (Jelly Donut)","stop_id":"11898"},"type":"Feature"},{"geometry":{"coordinates":[-116.05752,34.13569],"type":"Point"},"properties":{"kind":"stop","name":"Hwy 62 & Yucca Ave (Ranch Market)","stop_id":"11899"},"type":"Feature"},{"geometry":{"coordinates":[-116.05955,34.13567],"type":"Point"},"properties":{"kind":"stop","name":"Hwy 62 & Desert Trail (AM/PM)","stop_id":"11900"},"type":"Feature"},{"geometry":{"coordinates":[-116.07651,34.13532],"type":"Point"},"properties":{"kind":"stop","name":"Hwy 62 & Juniper (29 Medical)","stop_id":"11901"},"type":"Feature"},{"geometry":{"coordinates":[-116.07965,34.13557],"type":"Point"},"properties":{"kind":"stop","name":"Hwy 62 & La Buena Tierra ( Motel 6)","stop_id":"11902"},"type":"Feature"},{"geometry":{"coordinates":[-116.0843,34.13557],"type":"Point"},"properties":{"kind":"stop","name":"Hwy 62 & Alpine (Carousel Caf )","stop_id":"11903"},"type":"Feature"},{"geometry":{"coordinates":[-116.09982,34.13549],"type":"Point"},"properties":{"kind":"stop","name":"Hwy 62 & Panorama Dr (Edge O Town Mobile home Pk)","stop_id":"11904"},"type":"Feature"},{"geometry":{"coordinates":[-116.12421,34.13523],"type":"Point"},"properties":{"kind":"stop","name":"Hwy 62 & Canyon (Hi-Desert Animal Hosp)","stop_id":"11905"},"type":"Feature"},{"geometry":{"coordinates":[-116.12662,34.13517],"type":"Point"},"properties":{"kind":"stop","name":"Hwy 62 & Timothy Ave.","stop_id":"11906"},"type":"Feature"},{"geometry":{"coordinates":[-116.15537,34.13516],"type":"Point"},"properties":{"kind":"stop","name":"Hwy 62 & Indian Cove (Indian Cove Mkt)","stop_id":"11907"},"type":"Feature"},{"geometry":{"coordinates":[-116.18506,34.13526],"type":"Point"},"properties":{"kind":"stop","name":"Hwy 62 & Midway (Frat. Order of Eagles)","stop_id":"11908"},"type":"Feature"},{"geometry":{"coordinates":[-116.22332,34.13529],"type":"Point"},"properties":{"kind":"stop","name":"Hwy 62 & Sierra","stop_id":"11909"},"type":"Feature"},{"geometry":{"coordinates":[-116.22993,34.13531],"type":"Point"},"properties":{"kind":"stop","name":"Hwy 62 & Cascade Rd.","stop_id":"11910"},"type":"Feature"},{"geometry":{"coordinates":[-116.24766,34.13526],"type":"Point"},"properties":{"kind":"stop","name":"Hwy 62 & Sunfair Rd.","stop_id":"11911"},"type":"Feature"},{"geometry":{"coordinates":[-116.27782,34.1352],"type":"Point"},"properties":{"kind":"stop","name":"White Feather Rd. & Hwy 62 (Medical Buildings)","stop_id":"11912"},"type":"Feature"},{"geometry":{"coordinates":[-116.27657,34.13433],"type":"Point"},"properties":{"kind":"stop","name":"White Feather Rd. & Hwy 62 (County Courthouse)","stop_id":"11913"},"type":"Feature"},{"geometry":{"coordinates":[-116.30901,34.13509],"type":"Point"},"properties":{"kind":"stop","name":"Hwy 62 & Sunburst","stop_id":"11914"},"type":"Feature"},{"geometry":{"coordinates":[-116.42846,34.12052],"type":"Point"},"properties":{"kind":"stop","name":"Hwy 62 & Grand (Ideal Mall)","stop_id":"11915"},"type":"Feature"},{"geometry":{"coordinates":[-116.44333,34.12026],"type":"Point"},"properties":{"kind":"stop","name":"Hwy 62 & Bannock (Triangle Market)","stop_id":"11916"},"type":"Feature"},{"geometry":{"coordinates":[-116.44603,34.11935],"type":"Point"},"properties":{"kind":"stop","name":"Hwy 62 & Pioneertown Rd.","stop_id":"11917"},"type":"Feature"},{"geometry":{"coordinates":[-116.45523,34.11698],"type":"Point"},"properties":{"kind":"stop","name":"Hwy 62 & Inca","stop_id":"11918"},"type":"Feature"},{"geometry":{"coordinates":[-116.05425,34.17163],"type":"Point"},"properties":{"kind":"stop","name":"Adobe & Raymond Way (Adobe Villas)","stop_id":"11920"},"type":"Feature"},{"geometry":{"coordinates":[-116.08291,34.13217],"type":"Point"},"properties":{"kind":"stop","name":"Hatch & EL Sol (TP Water District)","stop_id":"11921"},"type":"Feature"},{"geometry":{"coordinates":[-116.08362,34.12809],"type":"Point"},"properties":{"kind":"stop","name":"EL Sol & Sullivan (Knotts Sky Park)","stop_id":"11922"},"type":"Feature"},{"geometry":{"coordinates":[-116.08905,34.13558],"type":"Point"},"properties":{"kind":"stop","name":"Estrella & Cactus (Rite-Aid)","stop_id":"11923"},"type":"Feature"},{"geometry":{"coordinates":[-116.09323,34.13745],"type":"Point"},"properties":{"kind":"stop","name":"Lupine & Joshua Dr","stop_id":"11924"},"type":"Feature"},{"geometry":{"coordinates":[-116.09331,34.14551],"type":"Point"},"properties":{"kind":"stop","name":"Lupine & Sunnyslope","stop_id":"11925"},"type":"Feature"},{"geometry":{"coordinates":[-116.09315,34.14974],"type":"Point"},"properties":{"kind":"stop","name":"Lupine & Two Mile Rd","stop_id":"11926"},"type":"Feature"},{"geometry":{"coordinates":[-116.09594,34.14973],"type":"Point"},"properties":{"kind":"stop","name":"Two Mile Rd. & Chia","stop_id":"11927"},"type":"Feature"},{"geometry":{"coordinates":[-116.0971,34.1498],"type":"Point"},"properties":{"kind":"stop","name":"Two Mile Rd. & Daisy","stop_id":"11928"},"type":"Feature"},{"geometry":{"coordinates":[-116.09686,34.15688],"type":"Point"},"properties":{"kind":"stop","name":"Daisy & Samarkand","stop_id":"11929"},"type":"Feature"},{"geometry":{"coordinates":[-116.09075,34.15689],"type":"Point"},"properties":{"kind":"stop","name":"Samarkand & Mariposa","stop_id":"11930"},"type":"Feature"},{"geometry":{"coordinates":[-116.08515,34.14957],"type":"Point"},"properties":{"kind":"stop","name":"Two Mile Rd. & Alpine","stop_id":"11931"},"type":"Feature"},{"geometry":{"coordinates":[-116.07198,34.14299],"type":"Point"},"properties":{"kind":"stop","name":"El Paseo Apts (Mesquite Springs & EL Paseo)","stop_id":"11932"},"type":"Feature"},{"geometry":{"coordinates":[-116.05768,34.14301],"type":"Point"},"properties":{"kind":"stop","name":"El Paseo & Bagley","stop_id":"11933"},"type":"Feature"},{"geometry":{"coordinates":[-116.05771,34.14461],"type":"Point"},"properties":{"kind":"stop","name":"Bagley & Sun Valley","stop_id":"11934"},"type":"Feature"},{"geometry":{"coordinates":[-116.05758,34.14874],"type":"Point"},"properties":{"kind":"stop","name":"Bagley & Desert Trail","stop_id":"11935"},"type":"Feature"},{"geometry":{"coordinates":[-116.03702,34.15039],"type":"Point"},"properties":{"kind":"stop","name":"Two Mile Rd. & Utah Trail (Luckie Park)","stop_id":"11936"},"type":"Feature"},{"geometry":{"coordinates":[-116.03858,34.14684],"type":"Point"},"properties":{"kind":"stop","name":"Joe Davis & Luckie ( Luckie Park)","stop_id":"11937"},"type":"Feature"},{"geometry":{"coordinates":[-116.05122,34.13923],"type":"Point"},"properties":{"kind":"stop","name":"Gorgonio & Mesquite (Post Office)","stop_id":"11938"},"type":"Feature"},{"geometry":{"coordinates":[-116.03678,34.11877],"type":"Point"},"properties":{"kind":"stop","name":"Utah Trail & Sunset","stop_id":"11939"},"type":"Feature"},{"geometry":{"coordinates":[-116.03655,34.12153],"type":"Point"},"properties":{"kind":"stop","name":"Baseline & Utah Trail","stop_id":"11940"},"type":"Feature"},{"geometry":{"coordinates":[-116.41459,34.12072],"type":"Point"},"properties":{"kind":"stop","name":"Yucca Trail & Joshua Lane (Post Office)","stop_id":"11941"},"type":"Feature"},{"geometry":{"coordinates":[-116.3791,34.13944],"type":"Point"},"properties":{"kind":"stop","name":"Barron & Indio","stop_id":"11942"},"type":"Feature"},{"geometry":{"coordinates":[-116.39613,34.13002],"type":"Point"},"properties":{"kind":"stop","name":"Balsa & Diadem (Dollar Tree )","stop_id":"11943"},"type":"Feature"},{"geometry":{"coordinates":[-116.41956,34.12397],"type":"Point"},"properties":{"kind":"stop","name":"Antelope Trail & Barberry (Town Hall)","stop_id":"11944"},"type":"Feature"},{"geometry":{"coordinates":[-116.44051,34.12796],"type":"Point"},"properties":{"kind":"stop","name":"Sunnyslope & Mohawk (Mohawk Apts)","stop_id":"11945"},"type":"Feature"},{"geometry":{"coordinates":[-116.45415,34.12075],"type":"Point"},"properties":{"kind":"stop","name":"Yucca Trail & Inca","stop_id":"11946"},"type":"Feature"},{"geometry":{"coordinates":[-116.54186,34.07628],"type":"Point"},"properties":{"kind":"stop","name":"MV Country Market (Hwy 62 & Lanning Lane)","stop_id":"11948"},"type":"Feature"},{"geometry":{"coordinates":[-116.58076,34.04702],"type":"Point"},"properties":{"kind":"stop","name":"Hwy 62 & Senilis","stop_id":"11949"},"type":"Feature"},{"geometry":{"coordinates":[-116.58361,34.04435],"type":"Point"},"properties":{"kind":"stop","name":"MV Circle K (Hwy 62 & Rosella)","stop_id":"11950"},"type":"Feature"},{"geometry":{"coordinates":[-116.50908,33.82409],"type":"Point"},"properties":{"kind":"stop","name":"Palm Springs Airport","stop_id":"11951"},"type":"Feature"},{"geometry":{"coordinates":[-116.54546,33.82461],"type":"Point"},"properties":{"kind":"stop","name":"Indian & Andreas (Casino)","stop_id":"11952"},"type":"Feature"},{"geometry":{"coordinates":[-116.54542,33.83852],"type":"Point"},"properties":{"kind":"stop","name":"Indian Canyon & Tachevah (Hospital)","stop_id":"11953"},"type":"Feature"},{"geometry":{"coordinates":[-116.57986,34.0475],"type":"Point"},"properties":{"kind":"stop","name":"Morongo Valley Post Office","stop_id":"11954"},"type":"Feature"},{"geometry":{"coordinates":[-116.05419,34.16],"type":"Point"},"properties":{"kind":"stop","name":"Adobe & Blue Horizon Apts","stop_id":"11955"},"type":"Feature"},{"geometry":{"coordinates":[-116.45357,34.11764],"type":"Point"},"properties":{"kind":"stop","name":"Hwy 62 & Inca","stop_id":"12439"},"type":"Feature"},{"geometry":{"coordinates":[-116.42443,34.12048],"type":"Point"},"properties":{"kind":"stop","name":"Hwy 62 & Sage (Big Lots)","stop_id":"12440"},"type":"Feature"},{"geometry":{"coordinates":[-116.42978,34.12078],"type":"Point"},"properties":{"kind":"stop","name":"Hwy 62 & Grand @ Cowboy Corral","stop_id":"12460"},"type":"Feature"},{"geometry":{"coordinates":[-116.43371,34.1208],"type":"Point"},"properties":{"kind":"stop","name":"Hwy 62 & Cholla (Across from Cinema 6)","stop_id":"12461"},"type":"Feature"},{"geometry":{"coordinates":[-116.40504,34.12599],"type":"Point"},"properties":{"kind":"stop","name":"Warren Vista & Hwy 62","stop_id":"12462"},"type":"Feature"},{"geometry":{"coordinates":[-116.18578,34.04111],"type":"Point"},"properties":{"kind":"stop","name":"Boy Scout Trailhead","stop_id":"2322280"},"type":"Feature"},{"geometry":{"coordinates":[-116.16762,34.01258],"type":"Point"},"properties":{"kind":"stop","name":"Hidden Valley","stop_id":"2322281"},"type":"Feature"},{"geometry":{"coordinates":[-116.14238,34.025],"type":"Point"},"properties":{"kind":"stop","name":"Barker Dam","stop_id":"2322282"},"type":"Feature"},{"geometry":{"coordinates":[-116.13627,34.00273],"type":"Point"},"properties":{"kind":"stop","name":"Ryan Mountain","stop_id":"2322283"},"type":"Feature"},{"geometry":{"coordinates":[-116.06783,33.9917],"type":"Point"},"properties":{"kind":"stop","name":"Jumbo Rocks","stop_id":"2322285"},"type":"Feature"},{"geometry":{"coordinates":[-116.31534,34.13378],"type":"Point"},"properties":{"kind":"stop","name":"Joshua Tree Visitor Center","stop_id":"2323038"},"type":"Feature"},{"geometry":{"coordinates":[-116.03736,34.12862],"type":"Point"},"properties":{"kind":"stop","name":"Oasis Visitor Center","stop_id":"2323043"},"type":"Feature"},{"geometry":{"coordinates":[-116.16311,34.01592],"type":"Point"},"properties":{"kind":"stop","name":"Intersection Rock (Hidden Valley)","stop_id":"2323759"},"type":"Feature"},{"geometry":{"coordinates":[-116.07693,34.13563],"type":"Point"},"properties":{"kind":"stop","name":"Holiday Inn","stop_id":"2440827"},"type":"Feature"},{"geometry":{"coordinates":[-116.41374,34.09716],"type":"Point"},"properties":{"kind":"stop","name":"Joshua Springs School","stop_id":"2448637"},"type":"Feature"},{"geometry":{"coordinates":[-116.36988,34.12325],"type":"Point"},"properties":{"kind":"stop","name":"La Contenta Middle School","stop_id":"2448638"},"type":"Feature"},{"geometry":{"coordinates":[-116.36969,34.13267],"type":"Point"},"properties":{"kind":"stop","name":"Sky High School","stop_id":"2448639"},"type":"Feature"},{"geometry":{"coordinates":[-116.052,34.12004],"type":"Point"},"properties":{"kind":"stop","name":"Tortoise Rock Casino","stop_id":"2455806"},"type":"Feature"},{"geometry":{"coordinates":[-116.09807,34.13553],"type":"Point"},"properties":{"kind":"stop","name":"29 Palms Stater Bros (Hwy 62 & Encelia)","stop_id":"2455810"},"type":"Feature"},{"geometry":{"coordinates":[-116.58339,34.04422],"type":"Point"},"properties":{"kind":"stop","name":"MV Circle K (Hwy 62 & Rosella)","stop_id":"2455811"},"type":"Feature"},{"geometry":{"coordinates":[-116.54165,34.07604],"type":"Point"},"properties":{"kind":"stop","name":"MV Country Market (Hwy 62 & Lanning Lane)","stop_id":"2455812"},"type":"Feature"},{"geometry":{"coordinates":[-116.14496,33.9987],"type":"Point"},"properties":{"kind":"stop","name":"Hall of Horrors","stop_id":"2505574"},"type":"Feature"},{"geometry":{"coordinates":[-116.16365,33.98927],"type":"Point"},"properties":{"kind":"stop","name":"Cap Rock","stop_id":"2505575"},"type":"Feature"},{"geometry":{"coordinates":[-116.17513,34.02562],"type":"Point"},"properties":{"kind":"stop","name":"Hemingway","stop_id":"2505576"},"type":"Feature"},{"geometry":{"coordinates":[-116.19771,34.04032],"type":"Point"},"properties":{"kind":"stop","name":"Quail Springs Picnic Area","stop_id":"2505577"},"type":"Feature"},{"geometry":{"coordinates":[-116.15479,33.98348],"type":"Point"},"properties":{"kind":"stop","name":"Ryan Campground","stop_id":"2505578"},"type":"Feature"},{"geometry":{"coordinates":[-116.0811,34.13133],"type":"Point"},"properties":{"kind":"stop","name":"Hatch & El Rey","stop_id":"4249128"},"type":"Feature"},{"geometry":{"coordinates":[-116.06161,34.24548],"type":"Point"},"properties":{"kind":"stop","name":"10th & Griffin (Chow Hall)","stop_id":"4249129"},"type":"Feature"},{"geometry":{"coordinates":[-116.08708,34.13433],"type":"Point"},"properties":{"kind":"stop","name":"Cactus & Estrella (Rite Aid)","stop_id":"4249130"},"type":"Feature"},{"geometry":{"coordinates":[-116.09358,34.1387],"type":"Point"},"properties":{"kind":"stop","name":"Gorgonio & Lupine","stop_id":"4249131"},"type":"Feature"},{"geometry":{"coordinates":[-116.04542,34.14688],"type":"Point"},"properties":{"kind":"stop","name":"Desert Knoll & Joe Davis","stop_id":"4249132"},"type":"Feature"},{"geometry":{"coordinates":[-116.05779,34.14811],"type":"Point"},"properties":{"kind":"stop","name":"Bagley & Sunnyslope","stop_id":"4249133"},"type":"Feature"},{"geometry":{"coordinates":[-116.08933,34.14955],"type":"Point"},"properties":{"kind":"stop","name":"2 Mile & Morongo","stop_id":"4249134"},"type":"Feature"},{"geometry":{"coordinates":[-116.04777,34.15016],"type":"Point"},"properties":{"kind":"stop","name":"2 Mile & Aztec Apartments","stop_id":"4249135"},"type":"Feature"},{"geometry":{"coordinates":[-116.38456,34.13401],"type":"Point"},"properties":{"kind":"stop","name":"Walmart Center","stop_id":"4249136"},"type":"Feature"},{"geometry":{"coordinates":[-116.41756,34.12794],"type":"Point"},"properties":{"kind":"stop","name":"Sunnyslope & Albian","stop_id":"4249137"},"type":"Feature"},{"geometry":{"coordinates":[-116.03613,34.11603],"type":"Point"},"properties":{"kind":"stop","name":"Sunrise & Utah Trail","stop_id":"4249138"},"type":"Feature"},{"geometry":{"coordinates":[-116.06296,34.23415],"type":"Point"},"properties":{"kind":"stop","name":"Bourke & 6th 2","stop_id":"4249139"},"type":"Feature"},{"geometry":{"coordinates":[-116.32498,34.13508],"type":"Point"},"properties":{"kind":"stop","name":"Hwy 62 & Halle Rd.","stop_id":"4249141"},"type":"Feature"},{"geometry":{"coordinates":[-116.58249,34.04508],"type":"Point"},"properties":{"kind":"stop","name":"MV Post Office","stop_id":"4249142"},"type":"Feature"},{"geometry":{"coordinates":[-116.43979,34.2336],"type":"Point"},"properties":{"kind":"stop","name":"OWS & Dollar General","stop_id":"4249143"},"type":"Feature"},{"geometry":{"coordinates":[-116.08772,34.13557],"type":"Point"},"properties":{"kind":"stop","name":"Hwy 62 & Larrea Ave (Taco Bell)","stop_id":"4249144"},"type":"Feature"},{"geometry":{"coordinates":[-116.40819,34.1254],"type":"Point"},"properties":{"kind":"stop","name":"Hwy 62 & Airway (Vons)","stop_id":"4249145"},"type":"Feature"},{"geometry":{"coordinates":[-116.07755,34.13557],"type":"Point"},"properties":{"kind":"stop","name":"Hwy 62 & Datura (Dollar General)","stop_id":"4249146"},"type":"Feature"},{"geometry":{"coordinates":[-116.40494,34.12548],"type":"Point"},"properties":{"kind":"stop","name":"Warren Vista & Hwy 62 (Rite Aid)","stop_id":"4249147"},"type":"Feature"},{"geometry":{"coordinates":[-116.39613,34.12837],"type":"Point"},"properties":{"kind":"stop","name":"Hwy 62 & Balsa","stop_id":"4249148"},"type":"Feature"},{"geometry":{"coordinates":[-116.32432,34.13484],"type":"Point"},"properties":{"kind":"stop","name":"Hwy 62 & Hallee Rd (2)","stop_id":"4249149"},"type":"Feature"},{"geometry":{"coordinates":[-116.42636,34.12074],"type":"Point"},"properties":{"kind":"stop","name":"Hwy 62 & Grand","stop_id":"4249150"},"type":"Feature"},{"geometry":{"coordinates":[-116.40978,34.12468],"type":"Point"},"properties":{"kind":"stop","name":"Hwy 62 & Park Hill Plaza 2","stop_id":"4249151"},"type":"Feature"},{"geometry":{"coordinates":[-116.17012,34.13522],"type":"Point"},"properties":{"kind":"stop","name":"Hwy 62 & Montonya Rd","stop_id":"4249152"},"type":"Feature"},{"geometry":{"coordinates":[-116.45147,34.11791],"type":"Point"},"properties":{"kind":"stop","name":"Hwy 62 & Geronimo Trl. (Dr. Office)","stop_id":"4249153"},"type":"Feature"},{"geometry":{"coordinates":[-116.17005,34.135],"type":"Point"},"properties":{"kind":"stop","name":"Hwy 62 & Montonya Rd (2)","stop_id":"4249154"},"type":"Feature"},{"geometry":{"coordinates":[-116.54186,34.07628],"type":"Point"},"properties":{"kind":"stop","name":"MV Country Market (Hwy 62 & Lanning Lane)","stop_id":"4249155"},"type":"Feature"},{"geometry":{"coordinates":[-116.44058,34.12076],"type":"Point"},"properties":{"kind":"stop","name":"Hwy 62 & Mohawk Trl. (Tire Pros)","stop_id":"4249156"},"type":"Feature"},{"geometry":{"coordinates":[-116.41649,34.12282],"type":"Point"},"properties":{"kind":"stop","name":"Hwy 62 & Dumosa (Carls Jr.)","stop_id":"4249157"},"type":"Feature"},{"geometry":{"coordinates":[-116.40607,34.12582],"type":"Point"},"properties":{"kind":"stop","name":"Hwy 62 & Warren Vista (2)","stop_id":"4249158"},"type":"Feature"},{"geometry":{"coordinates":[-116.09784,34.13552],"type":"Point"},"properties":{"kind":"stop","name":"29 Palms Stater Bros (Hwy 62 & Encelia)","stop_id":"4249159"},"type":"Feature"},{"geometry":{"coordinates":[-116.08992,34.13536],"type":"Point"},"properties":{"kind":"stop","name":"Hwy 62 & Hatch Rd.","stop_id":"4249160"},"type":"Feature"},{"geometry":{"coordinates":[-116.07556,34.13535],"type":"Point"},"properties":{"kind":"stop","name":"Hwy 62 & Datura Ave","stop_id":"4249161"},"type":"Feature"},{"geometry":{"coordinates":[-116.38459,34.13419],"type":"Point"},"properties":{"kind":"stop","name":"Walmart Center","stop_id":"4249162"},"type":"Feature"},{"geometry":{"coordinates":[-116.54169,34.07603],"type":"Point"},"properties":{"kind":"stop","name":"MV Country Market - Hwy 62 & Lanning Lane","stop_id":"4249163"},"type":"Feature"},{"geometry":{"coordinates":[-116.41372,34.12347],"type":"Point"},"properties":{"kind":"stop","name":"Hwy 62 & Joshua Lane (Chase Bank) 2","stop_id":"4249164"},"type":"Feature"},{"geometry":{"coordinates":[-116.35169,34.13505],"type":"Point"},"properties":{"kind":"stop","name":"Hwy 62 & Olympic Rd. (Cemetery)","stop_id":"4249165"},"type":"Feature"},{"geometry":{"coordinates":[-116.58361,34.04434],"type":"Point"},"properties":{"kind":"stop","name":"MV Circle K (Hwy 62 & Rosella)","stop_id":"4249166"},"type":"Feature"},{"geometry":{"coordinates":[-116.45468,34.11711],"type":"Point"},"properties":{"kind":"stop","name":"Hwy 62 & Inca","stop_id":"4249168"},"type":"Feature"},{"geometry":{"coordinates":[-116.22994,34.13509],"type":"Point"},"properties":{"kind":"stop","name":"Hwy 62 & Cascade","stop_id":"4249169"},"type":"Feature"},{"geometry":{"coordinates":[-116.31477,34.13477],"type":"Point"},"properties":{"kind":"stop","name":"Hwy 62 & Park Blvd","stop_id":"4249170"},"type":"Feature"},{"geometry":{"coordinates":[-116.39571,34.12828],"type":"Point"},"properties":{"kind":"stop","name":"Hwy 62 & Balsa (Walgreens)","stop_id":"4249172"},"type":"Feature"},{"geometry":{"coordinates":[-116.0542,34.1872],"type":"Point"},"properties":{"kind":"stop","name":"Adobe & Indian Trail (DMV @ Himalaya Plaza)","stop_id":"4249174"},"type":"Feature"},{"geometry":{"coordinates":[-116.24741,34.13503],"type":"Point"},"properties":{"kind":"stop","name":"Hwy 62 & Sunfair","stop_id":"4249175"},"type":"Feature"},{"geometry":{"coordinates":[-116.05391,34.187],"type":"Point"},"properties":{"kind":"stop","name":"Adobe & Indian Trail (DMV @ Himalaya Plaza)","stop_id":"4249176"},"type":"Feature"},{"geometry":{"coordinates":[-116.05425,34.15904],"type":"Point"},"properties":{"kind":"stop","name":"Adobe & Blue Horizon Apts","stop_id":"4249177"},"type":"Feature"},{"geometry":{"coordinates":[-116.22332,34.13528],"type":"Point"},"properties":{"kind":"stop","name":"Hwy 62 & Sierra","stop_id":"4249178"},"type":"Feature"},{"geometry":{"coordinates":[-116.22323,34.13505],"type":"Point"},"properties":{"kind":"stop","name":"Hwy 62 & Sierra","stop_id":"4249180"},"type":"Feature"},{"geometry":{"coordinates":[-116.08367,34.13232],"type":"Point"},"properties":{"kind":"stop","name":"El Sol Ave & Hatch Rd","stop_id":"4249200"},"type":"Feature"},{"geometry":{"coordinates":[-116.05442,34.14752],"type":"Point"},"properties":{"kind":"stop","name":"Adobe & Desert Trail","stop_id":"4251908"},"type":"Feature"},{"geometry":{"coordinates":[-116.43118,34.12702],"type":"Point"},"properties":{"kind":"stop","name":"Brehms Park","stop_id":"4258430"},"type":"Feature"}],"type":"FeatureCollection"}
