{"features":[{"geometry":{"coordinates":[[-91.5353,41.66005],[-91.53017,41.66004],[-91.53024,41.65396],[-91.53099,41.65285],[-91.53198,41.65026],[-91.53201,41.64609],[-91.53222,41.64544],[-91.52783,41.64422],[-91.52804,41.64067],[-91.52492,41.64065],[-91.52494,41.63908],[-91.5205,41.63905],[-91.52052,41.63799],[-91.52097,41.6374],[-91.52009,41.63693],[-91.51835,41.637],[-91.51833,41.63536],[-91.51169,41.63537],[-91.51174,41.63347],[-91.49981,41.63341],[-91.49939,41.63359],[-91.49753,41.63532],[-91.49363,41.63303],[-91.49041,41.63154],[-91.49048,41.6314],[-91.49041,41.63154],[-91.48085,41.62746],[-91.4803,41.62788],[-91.48049,41.62823],[-91.48035,41.63055],[-91.48291,41.63065],[-91.48286,41.6364],[-91.48508,41.63641],[-91.48836,41.6377],[-91.4892,41.63761],[-91.48956,41.63706],[-91.48873,41.63539],[-91.48875,41.63497],[-91.49109,41.63182],[-91.49363,41.63303],[-91.4974,41.63543],[-91.49939,41.63359],[-91.49981,41.63341],[-91.51174,41.63347],[-91.51169,41.63537],[-91.51833,41.63536],[-91.51835,41.637],[-91.52009,41.63693],[-91.52097,41.6374],[-91.52052,41.63799],[-91.5205,41.63905],[-91.52494,41.63908],[-91.52492,41.64065],[-91.52804,41.64067],[-91.52797,41.64373],[-91.52761,41.64477],[-91.52758,41.64582],[-91.53203,41.64586],[-91.53198,41.65026],[-91.53099,41.65285],[-91.53025,41.6539],[-91.53022,41.65659],[-91.53774,41.65663],[-91.53771,41.65937],[-91.53772,41.65791],[-91.53464,41.65787],[-91.53462,41.66004],[-91.5353,41.66005]],"type":"LineString"},"properties":{"color":"#F8EA01","color_name":"yellow","kind":"route","label":"1","long":"South Iowa City","route_id":"19519","text_color":"#000000","type_label":"Bus"},"type":"Feature"},{"geometry":{"coordinates":[[-91.5353,41.66005],[-91.53017,41.66005],[-91.5302,41.65784],[-91.51641,41.6578],[-91.50459,41.64966],[-91.50416,41.64954],[-91.50344,41.64954],[-91.50346,41.65678],[-91.48061,41.65705],[-91.4751,41.65695],[-91.47115,41.65754],[-91.47117,41.65833],[-91.47048,41.6596],[-91.46969,41.65968],[-91.469,41.66017],[-91.46883,41.66233],[-91.47003,41.66273],[-91.47091,41.66329],[-91.47322,41.66333],[-91.47325,41.65854],[-91.47361,41.65781],[-91.47359,41.6572],[-91.47416,41.65704],[-91.50346,41.65678],[-91.50344,41.64954],[-91.50416,41.64954],[-91.50459,41.64966],[-91.51641,41.6578],[-91.53772,41.6579],[-91.5377,41.66014],[-91.53528,41.66007]],"type":"LineString"},"properties":{"color":"#907920","color_name":"brown","kind":"route","label":"2","long":"Court Street","route_id":"19520","text_color":"#000000","type_label":"Bus"},"type":"Feature"},{"geometry":{"coordinates":[[-91.51024,41.64249],[-91.50866,41.64244],[-91.50865,41.64294],[-91.50815,41.64328],[-91.50647,41.64193],[-91.50333,41.64299],[-91.50233,41.64378],[-91.50198,41.64468],[-91.50199,41.65387],[-91.50697,41.6539],[-91.5116,41.65524],[-91.51161,41.65675],[-91.50867,41.65676],[-91.50865,41.65917],[-91.5088,41.65957],[-91.50924,41.65985],[-91.51164,41.65999],[-91.51179,41.6639],[-91.50809,41.66369],[-91.50712,41.66381],[-91.50563,41.66449],[-91.50326,41.66597],[-91.49986,41.6668],[-91.4978,41.66789],[-91.49681,41.66781],[-91.4948,41.66673],[-91.49318,41.66646],[-91.49078,41.66684],[-91.48707,41.66782],[-91.48685,41.66719],[-91.48717,41.66632],[-91.48717,41.66508],[-91.48599,41.66422],[-91.48595,41.66211],[-91.48389,41.6607],[-91.48387,41.6601],[-91.48458,41.6601],[-91.48467,41.657],[-91.47486,41.65696],[-91.47171,41.6575],[-91.46912,41.65752],[-91.46909,41.65598],[-91.47009,41.65313],[-91.46998,41.65203],[-91.46898,41.65071],[-91.46914,41.64756],[-91.47606,41.64971],[-91.48204,41.64979],[-91.48294,41.64998],[-91.4839,41.64979],[-91.49874,41.64958],[-91.49873,41.64745],[-91.49228,41.64751],[-91.49108,41.64691],[-91.49122,41.64647],[-91.4911,41.64606],[-91.49006,41.64478],[-91.48857,41.64563],[-91.48735,41.64587],[-91.48287,41.64517],[-91.48289,41.63065],[-91.48311,41.62968],[-91.48369,41.6287],[-91.49218,41.6323],[-91.4942,41.63337],[-91.49738,41.63542],[-91.49939,41.63357],[-91.5,41.63338],[-91.5047,41.63342],[-91.5046,41.63387],[-91.50296,41.63537],[-91.50471,41.63628],[-91.5117,41.63616],[-91.5117,41.63538],[-91.51834,41.63534],[-91.51834,41.63699],[-91.52009,41.63693],[-91.52097,41.6374],[-91.52052,41.63803],[-91.52047,41.64103],[-91.52007,41.64186],[-91.51679,41.64114],[-91.51163,41.64107],[-91.51161,41.64303]],"type":"LineString"},"properties":{"color":"#6B1B4A","color_name":"brown","kind":"route","label":"3A","long":"AM Eastside Loop","route_id":"19521","text_color":"#FFFFFF","type_label":"Bus"},"type":"Feature"},{"geometry":{"coordinates":[[-91.50322,41.66608],[-91.50489,41.6649],[-91.50713,41.6638],[-91.50809,41.66369],[-91.51179,41.6639],[-91.51164,41.65999],[-91.50924,41.65985],[-91.50873,41.65946],[-91.50866,41.65886],[-91.5109,41.65905],[-91.51242,41.65884],[-91.51783,41.65879],[-91.50451,41.64963],[-91.49874,41.64958],[-91.49874,41.64627],[-91.50199,41.64632],[-91.502,41.64455],[-91.50252,41.64355],[-91.50333,41.64299],[-91.50647,41.64193],[-91.507,41.64149],[-91.50745,41.6407],[-91.50447,41.63956],[-91.4975,41.63531],[-91.49971,41.63341],[-91.5047,41.63342],[-91.5046,41.63387],[-91.50296,41.63537],[-91.50452,41.63625],[-91.5117,41.63616],[-91.5117,41.63538],[-91.51834,41.63534],[-91.51834,41.63699],[-91.52009,41.63693],[-91.52097,41.6374],[-91.52052,41.63803],[-91.52047,41.64103],[-91.52007,41.64186],[-91.51679,41.64114],[-91.51014,41.64106],[-91.50745,41.6407],[-91.50447,41.63956],[-91.49296,41.63269],[-91.48369,41.6287],[-91.48311,41.62968],[-91.48289,41.63065],[-91.48278,41.64967],[-91.4813,41.64979],[-91.47582,41.64967],[-91.46915,41.64756],[-91.46889,41.64797],[-91.46898,41.65071],[-91.46998,41.65203],[-91.47009,41.65313],[-91.46909,41.65598],[-91.46903,41.65751],[-91.47171,41.6575],[-91.47486,41.65696],[-91.48467,41.657],[-91.48458,41.6601],[-91.48387,41.6601],[-91.48389,41.6607],[-91.48595,41.66211],[-91.48599,41.66422],[-91.48717,41.66508],[-91.48717,41.66632],[-91.48685,41.66719],[-91.48707,41.66782],[-91.49078,41.66684],[-91.49318,41.66646],[-91.4948,41.66673],[-91.49681,41.66781],[-91.49766,41.66791],[-91.4997,41.66686],[-91.50138,41.66644]],"type":"LineString"},"properties":{"color":"#6B1B4A","color_name":"brown","kind":"route","label":"3P","long":"PM Eastside Loop","route_id":"19522","text_color":"#FFFFFF","type_label":"Bus"},"type":"Feature"},{"geometry":{"coordinates":[[-91.5353,41.66005],[-91.52578,41.66],[-91.52585,41.6541],[-91.53022,41.65412],[-91.53024,41.65659],[-91.53774,41.65663],[-91.5377,41.66014],[-91.53528,41.66007]],"type":"LineString"},"properties":{"color":"#3F86CD","color_name":"teal","kind":"route","label":"4","long":"Downtown Shuttle","route_id":"19523","text_color":"#000000","type_label":"Bus"},"type":"Feature"},{"geometry":{"coordinates":[[-91.53549,41.66021],[-91.5377,41.66014],[-91.53774,41.65663],[-91.53021,41.65658],[-91.53022,41.65412],[-91.52585,41.6541],[-91.52616,41.64944],[-91.51564,41.64939],[-91.50418,41.64005],[-91.50264,41.63909],[-91.50392,41.63817],[-91.50088,41.63631],[-91.50035,41.63671],[-91.49775,41.63509],[-91.49939,41.63359],[-91.5,41.63341],[-91.50001,41.63129],[-91.50059,41.63028],[-91.50001,41.63129],[-91.5,41.63341],[-91.49949,41.63352],[-91.49775,41.63509],[-91.49759,41.635],[-91.49953,41.63619],[-91.49775,41.63509],[-91.4974,41.63543],[-91.50299,41.63886],[-91.50391,41.63817],[-91.50404,41.63824],[-91.50391,41.63817],[-91.50264,41.6391],[-91.50418,41.64005],[-91.51564,41.64939],[-91.52616,41.64944],[-91.52586,41.65411],[-91.53022,41.65412],[-91.53024,41.65659],[-91.53774,41.65663],[-91.5377,41.66014],[-91.53548,41.66012]],"type":"LineString"},"properties":{"color":"#E1098A","color_name":"pink","kind":"route","label":"5","long":"Lower Muscatine","route_id":"19524","text_color":"#FFFFFF","type_label":"Bus"},"type":"Feature"},{"geometry":{"coordinates":[[-91.5353,41.66005],[-91.53462,41.6601],[-91.5346,41.66249],[-91.53308,41.66247],[-91.53295,41.67114],[-91.53265,41.67291],[-91.53261,41.67527],[-91.53213,41.67746],[-91.5323,41.67823],[-91.53287,41.67907],[-91.53483,41.68053],[-91.53529,41.68108],[-91.53599,41.68093],[-91.54085,41.68142],[-91.54303,41.68081],[-91.54506,41.68],[-91.55227,41.6799],[-91.55315,41.67931],[-91.55322,41.67792],[-91.55358,41.67737],[-91.55421,41.67713],[-91.55642,41.67724],[-91.55706,41.67656],[-91.55538,41.67593],[-91.55473,41.67675],[-91.55469,41.67714],[-91.55395,41.67718],[-91.55338,41.67757],[-91.55315,41.67931],[-91.5524,41.67986],[-91.54506,41.68],[-91.54303,41.68081],[-91.54085,41.68142],[-91.53787,41.68114],[-91.53876,41.68256],[-91.53997,41.68397],[-91.54045,41.68427],[-91.53997,41.68397],[-91.53876,41.68256],[-91.53787,41.68114],[-91.53587,41.68093],[-91.53539,41.68104],[-91.53375,41.67986],[-91.5329,41.67909],[-91.53233,41.67825],[-91.53211,41.67729],[-91.53266,41.67586],[-91.5328,41.67483],[-91.53265,41.67299],[-91.53296,41.67019],[-91.53306,41.66357],[-91.53457,41.6636],[-91.53462,41.6601],[-91.53529,41.66007]],"type":"LineString"},"properties":{"color":"#F39BD1","color_name":"white","kind":"route","label":"6","long":"Peninsula","route_id":"19525","text_color":"#000000","type_label":"Bus"},"type":"Feature"},{"geometry":{"coordinates":[[-91.5353,41.66005],[-91.53462,41.6601],[-91.5346,41.66249],[-91.52282,41.66238],[-91.5227,41.67154],[-91.52309,41.6725],[-91.52314,41.6743],[-91.52119,41.6753],[-91.51691,41.67683],[-91.50789,41.68129],[-91.50747,41.68066],[-91.50679,41.67839],[-91.50586,41.67739],[-91.505,41.67697],[-91.50396,41.67674],[-91.5011,41.67693],[-91.50131,41.67717],[-91.50252,41.67681],[-91.50396,41.67674],[-91.505,41.67697],[-91.50586,41.67739],[-91.50679,41.67839],[-91.50747,41.68066],[-91.50789,41.68129],[-91.50085,41.68489],[-91.49962,41.68615],[-91.49721,41.69014],[-91.49695,41.69006],[-91.4965,41.68941],[-91.4962,41.68811],[-91.49559,41.68808],[-91.49553,41.68789],[-91.49618,41.68795],[-91.4965,41.68941],[-91.49679,41.68992],[-91.49736,41.69019],[-91.50025,41.68581],[-91.50135,41.68471],[-91.51688,41.67684],[-91.52097,41.6754],[-91.52314,41.6743],[-91.52457,41.6729],[-91.52561,41.67136],[-91.52573,41.66354],[-91.53764,41.66362],[-91.53768,41.66251],[-91.53459,41.66246],[-91.53463,41.6601],[-91.5355,41.66011]],"type":"LineString"},"properties":{"color":"#6EB82E","color_name":"gray","kind":"route","label":"7","long":"North Dodge","route_id":"19526","text_color":"#000000","type_label":"Bus"},"type":"Feature"},{"geometry":{"coordinates":[[-91.53549,41.66021],[-91.5377,41.66014],[-91.53772,41.6579],[-91.54201,41.65815],[-91.5456,41.65867],[-91.54601,41.65801],[-91.54599,41.65686],[-91.55494,41.65689],[-91.55966,41.65572],[-91.55951,41.6518],[-91.55702,41.65181],[-91.55459,41.65208],[-91.55229,41.65177],[-91.55176,41.65206],[-91.55138,41.65334],[-91.5511,41.65361],[-91.54838,41.65362],[-91.54827,41.65324],[-91.5489,41.65276],[-91.54857,41.65222],[-91.54986,41.65151],[-91.55036,41.65042],[-91.55948,41.65045],[-91.55966,41.65572],[-91.55476,41.65691],[-91.5438,41.65682],[-91.54353,41.65704],[-91.54372,41.65811],[-91.54343,41.65829],[-91.54169,41.65795],[-91.53463,41.65787],[-91.53462,41.6601],[-91.5355,41.66012]],"type":"LineString"},"properties":{"color":"#C5145A","color_name":"red","kind":"route","label":"8","long":"Oakcrest","route_id":"19527","text_color":"#FFFFFF","type_label":"Bus"},"type":"Feature"},{"geometry":{"coordinates":[[-91.5353,41.66005],[-91.53017,41.66005],[-91.5302,41.65784],[-91.51641,41.6578],[-91.50451,41.64963],[-91.49874,41.64958],[-91.49874,41.64744],[-91.4924,41.64753],[-91.49108,41.64691],[-91.48948,41.64772],[-91.48754,41.64815],[-91.48766,41.64888],[-91.4875,41.64974],[-91.50441,41.64959],[-91.51641,41.6578],[-91.53772,41.65791],[-91.5377,41.66013],[-91.53529,41.6601]],"type":"LineString"},"properties":{"color":"#F03A4D","color_name":"red","kind":"route","label":"9","long":"Towncrest","route_id":"19528","text_color":"#000000","type_label":"Bus"},"type":"Feature"},{"geometry":{"coordinates":[[-91.53549,41.66021],[-91.5377,41.66014],[-91.53768,41.6613],[-91.54316,41.66131],[-91.54368,41.66174],[-91.54356,41.66298],[-91.54395,41.66329],[-91.54644,41.6633],[-91.54909,41.66241],[-91.55031,41.66335],[-91.55337,41.66402],[-91.55414,41.66292],[-91.55438,41.66213],[-91.55312,41.66163],[-91.5516,41.66172],[-91.55087,41.66141],[-91.54994,41.65957],[-91.54992,41.6569],[-91.55494,41.65689],[-91.56165,41.65535],[-91.574,41.65702],[-91.57406,41.64221],[-91.5728,41.64022],[-91.57017,41.63743],[-91.56881,41.63693],[-91.56615,41.63678],[-91.56583,41.63778],[-91.56584,41.64088],[-91.56634,41.64114],[-91.56749,41.64116],[-91.56811,41.64085],[-91.56824,41.6384],[-91.56799,41.637],[-91.56921,41.63713],[-91.57044,41.63765],[-91.5728,41.64022],[-91.57397,41.642],[-91.57418,41.64276],[-91.57414,41.64572],[-91.57842,41.6461],[-91.57847,41.64744],[-91.5775,41.64754],[-91.57765,41.64933],[-91.58039,41.64903],[-91.58059,41.64818],[-91.58118,41.64783],[-91.58073,41.64712],[-91.5807,41.64612],[-91.58635,41.64616],[-91.58748,41.64598],[-91.58782,41.64659],[-91.58963,41.64794],[-91.58978,41.64883],[-91.59122,41.64887],[-91.59259,41.64938],[-91.59542,41.64941],[-91.59592,41.64958],[-91.59816,41.64872],[-91.59855,41.6483],[-91.5987,41.64772],[-91.59879,41.64461],[-91.59865,41.64381],[-91.58653,41.64615],[-91.57713,41.64609],[-91.57414,41.64572],[-91.57386,41.65687],[-91.56959,41.65617],[-91.56165,41.65535],[-91.55494,41.65689],[-91.54993,41.6569],[-91.54994,41.65957],[-91.55087,41.66141],[-91.5516,41.66172],[-91.55312,41.66163],[-91.55438,41.66213],[-91.55414,41.66292],[-91.55337,41.66402],[-91.55044,41.66339],[-91.54911,41.66251],[-91.54644,41.6633],[-91.54395,41.66329],[-91.54356,41.66298],[-91.54366,41.6617],[-91.54288,41.66124],[-91.53769,41.66123],[-91.53767,41.66251],[-91.5346,41.66249],[-91.53463,41.6601],[-91.5355,41.66011]],"type":"LineString"},"properties":{"color":"#F9A10F","color_name":"yellow","kind":"route","label":"10","long":"West Iowa City","route_id":"19529","text_color":"#000000","type_label":"Bus"},"type":"Feature"},{"geometry":{"coordinates":[[-91.5353,41.66005],[-91.53462,41.6601],[-91.5346,41.66249],[-91.51964,41.66237],[-91.51944,41.66247],[-91.51942,41.66394],[-91.5104,41.66392],[-91.5074,41.66374],[-91.50552,41.66456],[-91.50307,41.66606],[-91.4998,41.66682],[-91.49778,41.66788],[-91.49693,41.66784],[-91.49453,41.66665],[-91.49285,41.66647],[-91.49078,41.66684],[-91.48355,41.66874],[-91.48294,41.66702],[-91.48291,41.66238],[-91.48266,41.66151],[-91.48198,41.66027],[-91.48211,41.66022],[-91.48484,41.66013],[-91.48636,41.66096],[-91.48694,41.66107],[-91.49081,41.66099],[-91.49237,41.66054],[-91.49851,41.6605],[-91.49846,41.66138],[-91.4974,41.66278],[-91.49711,41.66463],[-91.49598,41.66555],[-91.49576,41.66662],[-91.49547,41.66701],[-91.49664,41.66773],[-91.49751,41.66792],[-91.4982,41.66776],[-91.49986,41.6668],[-91.50307,41.66606],[-91.50552,41.66456],[-91.5074,41.66374],[-91.5104,41.66392],[-91.52066,41.66395],[-91.52144,41.6635],[-91.53457,41.66359],[-91.53458,41.66263],[-91.53475,41.66263],[-91.53458,41.66263],[-91.53462,41.6601],[-91.53524,41.66006]],"type":"LineString"},"properties":{"color":"#B29286","color_name":"gray","kind":"route","label":"11","long":"Rochester","route_id":"19530","text_color":"#000000","type_label":"Bus"},"type":"Feature"},{"geometry":{"coordinates":[[-91.53549,41.66021],[-91.5377,41.66014],[-91.53772,41.65791],[-91.54196,41.65815],[-91.54044,41.65366],[-91.54014,41.64756],[-91.5488,41.64744],[-91.55213,41.64685],[-91.55491,41.6456],[-91.55514,41.64545],[-91.55479,41.64517],[-91.55382,41.64501],[-91.55269,41.64595],[-91.55052,41.64464],[-91.54969,41.64511],[-91.54996,41.64561],[-91.54992,41.64732],[-91.55262,41.64669],[-91.55409,41.64607],[-91.55555,41.64516],[-91.55871,41.64213],[-91.55977,41.64283],[-91.56009,41.64334],[-91.55897,41.64691],[-91.55941,41.64872],[-91.55948,41.65045],[-91.56175,41.65046],[-91.56376,41.64964],[-91.57409,41.64963],[-91.57406,41.65082],[-91.57532,41.65092],[-91.5763,41.65072],[-91.57711,41.65115],[-91.57819,41.65129],[-91.57835,41.65153],[-91.57821,41.6546],[-91.57758,41.65595],[-91.57758,41.65695],[-91.574,41.65687],[-91.57409,41.64963],[-91.56376,41.64964],[-91.56175,41.65046],[-91.55948,41.65045],[-91.55941,41.64872],[-91.55897,41.64691],[-91.56008,41.64324],[-91.55961,41.64271],[-91.55846,41.642],[-91.55523,41.64508],[-91.5538,41.64501],[-91.55269,41.64595],[-91.55052,41.64464],[-91.54969,41.64511],[-91.54996,41.64561],[-91.54992,41.64719],[-91.54014,41.64745],[-91.54044,41.65366],[-91.54179,41.65799],[-91.53772,41.65791],[-91.53771,41.65937],[-91.53772,41.65791],[-91.53464,41.65787],[-91.53463,41.66008],[-91.53531,41.66009]],"type":"LineString"},"properties":{"color":"#1B592D","color_name":"green","kind":"route","label":"12","long":"Highway 1","route_id":"19531","text_color":"#FFFFFF","type_label":"Bus"},"type":"Feature"},{"geometry":{"coordinates":[[-91.53549,41.66021],[-91.5377,41.66014],[-91.53774,41.65663],[-91.5362,41.65662],[-91.53626,41.65111],[-91.53483,41.65099],[-91.53474,41.64975],[-91.53456,41.64948],[-91.532,41.64945],[-91.53209,41.6457],[-91.53318,41.64419],[-91.53351,41.6432],[-91.53352,41.64092],[-91.53323,41.63892],[-91.53208,41.636],[-91.52992,41.63282],[-91.52725,41.62832],[-91.52851,41.62797],[-91.52997,41.62794],[-91.53533,41.62917],[-91.53864,41.6295],[-91.53838,41.6342],[-91.53897,41.63427],[-91.53964,41.63349],[-91.54233,41.63142],[-91.54073,41.62995],[-91.53956,41.62955],[-91.53533,41.62917],[-91.52997,41.62794],[-91.52851,41.62797],[-91.52725,41.62832],[-91.52992,41.63282],[-91.53208,41.636],[-91.53277,41.63747],[-91.53329,41.63918],[-91.53352,41.64092],[-91.53351,41.64326],[-91.53319,41.64417],[-91.53203,41.64586],[-91.532,41.64944],[-91.53319,41.64959],[-91.53324,41.65084],[-91.53343,41.65107],[-91.53626,41.65111],[-91.53621,41.65662],[-91.53774,41.65663],[-91.5377,41.66014],[-91.53528,41.66007]],"type":"LineString"},"properties":{"color":"#53635E","color_name":"gray","kind":"route","label":"13","long":"South Gilbert","route_id":"19532","text_color":"#FFFFFF","type_label":"Bus"},"type":"Feature"},{"geometry":{"coordinates":[-91.50346,41.65683],"type":"Point"},"properties":{"kind":"stop","name":"2nd Ave & Court St","stop_id":"1"},"type":"Feature"},{"geometry":{"coordinates":[-91.50331,41.65673],"type":"Point"},"properties":{"kind":"stop","name":"2nd Ave & Court St","stop_id":"11074355"},"type":"Feature"},{"geometry":{"coordinates":[-91.53549,41.66021],"type":"Point"},"properties":{"kind":"stop","name":"Downtown Interchange","stop_id":"2534044"},"type":"Feature"},{"geometry":{"coordinates":[-91.5353,41.66005],"type":"Point"},"properties":{"kind":"stop","name":"Downtown Interchange","stop_id":"2534045"},"type":"Feature"},{"geometry":{"coordinates":[-91.54039,41.66112],"type":"Point"},"properties":{"kind":"stop","name":"Iowa Ave @ UI English Philosophy Building","stop_id":"2534046"},"type":"Feature"},{"geometry":{"coordinates":[-91.5384,41.66137],"type":"Point"},"properties":{"kind":"stop","name":"Iowa Ave @ Hubbard Park","stop_id":"2534047"},"type":"Feature"},{"geometry":{"coordinates":[-91.54866,41.66269],"type":"Point"},"properties":{"kind":"stop","name":"Newton Rd - VA Hospital","stop_id":"2534049"},"type":"Feature"},{"geometry":{"coordinates":[-91.54837,41.6626],"type":"Point"},"properties":{"kind":"stop","name":"Newton Rd - VA Hospital","stop_id":"2534050"},"type":"Feature"},{"geometry":{"coordinates":[-91.54502,41.66322],"type":"Point"},"properties":{"kind":"stop","name":"Newton Rd - MERF","stop_id":"2534051"},"type":"Feature"},{"geometry":{"coordinates":[-91.54603,41.66343],"type":"Point"},"properties":{"kind":"stop","name":"Newton Rd Ramp","stop_id":"2534052"},"type":"Feature"},{"geometry":{"coordinates":[-91.54349,41.6627],"type":"Point"},"properties":{"kind":"stop","name":"Newton Rd - UI Student Health","stop_id":"2534053"},"type":"Feature"},{"geometry":{"coordinates":[-91.53335,41.65653],"type":"Point"},"properties":{"kind":"stop","name":"Court St & Dubuque St","stop_id":"2534055"},"type":"Feature"},{"geometry":{"coordinates":[-91.533,41.65671],"type":"Point"},"properties":{"kind":"stop","name":"Court St & Dubuque St","stop_id":"2534056"},"type":"Feature"},{"geometry":{"coordinates":[-91.53349,41.6567],"type":"Point"},"properties":{"kind":"stop","name":"Court St Transportation Center","stop_id":"2534057"},"type":"Feature"},{"geometry":{"coordinates":[-91.53041,41.65653],"type":"Point"},"properties":{"kind":"stop","name":"Court St & Gilbert St","stop_id":"2534058"},"type":"Feature"},{"geometry":{"coordinates":[-91.53037,41.65452],"type":"Point"},"properties":{"kind":"stop","name":"Gilbert St & Prentiss St","stop_id":"2534060"},"type":"Feature"},{"geometry":{"coordinates":[-91.53177,41.65123],"type":"Point"},"properties":{"kind":"stop","name":"Gilbert St & Benton St","stop_id":"2534062"},"type":"Feature"},{"geometry":{"coordinates":[-91.53158,41.65104],"type":"Point"},"properties":{"kind":"stop","name":"Gilbert St & Benton St","stop_id":"2534063"},"type":"Feature"},{"geometry":{"coordinates":[-91.53214,41.64957],"type":"Point"},"properties":{"kind":"stop","name":"Gilbert St & Kirkwood Ave","stop_id":"2534064"},"type":"Feature"},{"geometry":{"coordinates":[-91.53191,41.6493],"type":"Point"},"properties":{"kind":"stop","name":"Gilbert St & Kirkwood Ave","stop_id":"2534065"},"type":"Feature"},{"geometry":{"coordinates":[-91.53222,41.64938],"type":"Point"},"properties":{"kind":"stop","name":"Kirkwood Ave & Gilbert St","stop_id":"2534066"},"type":"Feature"},{"geometry":{"coordinates":[-91.53216,41.64632],"type":"Point"},"properties":{"kind":"stop","name":"Gilbert St @ Big Grove Brewery","stop_id":"2534067"},"type":"Feature"},{"geometry":{"coordinates":[-91.53193,41.64634],"type":"Point"},"properties":{"kind":"stop","name":"Gilbert St & 3rd St","stop_id":"2534068"},"type":"Feature"},{"geometry":{"coordinates":[-91.5318,41.64587],"type":"Point"},"properties":{"kind":"stop","name":"Highland Ave & Gilbert St","stop_id":"2534069"},"type":"Feature"},{"geometry":{"coordinates":[-91.52816,41.64232],"type":"Point"},"properties":{"kind":"stop","name":"Boyrum St @ Hy Vee","stop_id":"2534070"},"type":"Feature"},{"geometry":{"coordinates":[-91.5279,41.64282],"type":"Point"},"properties":{"kind":"stop","name":"Boyrum St @ Hy Vee","stop_id":"2534071"},"type":"Feature"},{"geometry":{"coordinates":[-91.52815,41.64082],"type":"Point"},"properties":{"kind":"stop","name":"Boyrum St & Southgate Ave","stop_id":"2534072"},"type":"Feature"},{"geometry":{"coordinates":[-91.53367,41.64306],"type":"Point"},"properties":{"kind":"stop","name":"Gilbert St & Stevens Dr","stop_id":"2534077"},"type":"Feature"},{"geometry":{"coordinates":[-91.52506,41.64061],"type":"Point"},"properties":{"kind":"stop","name":"Southgate Ave & Keokuk St","stop_id":"2534079"},"type":"Feature"},{"geometry":{"coordinates":[-91.52551,41.64073],"type":"Point"},"properties":{"kind":"stop","name":"Southgate & Keokuk St","stop_id":"2534080"},"type":"Feature"},{"geometry":{"coordinates":[-91.52083,41.6374],"type":"Point"},"properties":{"kind":"stop","name":"Sandusky Dr & Broadway St","stop_id":"2534086"},"type":"Feature"},{"geometry":{"coordinates":[-91.52254,41.63901],"type":"Point"},"properties":{"kind":"stop","name":"Crosspark Ave - 900 Block","stop_id":"2534087"},"type":"Feature"},{"geometry":{"coordinates":[-91.52075,41.639],"type":"Point"},"properties":{"kind":"stop","name":"Crosspark Ave & Broadway St","stop_id":"2534088"},"type":"Feature"},{"geometry":{"coordinates":[-91.52042,41.64067],"type":"Point"},"properties":{"kind":"stop","name":"Broadway St 1900 Block","stop_id":"2534089"},"type":"Feature"},{"geometry":{"coordinates":[-91.51855,41.63691],"type":"Point"},"properties":{"kind":"stop","name":"Sandusky Dr & Taylor Dr","stop_id":"2534091"},"type":"Feature"},{"geometry":{"coordinates":[-91.51825,41.63684],"type":"Point"},"properties":{"kind":"stop","name":"Taylor Dr & Sandusky Dr","stop_id":"2534092"},"type":"Feature"},{"geometry":{"coordinates":[-91.49796,41.63504],"type":"Point"},"properties":{"kind":"stop","name":"Lakeside Dr & Hwy 6","stop_id":"2534102"},"type":"Feature"},{"geometry":{"coordinates":[-91.50159,41.63348],"type":"Point"},"properties":{"kind":"stop","name":"Lakeside Dr & Nevada Ave","stop_id":"2534106"},"type":"Feature"},{"geometry":{"coordinates":[-91.50446,41.63352],"type":"Point"},"properties":{"kind":"stop","name":"Lakeside Dr & Miami Dr","stop_id":"2534107"},"type":"Feature"},{"geometry":{"coordinates":[-91.50298,41.63527],"type":"Point"},"properties":{"kind":"stop","name":"Miami Dr & California Ave","stop_id":"2534108"},"type":"Feature"},{"geometry":{"coordinates":[-91.5115,41.63623],"type":"Point"},"properties":{"kind":"stop","name":"California Ave & Sycamore St","stop_id":"2534111"},"type":"Feature"},{"geometry":{"coordinates":[-91.5182,41.63542],"type":"Point"},"properties":{"kind":"stop","name":"Burns Ave & Taylor Dr","stop_id":"2534113"},"type":"Feature"},{"geometry":{"coordinates":[-91.51158,41.64303],"type":"Point"},"properties":{"kind":"stop","name":"Sycamore Mall - Entrance","stop_id":"2534114"},"type":"Feature"},{"geometry":{"coordinates":[-91.53041,41.64586],"type":"Point"},"properties":{"kind":"stop","name":"Highland Ave & Gilbert Court","stop_id":"2534123"},"type":"Feature"},{"geometry":{"coordinates":[-91.53455,41.65121],"type":"Point"},"properties":{"kind":"stop","name":"Benton St & Clinton St","stop_id":"2534124"},"type":"Feature"},{"geometry":{"coordinates":[-91.5361,41.65119],"type":"Point"},"properties":{"kind":"stop","name":"Benton St & Capitol St","stop_id":"2534125"},"type":"Feature"},{"geometry":{"coordinates":[-91.53639,41.65156],"type":"Point"},"properties":{"kind":"stop","name":"Capitol St & Benton St","stop_id":"2534126"},"type":"Feature"},{"geometry":{"coordinates":[-91.53603,41.65651],"type":"Point"},"properties":{"kind":"stop","name":"Court St & Capitol St","stop_id":"2534130"},"type":"Feature"},{"geometry":{"coordinates":[-91.53755,41.65672],"type":"Point"},"properties":{"kind":"stop","name":"Court St & Madison St","stop_id":"2534131"},"type":"Feature"},{"geometry":{"coordinates":[-91.53784,41.65949],"type":"Point"},"properties":{"kind":"stop","name":"UI Main Library","stop_id":"2534133"},"type":"Feature"},{"geometry":{"coordinates":[-91.53296,41.66344],"type":"Point"},"properties":{"kind":"stop","name":"Dubuque St & Market St","stop_id":"2534137"},"type":"Feature"},{"geometry":{"coordinates":[-91.53294,41.66566],"type":"Point"},"properties":{"kind":"stop","name":"Dubuque St & Davenport St","stop_id":"2534138"},"type":"Feature"},{"geometry":{"coordinates":[-91.5329,41.66785],"type":"Point"},"properties":{"kind":"stop","name":"Dubuque St & Church St","stop_id":"2534139"},"type":"Feature"},{"geometry":{"coordinates":[-91.52868,41.65418],"type":"Point"},"properties":{"kind":"stop","name":"Bowery St & Van Buren St","stop_id":"2534141"},"type":"Feature"},{"geometry":{"coordinates":[-91.52748,41.65405],"type":"Point"},"properties":{"kind":"stop","name":"Bowery St  & Johnson St","stop_id":"2534142"},"type":"Feature"},{"geometry":{"coordinates":[-91.52603,41.65404],"type":"Point"},"properties":{"kind":"stop","name":"Bowery St  & Dodge St","stop_id":"2534144"},"type":"Feature"},{"geometry":{"coordinates":[-91.52574,41.65352],"type":"Point"},"properties":{"kind":"stop","name":"Dodge St & Bowery St","stop_id":"2534145"},"type":"Feature"},{"geometry":{"coordinates":[-91.52582,41.64937],"type":"Point"},"properties":{"kind":"stop","name":"Kirkwood Ave & Dodge St","stop_id":"2534148"},"type":"Feature"},{"geometry":{"coordinates":[-91.52593,41.64953],"type":"Point"},"properties":{"kind":"stop","name":"Kirkwood Ave & Dodge St","stop_id":"2534149"},"type":"Feature"},{"geometry":{"coordinates":[-91.52349,41.64936],"type":"Point"},"properties":{"kind":"stop","name":"Kirkwood Ave & Keokuk St","stop_id":"2534150"},"type":"Feature"},{"geometry":{"coordinates":[-91.5233,41.64953],"type":"Point"},"properties":{"kind":"stop","name":"Kirkwood Ave & Keokuk St","stop_id":"2534151"},"type":"Feature"},{"geometry":{"coordinates":[-91.52084,41.64953],"type":"Point"},"properties":{"kind":"stop","name":"Kirkwood Ave & Summit St","stop_id":"2534153"},"type":"Feature"},{"geometry":{"coordinates":[-91.51588,41.64937],"type":"Point"},"properties":{"kind":"stop","name":"Kirkwood Ave & Franklin St","stop_id":"2534154"},"type":"Feature"},{"geometry":{"coordinates":[-91.51556,41.6494],"type":"Point"},"properties":{"kind":"stop","name":"Kirkwood Ave & Franklin St","stop_id":"2534155"},"type":"Feature"},{"geometry":{"coordinates":[-91.51347,41.64772],"type":"Point"},"properties":{"kind":"stop","name":"Lower Muscatine Ave & Pine St","stop_id":"2534157"},"type":"Feature"},{"geometry":{"coordinates":[-91.51375,41.64773],"type":"Point"},"properties":{"kind":"stop","name":"Lower Muscatine Ave & Pine St","stop_id":"2534158"},"type":"Feature"},{"geometry":{"coordinates":[-91.51106,41.64553],"type":"Point"},"properties":{"kind":"stop","name":"Kirkwood Community College From Downtown","stop_id":"2534160"},"type":"Feature"},{"geometry":{"coordinates":[-91.51031,41.64521],"type":"Point"},"properties":{"kind":"stop","name":"Kirkwood Community College to Downtown","stop_id":"2534161"},"type":"Feature"},{"geometry":{"coordinates":[-91.50836,41.64332],"type":"Point"},"properties":{"kind":"stop","name":"Lower Muscatine Ave & Mall Dr","stop_id":"2534163"},"type":"Feature"},{"geometry":{"coordinates":[-91.5029,41.63915],"type":"Point"},"properties":{"kind":"stop","name":"Lower Muscatine Ave & Fairmeadows Blvd","stop_id":"2534165"},"type":"Feature"},{"geometry":{"coordinates":[-91.49048,41.6314],"type":"Point"},"properties":{"kind":"stop","name":"Hwy 6 East & Heinz Rd","stop_id":"2534166"},"type":"Feature"},{"geometry":{"coordinates":[-91.49098,41.63203],"type":"Point"},"properties":{"kind":"stop","name":"Heinz Rd & Hwy 6 East","stop_id":"2534167"},"type":"Feature"},{"geometry":{"coordinates":[-91.48028,41.63035],"type":"Point"},"properties":{"kind":"stop","name":"Commerce Dr & Liberty Dr","stop_id":"2534168"},"type":"Feature"},{"geometry":{"coordinates":[-91.48303,41.6308],"type":"Point"},"properties":{"kind":"stop","name":"ACT","stop_id":"2534170"},"type":"Feature"},{"geometry":{"coordinates":[-91.48329,41.63646],"type":"Point"},"properties":{"kind":"stop","name":"Heinz Rd & Scott Blvd","stop_id":"2534172"},"type":"Feature"},{"geometry":{"coordinates":[-91.48929,41.63765],"type":"Point"},"properties":{"kind":"stop","name":"ALPLA","stop_id":"2534173"},"type":"Feature"},{"geometry":{"coordinates":[-91.50577,41.64148],"type":"Point"},"properties":{"kind":"stop","name":"Eastdale Plaza","stop_id":"2534174"},"type":"Feature"},{"geometry":{"coordinates":[-91.51024,41.64249],"type":"Point"},"properties":{"kind":"stop","name":"Sycamore Mall Cinema Theater","stop_id":"2534175"},"type":"Feature"},{"geometry":{"coordinates":[-91.53181,41.66001],"type":"Point"},"properties":{"kind":"stop","name":"Washington St & Linn St - IC Library, Senior Center","stop_id":"2534176"},"type":"Feature"},{"geometry":{"coordinates":[-91.5304,41.65997],"type":"Point"},"properties":{"kind":"stop","name":"Washington St & Gilbert St - Iowa City City Hall","stop_id":"2534177"},"type":"Feature"},{"geometry":{"coordinates":[-91.53146,41.66362],"type":"Point"},"properties":{"kind":"stop","name":"Market St & Linn St","stop_id":"2534182"},"type":"Feature"},{"geometry":{"coordinates":[-91.53475,41.66263],"type":"Point"},"properties":{"kind":"stop","name":"Clinton St & Jefferson St","stop_id":"2534183"},"type":"Feature"},{"geometry":{"coordinates":[-91.50647,41.65086],"type":"Point"},"properties":{"kind":"stop","name":"Muscatine Ave & 4th Ave","stop_id":"2534201"},"type":"Feature"},{"geometry":{"coordinates":[-91.50332,41.64962],"type":"Point"},"properties":{"kind":"stop","name":"Muscatine Ave & 2nd Ave - Walgreens Inbound","stop_id":"2534203"},"type":"Feature"},{"geometry":{"coordinates":[-91.50193,41.65075],"type":"Point"},"properties":{"kind":"stop","name":"1st Ave @ Hy Vee","stop_id":"2534204"},"type":"Feature"},{"geometry":{"coordinates":[-91.50476,41.65393],"type":"Point"},"properties":{"kind":"stop","name":"3rd Ave & Friendship St","stop_id":"2534206"},"type":"Feature"},{"geometry":{"coordinates":[-91.50967,41.65472],"type":"Point"},"properties":{"kind":"stop","name":"Friendship St & Garden St","stop_id":"2534209"},"type":"Feature"},{"geometry":{"coordinates":[-91.51153,41.65664],"type":"Point"},"properties":{"kind":"stop","name":"7th Ave & Court St","stop_id":"2534211"},"type":"Feature"},{"geometry":{"coordinates":[-91.52747,41.65773],"type":"Point"},"properties":{"kind":"stop","name":"Burlington St & Johnson St","stop_id":"2534217"},"type":"Feature"},{"geometry":{"coordinates":[-91.53002,41.65795],"type":"Point"},"properties":{"kind":"stop","name":"Burlington St & Gilbert St - City Hall / Rec. Center","stop_id":"2534219"},"type":"Feature"},{"geometry":{"coordinates":[-91.53297,41.65797],"type":"Point"},"properties":{"kind":"stop","name":"Burlington St & Dubuque St","stop_id":"2534220"},"type":"Feature"},{"geometry":{"coordinates":[-91.52421,41.65786],"type":"Point"},"properties":{"kind":"stop","name":"Burlington St & Lucas St","stop_id":"2534222"},"type":"Feature"},{"geometry":{"coordinates":[-91.52137,41.65764],"type":"Point"},"properties":{"kind":"stop","name":"Burlington St & Summit St","stop_id":"2534223"},"type":"Feature"},{"geometry":{"coordinates":[-91.52105,41.65784],"type":"Point"},"properties":{"kind":"stop","name":"Burlington St & Summit St","stop_id":"2534224"},"type":"Feature"},{"geometry":{"coordinates":[-91.51664,41.65775],"type":"Point"},"properties":{"kind":"stop","name":"Burlington St & Muscatine Ave","stop_id":"2534225"},"type":"Feature"},{"geometry":{"coordinates":[-91.51428,41.65624],"type":"Point"},"properties":{"kind":"stop","name":"Muscatine Ave & Rundell St","stop_id":"2534227"},"type":"Feature"},{"geometry":{"coordinates":[-91.51457,41.65661],"type":"Point"},"properties":{"kind":"stop","name":"Muscatine Ave & Court St","stop_id":"2534228"},"type":"Feature"},{"geometry":{"coordinates":[-91.51171,41.65445],"type":"Point"},"properties":{"kind":"stop","name":"Muscatine Ave & 7th Ave","stop_id":"2534229"},"type":"Feature"},{"geometry":{"coordinates":[-91.51147,41.65449],"type":"Point"},"properties":{"kind":"stop","name":"Muscatine Ave & 7th Ave","stop_id":"2534230"},"type":"Feature"},{"geometry":{"coordinates":[-91.50771,41.65188],"type":"Point"},"properties":{"kind":"stop","name":"Muscatine Ave & 5th Ave","stop_id":"2534232"},"type":"Feature"},{"geometry":{"coordinates":[-91.50093,41.64953],"type":"Point"},"properties":{"kind":"stop","name":"Muscatine Ave & Wade St","stop_id":"2534233"},"type":"Feature"},{"geometry":{"coordinates":[-91.50096,41.64965],"type":"Point"},"properties":{"kind":"stop","name":"Muscatine Ave @ Hy Vee","stop_id":"2534234"},"type":"Feature"},{"geometry":{"coordinates":[-91.49885,41.64844],"type":"Point"},"properties":{"kind":"stop","name":"William St @ Towncrest Medical Offices","stop_id":"2534235"},"type":"Feature"},{"geometry":{"coordinates":[-91.49885,41.64756],"type":"Point"},"properties":{"kind":"stop","name":"William St & Wayne Ave @ South East Junior High","stop_id":"2534236"},"type":"Feature"},{"geometry":{"coordinates":[-91.49726,41.64741],"type":"Point"},"properties":{"kind":"stop","name":"Wayne Ave & Arthur St","stop_id":"2534237"},"type":"Feature"},{"geometry":{"coordinates":[-91.49419,41.64744],"type":"Point"},"properties":{"kind":"stop","name":"Wayne Ave & Dover St","stop_id":"2534238"},"type":"Feature"},{"geometry":{"coordinates":[-91.49131,41.64696],"type":"Point"},"properties":{"kind":"stop","name":"Wayne Ave & Village Rd","stop_id":"2534239"},"type":"Feature"},{"geometry":{"coordinates":[-91.48809,41.648],"type":"Point"},"properties":{"kind":"stop","name":"Village Rd & Village Green Blvd","stop_id":"2534241"},"type":"Feature"},{"geometry":{"coordinates":[-91.49102,41.64976],"type":"Point"},"properties":{"kind":"stop","name":"Muscatine Ave @ Autumn Park Apartments","stop_id":"2534243"},"type":"Feature"},{"geometry":{"coordinates":[-91.49379,41.64973],"type":"Point"},"properties":{"kind":"stop","name":"Muscatine Ave & Dover St","stop_id":"2534244"},"type":"Feature"},{"geometry":{"coordinates":[-91.49776,41.64969],"type":"Point"},"properties":{"kind":"stop","name":"Muscatine Ave & Arthur St","stop_id":"2534245"},"type":"Feature"},{"geometry":{"coordinates":[-91.50214,41.65675],"type":"Point"},"properties":{"kind":"stop","name":"Court St & 1st Ave","stop_id":"2534254"},"type":"Feature"},{"geometry":{"coordinates":[-91.50182,41.65687],"type":"Point"},"properties":{"kind":"stop","name":"Court St & 1st Ave","stop_id":"2534255"},"type":"Feature"},{"geometry":{"coordinates":[-91.50031,41.65674],"type":"Point"},"properties":{"kind":"stop","name":"Court St & Upland Ave","stop_id":"2534256"},"type":"Feature"},{"geometry":{"coordinates":[-91.49201,41.65682],"type":"Point"},"properties":{"kind":"stop","name":"Court St & Westminster St","stop_id":"2534260"},"type":"Feature"},{"geometry":{"coordinates":[-91.48489,41.65692],"type":"Point"},"properties":{"kind":"stop","name":"Court St & Friendship Ave","stop_id":"2534262"},"type":"Feature"},{"geometry":{"coordinates":[-91.48479,41.65709],"type":"Point"},"properties":{"kind":"stop","name":"Friendship St & Court St","stop_id":"2534263"},"type":"Feature"},{"geometry":{"coordinates":[-91.48317,41.65694],"type":"Point"},"properties":{"kind":"stop","name":"Court St  & Peterson St","stop_id":"2534270"},"type":"Feature"},{"geometry":{"coordinates":[-91.47129,41.65742],"type":"Point"},"properties":{"kind":"stop","name":"Court St  & Camden Rd","stop_id":"2534273"},"type":"Feature"},{"geometry":{"coordinates":[-91.46882,41.66076],"type":"Point"},"properties":{"kind":"stop","name":"Ashford Pl & Chadwick Pl","stop_id":"2534280"},"type":"Feature"},{"geometry":{"coordinates":[-91.4688,41.6622],"type":"Point"},"properties":{"kind":"stop","name":"Ashford Pl & York Pl","stop_id":"2534281"},"type":"Feature"},{"geometry":{"coordinates":[-91.4719,41.66338],"type":"Point"},"properties":{"kind":"stop","name":"York Pl & Brentwood Ln","stop_id":"2534282"},"type":"Feature"},{"geometry":{"coordinates":[-91.53444,41.66235],"type":"Point"},"properties":{"kind":"stop","name":"Clinton St & Jefferson St","stop_id":"2534291"},"type":"Feature"},{"geometry":{"coordinates":[-91.53183,41.66235],"type":"Point"},"properties":{"kind":"stop","name":"Jefferson St & Linn St","stop_id":"2534292"},"type":"Feature"},{"geometry":{"coordinates":[-91.52889,41.66231],"type":"Point"},"properties":{"kind":"stop","name":"Jefferson St & Van Buren St","stop_id":"2534293"},"type":"Feature"},{"geometry":{"coordinates":[-91.51936,41.66285],"type":"Point"},"properties":{"kind":"stop","name":"Clapp St & Hotz Ave","stop_id":"2534296"},"type":"Feature"},{"geometry":{"coordinates":[-91.51202,41.66381],"type":"Point"},"properties":{"kind":"stop","name":"Rochester Ave & 7th Ave","stop_id":"2534303"},"type":"Feature"},{"geometry":{"coordinates":[-91.51168,41.66398],"type":"Point"},"properties":{"kind":"stop","name":"Rochester Ave & 7th Ave","stop_id":"2534304"},"type":"Feature"},{"geometry":{"coordinates":[-91.50754,41.66364],"type":"Point"},"properties":{"kind":"stop","name":"Rochester Ave & Ashwood Dr","stop_id":"2534305"},"type":"Feature"},{"geometry":{"coordinates":[-91.50834,41.66379],"type":"Point"},"properties":{"kind":"stop","name":"Rochester Ave & Windsor Court","stop_id":"2534306"},"type":"Feature"},{"geometry":{"coordinates":[-91.50322,41.6659],"type":"Point"},"properties":{"kind":"stop","name":"Regina Education Center","stop_id":"2534309"},"type":"Feature"},{"geometry":{"coordinates":[-91.50322,41.66608],"type":"Point"},"properties":{"kind":"stop","name":"Regina Education Center","stop_id":"2534310"},"type":"Feature"},{"geometry":{"coordinates":[-91.50138,41.66636],"type":"Point"},"properties":{"kind":"stop","name":"Rochester Ave & 1st Ave","stop_id":"2534311"},"type":"Feature"},{"geometry":{"coordinates":[-91.50145,41.66654],"type":"Point"},"properties":{"kind":"stop","name":"Rochester Ave & 1st Ave","stop_id":"2534312"},"type":"Feature"},{"geometry":{"coordinates":[-91.49974,41.66673],"type":"Point"},"properties":{"kind":"stop","name":"Rochester Ave & Post Rd","stop_id":"2534313"},"type":"Feature"},{"geometry":{"coordinates":[-91.49977,41.66692],"type":"Point"},"properties":{"kind":"stop","name":"Rochester Ave & Post Rd","stop_id":"2534314"},"type":"Feature"},{"geometry":{"coordinates":[-91.49577,41.66704],"type":"Point"},"properties":{"kind":"stop","name":"Rochester Ave & Mount Vernon Dr","stop_id":"2534315"},"type":"Feature"},{"geometry":{"coordinates":[-91.49558,41.66676],"type":"Point"},"properties":{"kind":"stop","name":"Mount Vernon Dr & Rochester Ave","stop_id":"2534316"},"type":"Feature"},{"geometry":{"coordinates":[-91.49329,41.66638],"type":"Point"},"properties":{"kind":"stop","name":"Rochester Ave & Larch Ln","stop_id":"2534317"},"type":"Feature"},{"geometry":{"coordinates":[-91.48708,41.66686],"type":"Point"},"properties":{"kind":"stop","name":"Amhurst St & Lower West Branch Rd","stop_id":"2534318"},"type":"Feature"},{"geometry":{"coordinates":[-91.48607,41.6639],"type":"Point"},"properties":{"kind":"stop","name":"Amhurst St & Hastings Ave","stop_id":"2534320"},"type":"Feature"},{"geometry":{"coordinates":[-91.48402,41.66026],"type":"Point"},"properties":{"kind":"stop","name":"Amhurst St & Washington St","stop_id":"2534323"},"type":"Feature"},{"geometry":{"coordinates":[-91.48814,41.66113],"type":"Point"},"properties":{"kind":"stop","name":"Washington St @ Lemme Elementary","stop_id":"2534325"},"type":"Feature"},{"geometry":{"coordinates":[-91.49231,41.6606],"type":"Point"},"properties":{"kind":"stop","name":"Washington St & Westminster St","stop_id":"2534326"},"type":"Feature"},{"geometry":{"coordinates":[-91.49526,41.66061],"type":"Point"},"properties":{"kind":"stop","name":"Washington St & Green Mountain Dr","stop_id":"2534327"},"type":"Feature"},{"geometry":{"coordinates":[-91.49835,41.66059],"type":"Point"},"properties":{"kind":"stop","name":"Washington St & Mount Vernon Dr","stop_id":"2534328"},"type":"Feature"},{"geometry":{"coordinates":[-91.49728,41.66313],"type":"Point"},"properties":{"kind":"stop","name":"Mount Vernon Dr & Concord Circle","stop_id":"2534329"},"type":"Feature"},{"geometry":{"coordinates":[-91.49657,41.66505],"type":"Point"},"properties":{"kind":"stop","name":"Mount Vernon Dr - 300 Block","stop_id":"2534330"},"type":"Feature"},{"geometry":{"coordinates":[-91.52266,41.6636],"type":"Point"},"properties":{"kind":"stop","name":"Market St & Governor St","stop_id":"2534331"},"type":"Feature"},{"geometry":{"coordinates":[-91.5256,41.66363],"type":"Point"},"properties":{"kind":"stop","name":"Market St & Dodge St","stop_id":"2534332"},"type":"Feature"},{"geometry":{"coordinates":[-91.52584,41.66368],"type":"Point"},"properties":{"kind":"stop","name":"North Dodge St & Market St","stop_id":"2534333"},"type":"Feature"},{"geometry":{"coordinates":[-91.52829,41.66362],"type":"Point"},"properties":{"kind":"stop","name":"Mercy Hospital","stop_id":"2534334"},"type":"Feature"},{"geometry":{"coordinates":[-91.53317,41.66702],"type":"Point"},"properties":{"kind":"stop","name":"Dubuque St & Fairchild St","stop_id":"2534341"},"type":"Feature"},{"geometry":{"coordinates":[-91.53321,41.66376],"type":"Point"},"properties":{"kind":"stop","name":"Dubuque St & Market St","stop_id":"2534344"},"type":"Feature"},{"geometry":{"coordinates":[-91.52592,41.65799],"type":"Point"},"properties":{"kind":"stop","name":"Dodge St & Burlington St","stop_id":"2534349"},"type":"Feature"},{"geometry":{"coordinates":[-91.52594,41.65667],"type":"Point"},"properties":{"kind":"stop","name":"Dodge St & Court St","stop_id":"2534350"},"type":"Feature"},{"geometry":{"coordinates":[-91.5227,41.66338],"type":"Point"},"properties":{"kind":"stop","name":"Governor St & Market St","stop_id":"2534353"},"type":"Feature"},{"geometry":{"coordinates":[-91.52266,41.66561],"type":"Point"},"properties":{"kind":"stop","name":"Governor St & Davenport St","stop_id":"2534354"},"type":"Feature"},{"geometry":{"coordinates":[-91.52268,41.6681],"type":"Point"},"properties":{"kind":"stop","name":"Governor St & Church St","stop_id":"2534355"},"type":"Feature"},{"geometry":{"coordinates":[-91.52263,41.66999],"type":"Point"},"properties":{"kind":"stop","name":"Governor St & Brown St","stop_id":"2534356"},"type":"Feature"},{"geometry":{"coordinates":[-91.52303,41.67407],"type":"Point"},"properties":{"kind":"stop","name":"Governor St & North Dodge St","stop_id":"2534358"},"type":"Feature"},{"geometry":{"coordinates":[-91.51687,41.67678],"type":"Point"},"properties":{"kind":"stop","name":"North Dodge St & Conklin St","stop_id":"2534360"},"type":"Feature"},{"geometry":{"coordinates":[-91.51715,41.67688],"type":"Point"},"properties":{"kind":"stop","name":"North Dodge St @ Hy Vee","stop_id":"2534361"},"type":"Feature"},{"geometry":{"coordinates":[-91.51082,41.67981],"type":"Point"},"properties":{"kind":"stop","name":"Iowa City Community School District  Office","stop_id":"2534362"},"type":"Feature"},{"geometry":{"coordinates":[-91.5106,41.68014],"type":"Point"},"properties":{"kind":"stop","name":"Iowa City Community School District  Office","stop_id":"2534363"},"type":"Feature"},{"geometry":{"coordinates":[-91.50817,41.68109],"type":"Point"},"properties":{"kind":"stop","name":"North Dodge St & Scott Blvd","stop_id":"2534364"},"type":"Feature"},{"geometry":{"coordinates":[-91.50479,41.68311],"type":"Point"},"properties":{"kind":"stop","name":"North Dodge St & ACT Circle","stop_id":"2534374"},"type":"Feature"},{"geometry":{"coordinates":[-91.52546,41.6718],"type":"Point"},"properties":{"kind":"stop","name":"900 North Dodge St","stop_id":"2534383"},"type":"Feature"},{"geometry":{"coordinates":[-91.52578,41.67023],"type":"Point"},"properties":{"kind":"stop","name":"North Dodge St & Brown St","stop_id":"2534384"},"type":"Feature"},{"geometry":{"coordinates":[-91.5258,41.66751],"type":"Point"},"properties":{"kind":"stop","name":"North Dodge St & Church - Horace Mann Elementary","stop_id":"2534385"},"type":"Feature"},{"geometry":{"coordinates":[-91.50467,41.64244],"type":"Point"},"properties":{"kind":"stop","name":"Eastdale Plaza","stop_id":"2534386"},"type":"Feature"},{"geometry":{"coordinates":[-91.5019,41.6452],"type":"Point"},"properties":{"kind":"stop","name":"1st Ave @ South East Junior High","stop_id":"2534387"},"type":"Feature"},{"geometry":{"coordinates":[-91.50859,41.65906],"type":"Point"},"properties":{"kind":"stop","name":"City High School","stop_id":"2534388"},"type":"Feature"},{"geometry":{"coordinates":[-91.47015,41.65352],"type":"Point"},"properties":{"kind":"stop","name":"Arlington Dr & Canterbury Court","stop_id":"2534389"},"type":"Feature"},{"geometry":{"coordinates":[-91.46918,41.64782],"type":"Point"},"properties":{"kind":"stop","name":"Arlington Dr & American Legion Rd","stop_id":"2534390"},"type":"Feature"},{"geometry":{"coordinates":[-91.48261,41.64988],"type":"Point"},"properties":{"kind":"stop","name":"American Legion Rd & Scott Blvd","stop_id":"2534391"},"type":"Feature"},{"geometry":{"coordinates":[-91.48316,41.64512],"type":"Point"},"properties":{"kind":"stop","name":"Wellington Dr & Scott Blvd","stop_id":"2534392"},"type":"Feature"},{"geometry":{"coordinates":[-91.48296,41.6386],"type":"Point"},"properties":{"kind":"stop","name":"Scott Blvd #1","stop_id":"2534393"},"type":"Feature"},{"geometry":{"coordinates":[-91.5323,41.64953],"type":"Point"},"properties":{"kind":"stop","name":"Kirkwood Ave & Gilbert St","stop_id":"2534398"},"type":"Feature"},{"geometry":{"coordinates":[-91.54167,41.65785],"type":"Point"},"properties":{"kind":"stop","name":"Riverside Dr & Burlington Stl","stop_id":"2534400"},"type":"Feature"},{"geometry":{"coordinates":[-91.5406,41.65381],"type":"Point"},"properties":{"kind":"stop","name":"Riverside Dr & Myrtle Ave","stop_id":"2534401"},"type":"Feature"},{"geometry":{"coordinates":[-91.54026,41.65312],"type":"Point"},"properties":{"kind":"stop","name":"Riverside Dr & Myrtle Ave","stop_id":"2534402"},"type":"Feature"},{"geometry":{"coordinates":[-91.54007,41.65023],"type":"Point"},"properties":{"kind":"stop","name":"Riverside Dr & Benton St","stop_id":"2534405"},"type":"Feature"},{"geometry":{"coordinates":[-91.54668,41.64732],"type":"Point"},"properties":{"kind":"stop","name":"Hwy 1 West & Miller Ave","stop_id":"2534409"},"type":"Feature"},{"geometry":{"coordinates":[-91.54991,41.64634],"type":"Point"},"properties":{"kind":"stop","name":"Ruppert Rd & Hwy 1 West","stop_id":"2534411"},"type":"Feature"},{"geometry":{"coordinates":[-91.55364,41.64513],"type":"Point"},"properties":{"kind":"stop","name":"Westport Plaza 1","stop_id":"2534412"},"type":"Feature"},{"geometry":{"coordinates":[-91.55103,41.64485],"type":"Point"},"properties":{"kind":"stop","name":"Walmart","stop_id":"2534413"},"type":"Feature"},{"geometry":{"coordinates":[-91.54418,41.64738],"type":"Point"},"properties":{"kind":"stop","name":"Hwy 1 West @ Slagers","stop_id":"2534414"},"type":"Feature"},{"geometry":{"coordinates":[-91.5385,41.6317],"type":"Point"},"properties":{"kind":"stop","name":"S Riverside Dr @ mobile home park","stop_id":"2534422"},"type":"Feature"},{"geometry":{"coordinates":[-91.5356,41.68089],"type":"Point"},"properties":{"kind":"stop","name":"Foster Rd & Dubuque St","stop_id":"2534451"},"type":"Feature"},{"geometry":{"coordinates":[-91.53775,41.68119],"type":"Point"},"properties":{"kind":"stop","name":"Foster Rd & Laura Dr","stop_id":"2534452"},"type":"Feature"},{"geometry":{"coordinates":[-91.54056,41.68429],"type":"Point"},"properties":{"kind":"stop","name":"Forest View Trailer Park","stop_id":"2534455"},"type":"Feature"},{"geometry":{"coordinates":[-91.54016,41.68133],"type":"Point"},"properties":{"kind":"stop","name":"Foster Rd & Idyllwild Dr","stop_id":"2534457"},"type":"Feature"},{"geometry":{"coordinates":[-91.54832,41.68004],"type":"Point"},"properties":{"kind":"stop","name":"Foster Rd & Algonquin Rd","stop_id":"2534458"},"type":"Feature"},{"geometry":{"coordinates":[-91.54829,41.6799],"type":"Point"},"properties":{"kind":"stop","name":"Foster Rd & Algonquin Rd","stop_id":"2534459"},"type":"Feature"},{"geometry":{"coordinates":[-91.55322,41.67939],"type":"Point"},"properties":{"kind":"stop","name":"Foster Rd 900 Block","stop_id":"2534460"},"type":"Feature"},{"geometry":{"coordinates":[-91.55456,41.67723],"type":"Point"},"properties":{"kind":"stop","name":"Foster Rd & Swisher St","stop_id":"2534461"},"type":"Feature"},{"geometry":{"coordinates":[-91.55463,41.67703],"type":"Point"},"properties":{"kind":"stop","name":"Swisher St & Foster Rd","stop_id":"2534462"},"type":"Feature"},{"geometry":{"coordinates":[-91.55656,41.67623],"type":"Point"},"properties":{"kind":"stop","name":"Walker Circle & Moses Bloom Ln","stop_id":"2534463"},"type":"Feature"},{"geometry":{"coordinates":[-91.5453,41.65867],"type":"Point"},"properties":{"kind":"stop","name":"Grand Ave & South Grand Ave - UIHC Emergency Entrance","stop_id":"2534464"},"type":"Feature"},{"geometry":{"coordinates":[-91.54752,41.65698],"type":"Point"},"properties":{"kind":"stop","name":"UI Family Care","stop_id":"2534465"},"type":"Feature"},{"geometry":{"coordinates":[-91.5469,41.65678],"type":"Point"},"properties":{"kind":"stop","name":"UIHC Family Care","stop_id":"2534466"},"type":"Feature"},{"geometry":{"coordinates":[-91.54478,41.65676],"type":"Point"},"properties":{"kind":"stop","name":"Melrose Ave & South Grand Ave","stop_id":"2534467"},"type":"Feature"},{"geometry":{"coordinates":[-91.554,41.65698],"type":"Point"},"properties":{"kind":"stop","name":"Melrose Ave & Golfview Ave","stop_id":"2534469"},"type":"Feature"},{"geometry":{"coordinates":[-91.55428,41.65681],"type":"Point"},"properties":{"kind":"stop","name":"Melrose Ave & Koser Ave","stop_id":"2534470"},"type":"Feature"},{"geometry":{"coordinates":[-91.5598,41.65549],"type":"Point"},"properties":{"kind":"stop","name":"Sunset St & Melrose Ave","stop_id":"2534473"},"type":"Feature"},{"geometry":{"coordinates":[-91.55958,41.6556],"type":"Point"},"properties":{"kind":"stop","name":"Sunset St & Melrose Ave","stop_id":"2534474"},"type":"Feature"},{"geometry":{"coordinates":[-91.5597,41.65327],"type":"Point"},"properties":{"kind":"stop","name":"Sunset St & Marietta Ave","stop_id":"2534475"},"type":"Feature"},{"geometry":{"coordinates":[-91.55945,41.65326],"type":"Point"},"properties":{"kind":"stop","name":"Sunset St & Marietta Ave","stop_id":"2534476"},"type":"Feature"},{"geometry":{"coordinates":[-91.55964,41.65191],"type":"Point"},"properties":{"kind":"stop","name":"Sunset St & Oakcrest St","stop_id":"2534477"},"type":"Feature"},{"geometry":{"coordinates":[-91.55944,41.65172],"type":"Point"},"properties":{"kind":"stop","name":"Sunset St & Oakcrest St","stop_id":"2534478"},"type":"Feature"},{"geometry":{"coordinates":[-91.55436,41.65203],"type":"Point"},"properties":{"kind":"stop","name":"Oaknoll Retirement Center #2","stop_id":"2534480"},"type":"Feature"},{"geometry":{"coordinates":[-91.55151,41.65258],"type":"Point"},"properties":{"kind":"stop","name":"Oakcrest St & Woodside Dr","stop_id":"2534482"},"type":"Feature"},{"geometry":{"coordinates":[-91.55033,41.65373],"type":"Point"},"properties":{"kind":"stop","name":"815 Oakcrest St","stop_id":"2534483"},"type":"Feature"},{"geometry":{"coordinates":[-91.54873,41.65233],"type":"Point"},"properties":{"kind":"stop","name":"Woodside Place & Greenwood Dr","stop_id":"2534484"},"type":"Feature"},{"geometry":{"coordinates":[-91.5504,41.65057],"type":"Point"},"properties":{"kind":"stop","name":"Greenwood Dr & Benton St","stop_id":"2534485"},"type":"Feature"},{"geometry":{"coordinates":[-91.55263,41.65052],"type":"Point"},"properties":{"kind":"stop","name":"Benton St @ Seville Apartments","stop_id":"2534486"},"type":"Feature"},{"geometry":{"coordinates":[-91.55454,41.65052],"type":"Point"},"properties":{"kind":"stop","name":"Benton St & Oaknoll Dr","stop_id":"2534487"},"type":"Feature"},{"geometry":{"coordinates":[-91.55831,41.65054],"type":"Point"},"properties":{"kind":"stop","name":"Benton St & Streb St","stop_id":"2534489"},"type":"Feature"},{"geometry":{"coordinates":[-91.5595,41.64566],"type":"Point"},"properties":{"kind":"stop","name":"Sunset St & Denbigh Dr","stop_id":"2534492"},"type":"Feature"},{"geometry":{"coordinates":[-91.56011,41.65553],"type":"Point"},"properties":{"kind":"stop","name":"Melrose Ave & Sunset St","stop_id":"2534494"},"type":"Feature"},{"geometry":{"coordinates":[-91.55106,41.66345],"type":"Point"},"properties":{"kind":"stop","name":"Newton Rd - Dental College","stop_id":"2534496"},"type":"Feature"},{"geometry":{"coordinates":[-91.55009,41.65965],"type":"Point"},"properties":{"kind":"stop","name":"Hawkins Dr - UI Main Hospital, Kinnick Stadium","stop_id":"2534498"},"type":"Feature"},{"geometry":{"coordinates":[-91.55062,41.66107],"type":"Point"},"properties":{"kind":"stop","name":"Hawkins Dr - UI Center for Disabilities, Dental College","stop_id":"2534499"},"type":"Feature"},{"geometry":{"coordinates":[-91.55004,41.65706],"type":"Point"},"properties":{"kind":"stop","name":"Hawkins Dr & Melrose Ave - UI Childrens Hospital","stop_id":"2534500"},"type":"Feature"},{"geometry":{"coordinates":[-91.54984,41.65776],"type":"Point"},"properties":{"kind":"stop","name":"Ramp 2, Pappajohn & Pomerantz","stop_id":"2534502"},"type":"Feature"},{"geometry":{"coordinates":[-91.5594,41.65586],"type":"Point"},"properties":{"kind":"stop","name":"Melrose Ave & Sunset St","stop_id":"2534503"},"type":"Feature"},{"geometry":{"coordinates":[-91.56433,41.65585],"type":"Point"},"properties":{"kind":"stop","name":"Melrose Ave & Emerald St","stop_id":"2534504"},"type":"Feature"},{"geometry":{"coordinates":[-91.56444,41.6556],"type":"Point"},"properties":{"kind":"stop","name":"Melrose Ave @ IC Fire Station #2","stop_id":"2534505"},"type":"Feature"},{"geometry":{"coordinates":[-91.56645,41.6561],"type":"Point"},"properties":{"kind":"stop","name":"Melrose Ave & Westgate St","stop_id":"2534506"},"type":"Feature"},{"geometry":{"coordinates":[-91.56917,41.65634],"type":"Point"},"properties":{"kind":"stop","name":"Melrose Ave & Macbride Rd","stop_id":"2534508"},"type":"Feature"},{"geometry":{"coordinates":[-91.57247,41.65693],"type":"Point"},"properties":{"kind":"stop","name":"Melrose Ave & Finkbine Ln","stop_id":"2534510"},"type":"Feature"},{"geometry":{"coordinates":[-91.57245,41.65661],"type":"Point"},"properties":{"kind":"stop","name":"Melrose Ave & Finkbine Ln","stop_id":"2534511"},"type":"Feature"},{"geometry":{"coordinates":[-91.5775,41.65684],"type":"Point"},"properties":{"kind":"stop","name":"Westwinds Dr & Melrose Ave","stop_id":"2534516"},"type":"Feature"},{"geometry":{"coordinates":[-91.57417,41.65175],"type":"Point"},"properties":{"kind":"stop","name":"Mormon Trek Blvd & Cameron Way - Walden Plaza","stop_id":"2534522"},"type":"Feature"},{"geometry":{"coordinates":[-91.57558,41.65093],"type":"Point"},"properties":{"kind":"stop","name":"Westwinds Dr - Walden Plaza","stop_id":"2534523"},"type":"Feature"},{"geometry":{"coordinates":[-91.5669,41.64955],"type":"Point"},"properties":{"kind":"stop","name":"Benton St & Westgate St","stop_id":"2534528"},"type":"Feature"},{"geometry":{"coordinates":[-91.56431,41.6497],"type":"Point"},"properties":{"kind":"stop","name":"Benton St - Horn Elementary","stop_id":"2534530"},"type":"Feature"},{"geometry":{"coordinates":[-91.564,41.6496],"type":"Point"},"properties":{"kind":"stop","name":"Benton St & Denbigh Dr","stop_id":"2534531"},"type":"Feature"},{"geometry":{"coordinates":[-91.5204,41.639],"type":"Point"},"properties":{"kind":"stop","name":"Crosspark Ave & Broadway St","stop_id":"2534536"},"type":"Feature"},{"geometry":{"coordinates":[-91.55927,41.64862],"type":"Point"},"properties":{"kind":"stop","name":"Sunset St & Arbury Dr","stop_id":"2534537"},"type":"Feature"},{"geometry":{"coordinates":[-91.56041,41.65053],"type":"Point"},"properties":{"kind":"stop","name":"Benton St & Sunset St","stop_id":"2534538"},"type":"Feature"},{"geometry":{"coordinates":[-91.56571,41.63877],"type":"Point"},"properties":{"kind":"stop","name":"Westside Dr & Earl Rd","stop_id":"2534545"},"type":"Feature"},{"geometry":{"coordinates":[-91.56696,41.64122],"type":"Point"},"properties":{"kind":"stop","name":"Westside Dr & Jeffrey St","stop_id":"2534546"},"type":"Feature"},{"geometry":{"coordinates":[-91.56812,41.63759],"type":"Point"},"properties":{"kind":"stop","name":"Westside Dr & Mormon Trek Blvd","stop_id":"2534548"},"type":"Feature"},{"geometry":{"coordinates":[-91.57217,41.63974],"type":"Point"},"properties":{"kind":"stop","name":"Mormon Trek Blvd & Gryn Dr","stop_id":"2534549"},"type":"Feature"},{"geometry":{"coordinates":[-91.57429,41.64594],"type":"Point"},"properties":{"kind":"stop","name":"Mormon Trek Blvd & Rohret Rd","stop_id":"2534570"},"type":"Feature"},{"geometry":{"coordinates":[-91.57831,41.64661],"type":"Point"},"properties":{"kind":"stop","name":"Coll Dr & Coll Court","stop_id":"2534571"},"type":"Feature"},{"geometry":{"coordinates":[-91.57751,41.6485],"type":"Point"},"properties":{"kind":"stop","name":"Jensen St & Jensen Court","stop_id":"2534572"},"type":"Feature"},{"geometry":{"coordinates":[-91.5811,41.64794],"type":"Point"},"properties":{"kind":"stop","name":"Irving Ave & Shannon Dr","stop_id":"2534573"},"type":"Feature"},{"geometry":{"coordinates":[-91.58083,41.64629],"type":"Point"},"properties":{"kind":"stop","name":"Shannon Dr & Rohret Rd","stop_id":"2534574"},"type":"Feature"},{"geometry":{"coordinates":[-91.5857,41.6462],"type":"Point"},"properties":{"kind":"stop","name":"Rohret Rd & Duck Creek Dr","stop_id":"2534575"},"type":"Feature"},{"geometry":{"coordinates":[-91.58972,41.64873],"type":"Point"},"properties":{"kind":"stop","name":"Deerfield Dr & Duck Creek Dr","stop_id":"2534576"},"type":"Feature"},{"geometry":{"coordinates":[-91.5928,41.64948],"type":"Point"},"properties":{"kind":"stop","name":"Duck Creek Dr & Partridge Court","stop_id":"2534577"},"type":"Feature"},{"geometry":{"coordinates":[-91.59576,41.64959],"type":"Point"},"properties":{"kind":"stop","name":"Duck Creek Dr & Wild Prairie Dr","stop_id":"2534578"},"type":"Feature"},{"geometry":{"coordinates":[-91.59827,41.64877],"type":"Point"},"properties":{"kind":"stop","name":"Wild Prairie Dr & Prairie Grass Ln","stop_id":"2534579"},"type":"Feature"},{"geometry":{"coordinates":[-91.59677,41.64406],"type":"Point"},"properties":{"kind":"stop","name":"Rohret Rd - Irving Weber School","stop_id":"2534585"},"type":"Feature"},{"geometry":{"coordinates":[-91.59019,41.64533],"type":"Point"},"properties":{"kind":"stop","name":"Rohret Rd & Hunters Run","stop_id":"2534586"},"type":"Feature"},{"geometry":{"coordinates":[-91.5857,41.64607],"type":"Point"},"properties":{"kind":"stop","name":"Rohret Rd & Duck Creek Dr","stop_id":"2534587"},"type":"Feature"},{"geometry":{"coordinates":[-91.58081,41.64603],"type":"Point"},"properties":{"kind":"stop","name":"Rohret Rd & Shannon Dr","stop_id":"2534588"},"type":"Feature"},{"geometry":{"coordinates":[-91.57869,41.64604],"type":"Point"},"properties":{"kind":"stop","name":"Rohret Rd & Ranier Dr","stop_id":"2534589"},"type":"Feature"},{"geometry":{"coordinates":[-91.504,41.63827],"type":"Point"},"properties":{"kind":"stop","name":"Hollywood Blvd & Fairmeadows Blvd","stop_id":"2534594"},"type":"Feature"},{"geometry":{"coordinates":[-91.50729,41.63639],"type":"Point"},"properties":{"kind":"stop","name":"California Ave & Grantwood St","stop_id":"2570372"},"type":"Feature"},{"geometry":{"coordinates":[-91.48283,41.63301],"type":"Point"},"properties":{"kind":"stop","name":"Scott Blvd & Systems Unlimited","stop_id":"2570380"},"type":"Feature"},{"geometry":{"coordinates":[-91.57387,41.64209],"type":"Point"},"properties":{"kind":"stop","name":"Mormon Trek Blvd & Plaen View Dr","stop_id":"2570388"},"type":"Feature"},{"geometry":{"coordinates":[-91.57407,41.64328],"type":"Point"},"properties":{"kind":"stop","name":"Mormon Trek Blvd & Abbey Ln","stop_id":"2570389"},"type":"Feature"},{"geometry":{"coordinates":[-91.55417,41.66305],"type":"Point"},"properties":{"kind":"stop","name":"Elliot St @ Carver Hawkeye Arena","stop_id":"2570391"},"type":"Feature"},{"geometry":{"coordinates":[-91.55065,41.64735],"type":"Point"},"properties":{"kind":"stop","name":"Hwy 1 West & Hawk Ridge Rd","stop_id":"2570438"},"type":"Feature"},{"geometry":{"coordinates":[-91.53741,41.66237],"type":"Point"},"properties":{"kind":"stop","name":"Madison St & Jefferson St @ IMU","stop_id":"2570451"},"type":"Feature"},{"geometry":{"coordinates":[-91.53284,41.64487],"type":"Point"},"properties":{"kind":"stop","name":"Gilbert St @ Hills Bank","stop_id":"2570599"},"type":"Feature"},{"geometry":{"coordinates":[-91.52598,41.65426],"type":"Point"},"properties":{"kind":"stop","name":"Dodge St & Bowery St","stop_id":"2577652"},"type":"Feature"},{"geometry":{"coordinates":[-91.54375,41.6625],"type":"Point"},"properties":{"kind":"stop","name":"Pappajohn Biomedical Discovery Building","stop_id":"2580419"},"type":"Feature"},{"geometry":{"coordinates":[-91.50876,41.65916],"type":"Point"},"properties":{"kind":"stop","name":"City High School PM","stop_id":"2580442"},"type":"Feature"},{"geometry":{"coordinates":[-91.49884,41.64639],"type":"Point"},"properties":{"kind":"stop","name":"William St & Bradford Dr - SEJH","stop_id":"2580443"},"type":"Feature"},{"geometry":{"coordinates":[-91.48414,41.6611],"type":"Point"},"properties":{"kind":"stop","name":"Amhurst St & Oberlin St","stop_id":"2580445"},"type":"Feature"},{"geometry":{"coordinates":[-91.57405,41.65417],"type":"Point"},"properties":{"kind":"stop","name":"Mormon Trek Blvd & Bartelt Rd","stop_id":"2581322"},"type":"Feature"},{"geometry":{"coordinates":[-91.49705,41.65678],"type":"Point"},"properties":{"kind":"stop","name":"Court St & Terrace Rd","stop_id":"2582193"},"type":"Feature"},{"geometry":{"coordinates":[-91.48293,41.6571],"type":"Point"},"properties":{"kind":"stop","name":"Court St & Peterson","stop_id":"2582201"},"type":"Feature"},{"geometry":{"coordinates":[-91.48277,41.63815],"type":"Point"},"properties":{"kind":"stop","name":"Scott Blvd & Sunrise Trailer Park","stop_id":"2583700"},"type":"Feature"},{"geometry":{"coordinates":[-91.54983,41.65926],"type":"Point"},"properties":{"kind":"stop","name":"Hawkins Dr & Hospital Loop Dr","stop_id":"4434037"},"type":"Feature"},{"geometry":{"coordinates":[-91.53014,41.65399],"type":"Point"},"properties":{"kind":"stop","name":"Gilbert St & Bowery St","stop_id":"4625112"},"type":"Feature"},{"geometry":{"coordinates":[-91.48294,41.63302],"type":"Point"},"properties":{"kind":"stop","name":"Systems Unlimited, Inc","stop_id":"4711975"},"type":"Feature"},{"geometry":{"coordinates":[-91.53029,41.65672],"type":"Point"},"properties":{"kind":"stop","name":"Gilbert St & Court St","stop_id":"6498071"},"type":"Feature"},{"geometry":{"coordinates":[-91.51793,41.63526],"type":"Point"},"properties":{"kind":"stop","name":"Burns Ave & Taylor Drive","stop_id":"6532163"},"type":"Feature"},{"geometry":{"coordinates":[-91.51047,41.63343],"type":"Point"},"properties":{"kind":"stop","name":"Lakeside Dr & Lombard St","stop_id":"6532164"},"type":"Feature"},{"geometry":{"coordinates":[-91.5048,41.63339],"type":"Point"},"properties":{"kind":"stop","name":"Lakeside Dr & Amber Ln","stop_id":"6532165"},"type":"Feature"},{"geometry":{"coordinates":[-91.5001,41.63334],"type":"Point"},"properties":{"kind":"stop","name":"Lakeside Dr & Whispering Prairie Ave","stop_id":"6532168"},"type":"Feature"},{"geometry":{"coordinates":[-91.47654,41.65695],"type":"Point"},"properties":{"kind":"stop","name":"Court St & Court Hill Trail","stop_id":"6532172"},"type":"Feature"},{"geometry":{"coordinates":[-91.47327,41.66194],"type":"Point"},"properties":{"kind":"stop","name":"Kenneth Dr & Anna St","stop_id":"6532173"},"type":"Feature"},{"geometry":{"coordinates":[-91.4733,41.65959],"type":"Point"},"properties":{"kind":"stop","name":"Kenneth Dr & Gustav St","stop_id":"6532174"},"type":"Feature"},{"geometry":{"coordinates":[-91.47645,41.65702],"type":"Point"},"properties":{"kind":"stop","name":"Court St & Court Hill Trail","stop_id":"6532175"},"type":"Feature"},{"geometry":{"coordinates":[-91.48461,41.65703],"type":"Point"},"properties":{"kind":"stop","name":"Court St & Friendship St","stop_id":"6532176"},"type":"Feature"},{"geometry":{"coordinates":[-91.49175,41.65693],"type":"Point"},"properties":{"kind":"stop","name":"Court St & Westminster St","stop_id":"6532177"},"type":"Feature"},{"geometry":{"coordinates":[-91.49712,41.65689],"type":"Point"},"properties":{"kind":"stop","name":"Court St & Washington Park Rd","stop_id":"6532178"},"type":"Feature"},{"geometry":{"coordinates":[-91.51563,41.65732],"type":"Point"},"properties":{"kind":"stop","name":"Court St & Muscatine Ave","stop_id":"6532295"},"type":"Feature"},{"geometry":{"coordinates":[-91.48748,41.64963],"type":"Point"},"properties":{"kind":"stop","name":"Village Green Blvd & Muscatine Ave","stop_id":"6532301"},"type":"Feature"},{"geometry":{"coordinates":[-91.50594,41.64142],"type":"Point"},"properties":{"kind":"stop","name":"Lower Muscatine & 1st Avenue","stop_id":"6532316"},"type":"Feature"},{"geometry":{"coordinates":[-91.50286,41.63928],"type":"Point"},"properties":{"kind":"stop","name":"Lower Muscatine & Fairmeadows Blvd","stop_id":"6532319"},"type":"Feature"},{"geometry":{"coordinates":[-91.50792,41.64318],"type":"Point"},"properties":{"kind":"stop","name":"Lower Muscatine & Mall Dr","stop_id":"6532320"},"type":"Feature"},{"geometry":{"coordinates":[-91.51188,41.63534],"type":"Point"},"properties":{"kind":"stop","name":"Burns Ave & Sycamore St","stop_id":"6532321"},"type":"Feature"},{"geometry":{"coordinates":[-91.5336,41.64078],"type":"Point"},"properties":{"kind":"stop","name":"Gilbert St & Southgate Ave","stop_id":"6532329"},"type":"Feature"},{"geometry":{"coordinates":[-91.52928,41.63156],"type":"Point"},"properties":{"kind":"stop","name":"Gilbert St & Naploeon Ln","stop_id":"6532330"},"type":"Feature"},{"geometry":{"coordinates":[-91.54053,41.62979],"type":"Point"},"properties":{"kind":"stop","name":"McCollister Blvd & Riverside Dr","stop_id":"6532332"},"type":"Feature"},{"geometry":{"coordinates":[-91.52887,41.6312],"type":"Point"},"properties":{"kind":"stop","name":"Iowa River Trail & South Gilbert","stop_id":"6532334"},"type":"Feature"},{"geometry":{"coordinates":[-91.53172,41.63556],"type":"Point"},"properties":{"kind":"stop","name":"South Gilbert St & Cherry Ave","stop_id":"6532335"},"type":"Feature"},{"geometry":{"coordinates":[-91.53331,41.64062],"type":"Point"},"properties":{"kind":"stop","name":"Southgate Ave & Gilbert St","stop_id":"6532336"},"type":"Feature"},{"geometry":{"coordinates":[-91.53345,41.64281],"type":"Point"},"properties":{"kind":"stop","name":"Gilbert St & Stevens Dr","stop_id":"6532337"},"type":"Feature"},{"geometry":{"coordinates":[-91.53616,41.65435],"type":"Point"},"properties":{"kind":"stop","name":"Capitol St & Prentiss St","stop_id":"6532338"},"type":"Feature"},{"geometry":{"coordinates":[-91.53766,41.65937],"type":"Point"},"properties":{"kind":"stop","name":"Madison St @ UI Seamans Center","stop_id":"6532339"},"type":"Feature"},{"geometry":{"coordinates":[-91.54034,41.65051],"type":"Point"},"properties":{"kind":"stop","name":"Riverside Dr & Benton St","stop_id":"6532341"},"type":"Feature"},{"geometry":{"coordinates":[-91.54525,41.64754],"type":"Point"},"properties":{"kind":"stop","name":"Hwy 1 & Hudson Ave","stop_id":"6532342"},"type":"Feature"},{"geometry":{"coordinates":[-91.55932,41.64257],"type":"Point"},"properties":{"kind":"stop","name":"Sunset St & Hwy 1","stop_id":"6532343"},"type":"Feature"},{"geometry":{"coordinates":[-91.55933,41.64556],"type":"Point"},"properties":{"kind":"stop","name":"Sunset St & Denbigh Dr","stop_id":"6532344"},"type":"Feature"},{"geometry":{"coordinates":[-91.56656,41.64969],"type":"Point"},"properties":{"kind":"stop","name":"Benton St & Westgate St","stop_id":"6532345"},"type":"Feature"},{"geometry":{"coordinates":[-91.57087,41.6497],"type":"Point"},"properties":{"kind":"stop","name":"Benton St & Spencer Dr","stop_id":"6532346"},"type":"Feature"},{"geometry":{"coordinates":[-91.5782,41.65326],"type":"Point"},"properties":{"kind":"stop","name":"Westwinds Dr & Roberts Rd","stop_id":"6532347"},"type":"Feature"},{"geometry":{"coordinates":[-91.57234,41.64961],"type":"Point"},"properties":{"kind":"stop","name":"Benton St & Willow Creek Park","stop_id":"6532348"},"type":"Feature"},{"geometry":{"coordinates":[-91.55936,41.64813],"type":"Point"},"properties":{"kind":"stop","name":"Sunset St & Arbury Dr","stop_id":"6532349"},"type":"Feature"},{"geometry":{"coordinates":[-91.55942,41.64247],"type":"Point"},"properties":{"kind":"stop","name":"Sunset St & Willow Creek Dr","stop_id":"6532350"},"type":"Feature"},{"geometry":{"coordinates":[-91.53284,41.67094],"type":"Point"},"properties":{"kind":"stop","name":"Dubuque St & Park Rd","stop_id":"6532685"},"type":"Feature"},{"geometry":{"coordinates":[-91.53637,41.65429],"type":"Point"},"properties":{"kind":"stop","name":"Capitol St & Prentiss St","stop_id":"6532686"},"type":"Feature"},{"geometry":{"coordinates":[-91.52449,41.66237],"type":"Point"},"properties":{"kind":"stop","name":"Jefferson St & Lucas St","stop_id":"6535565"},"type":"Feature"},{"geometry":{"coordinates":[-91.51819,41.6639],"type":"Point"},"properties":{"kind":"stop","name":"Rochester Ave & Mott St","stop_id":"6535568"},"type":"Feature"},{"geometry":{"coordinates":[-91.5159,41.66389],"type":"Point"},"properties":{"kind":"stop","name":"Rochester Ave & Parsons Ave","stop_id":"6535569"},"type":"Feature"},{"geometry":{"coordinates":[-91.51821,41.66398],"type":"Point"},"properties":{"kind":"stop","name":"Rochester Ave & Mott St","stop_id":"6535602"},"type":"Feature"},{"geometry":{"coordinates":[-91.57425,41.64353],"type":"Point"},"properties":{"kind":"stop","name":"Mormon Trek & Rushmore Dr","stop_id":"6535936"},"type":"Feature"},{"geometry":{"coordinates":[-91.574,41.65152],"type":"Point"},"properties":{"kind":"stop","name":"Mormon Trek Blvd & Cameron Way","stop_id":"6535937"},"type":"Feature"},{"geometry":{"coordinates":[-91.50364,41.64952],"type":"Point"},"properties":{"kind":"stop","name":"Muscatine Ave & 2nd Ave - Walgreens","stop_id":"6535939"},"type":"Feature"},{"geometry":{"coordinates":[-91.49948,41.63612],"type":"Point"},"properties":{"kind":"stop","name":"The Quarters Outbound","stop_id":"6536001"},"type":"Feature"},{"geometry":{"coordinates":[-91.49951,41.63621],"type":"Point"},"properties":{"kind":"stop","name":"The Quarters Inbound","stop_id":"6536002"},"type":"Feature"},{"geometry":{"coordinates":[-91.52211,41.67489],"type":"Point"},"properties":{"kind":"stop","name":"North Dodge St","stop_id":"6536639"},"type":"Feature"},{"geometry":{"coordinates":[-91.53283,41.67235],"type":"Point"},"properties":{"kind":"stop","name":"Dubuque St & Park Rd","stop_id":"6540768"},"type":"Feature"},{"geometry":{"coordinates":[-91.59884,41.64552],"type":"Point"},"properties":{"kind":"stop","name":"Wild Prairie Dr & El Paso Dr","stop_id":"6543419"},"type":"Feature"},{"geometry":{"coordinates":[-91.57403,41.64841],"type":"Point"},"properties":{"kind":"stop","name":"Mormon Trek Blvd & Benton St","stop_id":"6543420"},"type":"Feature"},{"geometry":{"coordinates":[-91.53759,41.66236],"type":"Point"},"properties":{"kind":"stop","name":"Madison St & Jefferson St","stop_id":"6543421"},"type":"Feature"},{"geometry":{"coordinates":[-91.51104,41.63353],"type":"Point"},"properties":{"kind":"stop","name":"Lakeside Dr & Sycamore St","stop_id":"6543422"},"type":"Feature"},{"geometry":{"coordinates":[-91.48303,41.66464],"type":"Point"},"properties":{"kind":"stop","name":"N Scott Blvd & Lower West Branch Rd","stop_id":"6606918"},"type":"Feature"},{"geometry":{"coordinates":[-91.48212,41.66038],"type":"Point"},"properties":{"kind":"stop","name":"N Scott Blvd & E. Washington St","stop_id":"6606919"},"type":"Feature"},{"geometry":{"coordinates":[-91.52747,41.62848],"type":"Point"},"properties":{"kind":"stop","name":"S Gilbert St & McCollister Blvd","stop_id":"6608077"},"type":"Feature"},{"geometry":{"coordinates":[-91.52806,41.62803],"type":"Point"},"properties":{"kind":"stop","name":"McCollister Blvd & S Gilbert St","stop_id":"6608078"},"type":"Feature"},{"geometry":{"coordinates":[-91.48722,41.66774],"type":"Point"},"properties":{"kind":"stop","name":"Rochester Ave & Amhurst St","stop_id":"6608083"},"type":"Feature"},{"geometry":{"coordinates":[-91.48405,41.66015],"type":"Point"},"properties":{"kind":"stop","name":"Washington St & Amhurst St","stop_id":"6608084"},"type":"Feature"},{"geometry":{"coordinates":[-91.48301,41.667],"type":"Point"},"properties":{"kind":"stop","name":"Scott Blvd & Middlebury Rd","stop_id":"6608085"},"type":"Feature"},{"geometry":{"coordinates":[-91.51979,41.67574],"type":"Point"},"properties":{"kind":"stop","name":"North Dodge St @ Hy Vee","stop_id":"6620683"},"type":"Feature"},{"geometry":{"coordinates":[-91.49778,41.635],"type":"Point"},"properties":{"kind":"stop","name":"Lakeside Dr & Frontage Rd","stop_id":"6681593"},"type":"Feature"},{"geometry":{"coordinates":[-91.50041,41.64952],"type":"Point"},"properties":{"kind":"stop","name":"Muscatine Ave & Wade St","stop_id":"6683305"},"type":"Feature"},{"geometry":{"coordinates":[-91.56677,41.6558],"type":"Point"},"properties":{"kind":"stop","name":"Westgate St & Melrose Ave","stop_id":"6696365"},"type":"Feature"},{"geometry":{"coordinates":[-91.50608,41.63348],"type":"Point"},"properties":{"kind":"stop","name":"Lakeside Dr & Amber Ln","stop_id":"6781314"},"type":"Feature"},{"geometry":{"coordinates":[-91.5363,41.65649],"type":"Point"},"properties":{"kind":"stop","name":"Court St & Capitol St","stop_id":"6800674"},"type":"Feature"},{"geometry":{"coordinates":[-91.53469,41.66367],"type":"Point"},"properties":{"kind":"stop","name":"Market St & Clinton St","stop_id":"6906453"},"type":"Feature"},{"geometry":{"coordinates":[-91.49643,41.68913],"type":"Point"},"properties":{"kind":"stop","name":"Highlander Hotel Outbound","stop_id":"8312545"},"type":"Feature"},{"geometry":{"coordinates":[-91.49598,41.68814],"type":"Point"},"properties":{"kind":"stop","name":"Highlander Hotel","stop_id":"8312546"},"type":"Feature"},{"geometry":{"coordinates":[-91.49637,41.68919],"type":"Point"},"properties":{"kind":"stop","name":"Highlander Place Inbound","stop_id":"8312547"},"type":"Feature"},{"geometry":{"coordinates":[-91.50384,41.67678],"type":"Point"},"properties":{"kind":"stop","name":"Oaknoll East","stop_id":"8505524"},"type":"Feature"},{"geometry":{"coordinates":[-91.50724,41.68019],"type":"Point"},"properties":{"kind":"stop","name":"Scott Blvd. @ N. Dubuque Rd.","stop_id":"8505525"},"type":"Feature"},{"geometry":{"coordinates":[-91.50062,41.6303],"type":"Point"},"properties":{"kind":"stop","name":"Whispering Prairie & Whispering Meadow","stop_id":"8857544"},"type":"Feature"},{"geometry":{"coordinates":[-91.5512,41.66358],"type":"Point"},"properties":{"kind":"stop","name":"Newton Rd & Lincoln Ave","stop_id":"9624339"},"type":"Feature"}],"type":"FeatureCollection"}
