{"features":[{"geometry":{"coordinates":[[-107.84547,37.93664],[-107.85368,37.93257]],"type":"LineString"},"properties":{"color":"#9A6A2F","color_name":"brown","kind":"route","label":"Market Plaza - Mountain Village Center","long":"Market Plaza - Mountain Village Center","route_id":"17119","text_color":"#000000","type_label":"Aerial lift"},"type":"Feature"},{"geometry":{"coordinates":[[-107.81385,37.93606],[-107.83305,37.93133],[-107.84494,37.93665]],"type":"LineString"},"properties":{"color":"#9A6A2F","color_name":"brown","kind":"route","label":"Mountain Village Center - Telluride","long":"Mountain Village Center - Telluride","route_id":"17120","text_color":"#000000","type_label":"Aerial lift"},"type":"Feature"},{"geometry":{"coordinates":[[-107.8818,37.94642],[-107.88126,37.94664],[-107.87936,37.94653],[-107.87728,37.94677],[-107.87525,37.94617],[-107.87416,37.94678],[-107.87365,37.94792],[-107.87313,37.94832],[-107.87272,37.94837],[-107.87171,37.9479],[-107.87121,37.95029],[-107.87085,37.95047],[-107.86593,37.95104],[-107.85891,37.95143],[-107.85783,37.95136],[-107.85303,37.95037],[-107.84762,37.94836],[-107.83325,37.94626],[-107.82728,37.94461],[-107.82499,37.94375],[-107.8233,37.94289],[-107.81818,37.93912],[-107.8128,37.93767],[-107.81375,37.93792],[-107.81356,37.93837],[-107.81157,37.93786],[-107.81176,37.9374],[-107.8071,37.93608],[-107.81789,37.939],[-107.81865,37.9394],[-107.82221,37.94221],[-107.82432,37.94345],[-107.82651,37.94437],[-107.83325,37.94626],[-107.84762,37.94836],[-107.85303,37.95037],[-107.85783,37.95136],[-107.8647,37.95114],[-107.87132,37.95052],[-107.87147,37.95038],[-107.87138,37.94936],[-107.87171,37.9479],[-107.87272,37.94837],[-107.87313,37.94832],[-107.87365,37.94792],[-107.87416,37.94678],[-107.87492,37.94628],[-107.87559,37.94623],[-107.87728,37.94677],[-107.87936,37.94653],[-107.88126,37.94664],[-107.88179,37.94646],[-107.88126,37.94664],[-107.87936,37.94653],[-107.87728,37.94677],[-107.87525,37.94617],[-107.87416,37.94678],[-107.87365,37.94792],[-107.87313,37.94832],[-107.87272,37.94837],[-107.87171,37.9479],[-107.87216,37.94644],[-107.87301,37.94578],[-107.87384,37.94561],[-107.87854,37.9456],[-107.8802,37.94431],[-107.88145,37.94376],[-107.88188,37.94336],[-107.88168,37.94271],[-107.87957,37.94139],[-107.87915,37.94075],[-107.87914,37.94022],[-107.88007,37.93741],[-107.87965,37.93298],[-107.87877,37.93285],[-107.87696,37.93364],[-107.87596,37.93367],[-107.87626,37.93419],[-107.87792,37.93494],[-107.87812,37.93715],[-107.87712,37.93773],[-107.87632,37.93966],[-107.87591,37.94016],[-107.87301,37.94053],[-107.87183,37.94188],[-107.87169,37.94262],[-107.87,37.94361],[-107.86789,37.94373],[-107.86411,37.94284],[-107.86347,37.94177],[-107.861,37.9417],[-107.8595,37.94057],[-107.85655,37.93961],[-107.85601,37.93967],[-107.85531,37.93942],[-107.85601,37.93967],[-107.8554,37.93941],[-107.85655,37.93961],[-107.85795,37.94009],[-107.85842,37.94016],[-107.8591,37.93986],[-107.86032,37.94023]],"type":"LineString"},"properties":{"color":"#2B34A1","color_name":"blue","kind":"route","label":"Telluride/Mountain Village","long":"Telluride/Mountain Village","route_id":"18985","text_color":"#FFFFFF","type_label":"Bus"},"type":"Feature"},{"geometry":{"coordinates":[-107.88182,37.94642],"type":"Point"},"properties":{"kind":"stop","name":"Upper Lawson Hill","stop_id":"2618220"},"type":"Feature"},{"geometry":{"coordinates":[-107.87328,37.94718],"type":"Point"},"properties":{"kind":"stop","name":"Lawson Hill Park & Ride","stop_id":"2618221"},"type":"Feature"},{"geometry":{"coordinates":[-107.81283,37.93778],"type":"Point"},"properties":{"kind":"stop","name":"Courthouse","stop_id":"2618224"},"type":"Feature"},{"geometry":{"coordinates":[-107.8071,37.93608],"type":"Point"},"properties":{"kind":"stop","name":"Telluride Town Park East","stop_id":"2629530"},"type":"Feature"},{"geometry":{"coordinates":[-107.85368,37.93257],"type":"Point"},"properties":{"kind":"stop","name":"Station Market Plaza","stop_id":"2629539"},"type":"Feature"},{"geometry":{"coordinates":[-107.84547,37.93664],"type":"Point"},"properties":{"kind":"stop","name":"Station Mountain Village","stop_id":"2629540"},"type":"Feature"},{"geometry":{"coordinates":[-107.84494,37.93665],"type":"Point"},"properties":{"kind":"stop","name":"Station Mountain Village","stop_id":"2629541"},"type":"Feature"},{"geometry":{"coordinates":[-107.83305,37.93133],"type":"Point"},"properties":{"kind":"stop","name":"Station San Sophia","stop_id":"2629542"},"type":"Feature"},{"geometry":{"coordinates":[-107.81385,37.93606],"type":"Point"},"properties":{"kind":"stop","name":"Station Telluride","stop_id":"2629543"},"type":"Feature"},{"geometry":{"coordinates":[-107.85161,37.94998],"type":"Point"},"properties":{"kind":"stop","name":"Pilot Knob WB","stop_id":"2729563"},"type":"Feature"},{"geometry":{"coordinates":[-107.85398,37.95053],"type":"Point"},"properties":{"kind":"stop","name":"Eider Creek EB","stop_id":"2729564"},"type":"Feature"},{"geometry":{"coordinates":[-107.84906,37.94875],"type":"Point"},"properties":{"kind":"stop","name":"Hillside EB","stop_id":"2729565"},"type":"Feature"},{"geometry":{"coordinates":[-107.84875,37.94876],"type":"Point"},"properties":{"kind":"stop","name":"Hillside WB","stop_id":"2729566"},"type":"Feature"},{"geometry":{"coordinates":[-107.8604,37.94014],"type":"Point"},"properties":{"kind":"stop","name":"Meadows Post Office","stop_id":"2735507"},"type":"Feature"},{"geometry":{"coordinates":[-107.84759,37.93547],"type":"Point"},"properties":{"kind":"stop","name":"Blue Mesa Bus Stop","stop_id":"2735510"},"type":"Feature"},{"geometry":{"coordinates":[-107.85742,37.93983],"type":"Point"},"properties":{"kind":"stop","name":"Big Billie's","stop_id":"3449922"},"type":"Feature"},{"geometry":{"coordinates":[-107.84682,37.93798],"type":"Point"},"properties":{"kind":"stop","name":"Centrum Bus Stop","stop_id":"3449923"},"type":"Feature"},{"geometry":{"coordinates":[-107.81952,37.94022],"type":"Point"},"properties":{"kind":"stop","name":"Telluride High School WB","stop_id":"4149674"},"type":"Feature"},{"geometry":{"coordinates":[-107.85391,37.95064],"type":"Point"},"properties":{"kind":"stop","name":"Eider Creek WB","stop_id":"4149677"},"type":"Feature"},{"geometry":{"coordinates":[-107.85665,37.9331],"type":"Point"},"properties":{"kind":"stop","name":"Village Court Apartments","stop_id":"4149678"},"type":"Feature"},{"geometry":{"coordinates":[-107.87961,37.93293],"type":"Point"},"properties":{"kind":"stop","name":"Ski Ranches EB","stop_id":"4149679"},"type":"Feature"},{"geometry":{"coordinates":[-107.81967,37.94019],"type":"Point"},"properties":{"kind":"stop","name":"Telluride High School EB","stop_id":"4149682"},"type":"Feature"},{"geometry":{"coordinates":[-107.87869,37.94658],"type":"Point"},"properties":{"kind":"stop","name":"Telluride Mountain School EB","stop_id":"4149683"},"type":"Feature"},{"geometry":{"coordinates":[-107.87872,37.94673],"type":"Point"},"properties":{"kind":"stop","name":"Telluride Mountain School WB","stop_id":"4149684"},"type":"Feature"},{"geometry":{"coordinates":[-107.87483,37.94033],"type":"Point"},"properties":{"kind":"stop","name":"Adams Way","stop_id":"4149685"},"type":"Feature"},{"geometry":{"coordinates":[-107.86999,37.94358],"type":"Point"},"properties":{"kind":"stop","name":"Lawson Overlook","stop_id":"4149686"},"type":"Feature"},{"geometry":{"coordinates":[-107.86691,37.94339],"type":"Point"},"properties":{"kind":"stop","name":"Double Eagle","stop_id":"4149688"},"type":"Feature"},{"geometry":{"coordinates":[-107.86131,37.9417],"type":"Point"},"properties":{"kind":"stop","name":"The Boulders","stop_id":"4149689"},"type":"Feature"},{"geometry":{"coordinates":[-107.86565,37.93956],"type":"Point"},"properties":{"kind":"stop","name":"Double Eagle & Russel Dr","stop_id":"4149691"},"type":"Feature"}],"type":"FeatureCollection"}
