{"features":[{"geometry":{"coordinates":[[-118.17355,33.95935],[-118.17328,33.95928],[-118.17326,33.95945],[-118.17433,33.95969],[-118.1857,33.96087],[-118.18631,33.96322],[-118.1722,33.96173],[-118.17195,33.96379],[-118.17371,33.96402],[-118.17382,33.96421],[-118.18104,33.96496],[-118.181,33.96519],[-118.18238,33.96533],[-118.18242,33.96511],[-118.19883,33.96683],[-118.2001,33.96809],[-118.19435,33.96752],[-118.19429,33.96792],[-118.18742,33.96719],[-118.18729,33.96721],[-118.18749,33.96795],[-118.17173,33.96628],[-118.19418,33.96866],[-118.19401,33.96979],[-118.19966,33.97038],[-118.19982,33.96924],[-118.19418,33.96866],[-118.19486,33.96413],[-118.18643,33.96323],[-118.18578,33.9607],[-118.18493,33.95841],[-118.17717,33.95766],[-118.1772,33.95729],[-118.17705,33.9572],[-118.17297,33.95677],[-118.17283,33.95766],[-118.17643,33.95803],[-118.17701,33.95766],[-118.17959,33.95792],[-118.17924,33.96019],[-118.17433,33.95969],[-118.17353,33.95948],[-118.17355,33.95935]],"type":"LineString"},"properties":{"color":"#1A7A46","color_name":"green","kind":"route","label":"CART","long":"Cudahy Area Rapid Transit","route_id":"CART","text_color":"#FFFFFF","type_label":"Bus"},"type":"Feature"},{"geometry":{"coordinates":[-118.1945,33.96746],"type":"Point"},"properties":{"kind":"stop","name":"Flower / Otis","stop_id":"1kor"},"type":"Feature"},{"geometry":{"coordinates":[-118.17312,33.95776],"type":"Point"},"properties":{"kind":"stop","name":"Cecilia / River","stop_id":"1ni5"},"type":"Feature"},{"geometry":{"coordinates":[-118.17861,33.96018],"type":"Point"},"properties":{"kind":"stop","name":"Santa Ana / Wilcox","stop_id":"1snq"},"type":"Feature"},{"geometry":{"coordinates":[-118.17365,33.95935],"type":"Point"},"properties":{"kind":"stop","name":"City Hall","stop_id":"2712688"},"type":"Feature"},{"geometry":{"coordinates":[-118.18582,33.9631],"type":"Point"},"properties":{"kind":"stop","name":"Elizabeth / Atlantic","stop_id":"2712689"},"type":"Feature"},{"geometry":{"coordinates":[-118.18641,33.96563],"type":"Point"},"properties":{"kind":"stop","name":"Clara / Atlantic","stop_id":"2712690"},"type":"Feature"},{"geometry":{"coordinates":[-118.18673,33.9678],"type":"Point"},"properties":{"kind":"stop","name":"Live Oak / Atlantic","stop_id":"2712691"},"type":"Feature"},{"geometry":{"coordinates":[-118.19489,33.96452],"type":"Point"},"properties":{"kind":"stop","name":"Otis / Elizabeth","stop_id":"2712692"},"type":"Feature"},{"geometry":{"coordinates":[-118.18512,33.96089],"type":"Point"},"properties":{"kind":"stop","name":"Santa Ana / Atlantic","stop_id":"2712693"},"type":"Feature"},{"geometry":{"coordinates":[-118.17745,33.95778],"type":"Point"},"properties":{"kind":"stop","name":"Cecelia / Fostoria","stop_id":"2712694"},"type":"Feature"},{"geometry":{"coordinates":[-118.17924,33.9624],"type":"Point"},"properties":{"kind":"stop","name":"Elizabeth / Wilcox","stop_id":"3nq3"},"type":"Feature"},{"geometry":{"coordinates":[-118.1985,33.9669],"type":"Point"},"properties":{"kind":"stop","name":"Clara / Salt Lake","stop_id":"6guy"},"type":"Feature"},{"geometry":{"coordinates":[-118.19419,33.96645],"type":"Point"},"properties":{"kind":"stop","name":"Clara / Otis","stop_id":"7pr7"},"type":"Feature"},{"geometry":{"coordinates":[-118.17726,33.9668],"type":"Point"},"properties":{"kind":"stop","name":"Live Oak / Wilcox","stop_id":"c9m1"},"type":"Feature"},{"geometry":{"coordinates":[-118.19942,33.97041],"type":"Point"},"properties":{"kind":"stop","name":"Walnut / Bear","stop_id":"dxdf"},"type":"Feature"},{"geometry":{"coordinates":[-118.17915,33.96483],"type":"Point"},"properties":{"kind":"stop","name":"Clara / Wilcox","stop_id":"eff3"},"type":"Feature"},{"geometry":{"coordinates":[-118.17172,33.96637],"type":"Point"},"properties":{"kind":"stop","name":"Live Oak St","stop_id":"f5qw"},"type":"Feature"},{"geometry":{"coordinates":[-118.18007,33.9579],"type":"Point"},"properties":{"kind":"stop","name":"Cecilia / Wilcox","stop_id":"fdqn"},"type":"Feature"},{"geometry":{"coordinates":[-118.17959,33.96028],"type":"Point"},"properties":{"kind":"stop","name":"Santa Ana / Wilcox","stop_id":"fgki"},"type":"Feature"},{"geometry":{"coordinates":[-118.19455,33.96861],"type":"Point"},"properties":{"kind":"stop","name":"Live Oak / Otis","stop_id":"grd0"},"type":"Feature"},{"geometry":{"coordinates":[-118.17249,33.96171],"type":"Point"},"properties":{"kind":"stop","name":"Elizabeth / River","stop_id":"htoc"},"type":"Feature"},{"geometry":{"coordinates":[-118.18768,33.96575],"type":"Point"},"properties":{"kind":"stop","name":"Clara / Atlantic","stop_id":"l4zx"},"type":"Feature"},{"geometry":{"coordinates":[-118.18759,33.96714],"type":"Point"},"properties":{"kind":"stop","name":"Hartle / Atlantic","stop_id":"qisr"},"type":"Feature"},{"geometry":{"coordinates":[-118.17858,33.96708],"type":"Point"},"properties":{"kind":"stop","name":"Live Oak / Wilcox","stop_id":"tnuw"},"type":"Feature"},{"geometry":{"coordinates":[-118.18359,33.96747],"type":"Point"},"properties":{"kind":"stop","name":"Live Oak St","stop_id":"tqsp"},"type":"Feature"},{"geometry":{"coordinates":[-118.18146,33.96537],"type":"Point"},"properties":{"kind":"stop","name":"Clara Park","stop_id":"vcil"},"type":"Feature"},{"geometry":{"coordinates":[-118.18742,33.96329],"type":"Point"},"properties":{"kind":"stop","name":"Elizabeth / Atlantic","stop_id":"w2l3"},"type":"Feature"},{"geometry":{"coordinates":[-118.17533,33.96675],"type":"Point"},"properties":{"kind":"stop","name":"Live Oak / Crafton","stop_id":"x0q7"},"type":"Feature"},{"geometry":{"coordinates":[-118.18673,33.96793],"type":"Point"},"properties":{"kind":"stop","name":"Live Oak / Atlantic","stop_id":"x6lo"},"type":"Feature"},{"geometry":{"coordinates":[-118.19069,33.9684],"type":"Point"},"properties":{"kind":"stop","name":"Live Oak St","stop_id":"xyik"},"type":"Feature"},{"geometry":{"coordinates":[-118.1744,33.96434],"type":"Point"},"properties":{"kind":"stop","name":"Clara / Walker","stop_id":"yg2d"},"type":"Feature"}],"type":"FeatureCollection"}
