{"features":[{"geometry":{"coordinates":[[-118.02586,34.03108],[-118.02583,34.02883],[-118.02715,34.02862],[-118.03096,34.02685],[-118.03226,34.02507],[-118.03291,34.02459],[-118.0347,34.02379],[-118.03538,34.02326],[-118.03654,34.02177],[-118.03723,34.02164],[-118.0377,34.02023],[-118.03874,34.01902],[-118.04301,34.01574],[-118.04519,34.01469],[-118.04819,34.01172],[-118.0508,34.0102],[-118.05402,34.00973],[-118.05509,34.00899],[-118.05582,34.00675],[-118.05643,34.00244],[-118.05587,34.00022],[-118.05523,33.99923],[-118.05542,33.99867],[-118.07524,33.97863],[-118.0758,33.97773],[-118.07568,33.97623],[-118.0741,33.9727],[-118.07299,33.97072],[-118.07111,33.96801],[-118.07061,33.96472],[-118.0739,33.96507],[-118.08229,33.9671],[-118.08295,33.96495],[-118.08318,33.96261],[-118.08459,33.95958],[-118.087,33.95314],[-118.09042,33.94723],[-118.09069,33.94563],[-118.09058,33.93528],[-118.07277,33.93534],[-118.07264,33.91629],[-118.07266,33.91392],[-118.07289,33.91323],[-118.07717,33.90742],[-118.08154,33.90964],[-118.08239,33.9099],[-118.08273,33.90895],[-118.08251,33.88769],[-118.10396,33.88758],[-118.11159,33.88807],[-118.11302,33.88836],[-118.11525,33.88925],[-118.1174,33.88937],[-118.11734,33.88194],[-118.11791,33.88217],[-118.13394,33.88204],[-118.13407,33.9041],[-118.13092,33.90387],[-118.12688,33.90223],[-118.12598,33.90204],[-118.11666,33.90203],[-118.11666,33.90138]],"type":"LineString"},"properties":{"color":"#D11242","color_name":"red","kind":"route","label":"1","long":"Rio Hondo/Bellflower","route_id":"5751","text_color":"#000000","type_label":"Bus"},"type":"Feature"},{"geometry":{"coordinates":[[-118.07264,33.91629],[-118.07266,33.91392],[-118.07295,33.91309],[-118.07417,33.91168],[-118.07717,33.90742],[-118.08154,33.90964],[-118.08239,33.9099],[-118.08273,33.90895],[-118.08221,33.86575],[-118.09959,33.86568],[-118.09955,33.86663],[-118.09895,33.8685],[-118.09887,33.8695],[-118.09961,33.87197],[-118.09967,33.87286],[-118.09998,33.90475],[-118.09919,33.90802],[-118.09918,33.91715],[-118.10347,33.91716],[-118.10339,33.91368],[-118.10373,33.91368],[-118.10373,33.91336],[-118.10371,33.9125],[-118.10339,33.91252],[-118.10345,33.91705],[-118.07264,33.91708],[-118.07266,33.91392],[-118.07295,33.91309],[-118.07417,33.91168],[-118.07717,33.90742],[-118.08154,33.90964],[-118.08239,33.9099],[-118.08277,33.90836],[-118.08272,33.90499]],"type":"LineString"},"properties":{"color":"#0084A9","color_name":"teal","kind":"route","label":"2","long":"NSQ/Green Line/Cerritos College/Cerritos Mall","route_id":"5795","text_color":"#000000","type_label":"Bus"},"type":"Feature"},{"geometry":{"coordinates":[[-118.04719,33.94083],[-118.0486,33.94176],[-118.04956,33.94194],[-118.07243,33.94192],[-118.0735,33.94221],[-118.08953,33.94883],[-118.09042,33.94723],[-118.09069,33.94563],[-118.09058,33.93528],[-118.08186,33.93525],[-118.08176,33.93166],[-118.07277,33.93171],[-118.07266,33.91419],[-118.07095,33.91416],[-118.06941,33.91355],[-118.06466,33.91461],[-118.06464,33.90957],[-118.0554,33.90961],[-118.05532,33.90242],[-118.06411,33.90238],[-118.06409,33.8878],[-118.07287,33.88775],[-118.07277,33.87999]],"type":"LineString"},"properties":{"color":"#333092","color_name":"blue","kind":"route","label":"3","long":"Gateway Plaza/Norwalk/166th Street","route_id":"5803","text_color":"#FFFFFF","type_label":"Bus"},"type":"Feature"},{"geometry":{"coordinates":[[-118.10373,33.9131],[-118.10373,33.91368],[-118.10339,33.91368],[-118.10345,33.91705],[-118.06205,33.91713],[-118.06196,33.91688],[-118.06119,33.91689],[-118.06112,33.91649],[-118.0606,33.91664],[-118.06068,33.91687],[-118.06196,33.91688],[-118.06205,33.91713],[-118.05661,33.91717],[-118.05385,33.91689],[-118.00959,33.91713],[-118.00866,33.91698],[-118.00628,33.91612],[-118.00521,33.91604],[-118.00073,33.91718],[-117.96803,33.91729],[-117.96764,33.91902],[-117.9677,33.92459],[-117.95918,33.92452],[-117.95917,33.91741],[-117.95993,33.9174]],"type":"LineString"},"properties":{"color":"#9D3393","color_name":"purple","kind":"route","label":"4","long":"Imperial Highway/Metrolink Station/Green Line Station","route_id":"5850","text_color":"#000000","type_label":"Bus"},"type":"Feature"},{"geometry":{"coordinates":[[-118.10373,33.91289],[-118.10373,33.9125],[-118.1034,33.9125],[-118.10347,33.91717],[-118.10596,33.91719],[-118.10593,33.91777],[-118.10542,33.91804],[-118.10511,33.91772],[-118.10513,33.91624],[-118.10488,33.91464],[-118.10514,33.90943],[-118.10569,33.90584],[-118.10572,33.90394],[-118.10654,33.90313],[-118.10664,33.90209],[-118.02489,33.90245],[-118.02203,33.90182],[-118.0159,33.89892],[-118.01353,33.89837],[-118.01172,33.89834],[-118.00084,33.89907],[-117.99662,33.89879],[-117.99992,33.89356],[-118.00109,33.89423]],"type":"LineString"},"properties":{"color":"#00A0B0","color_name":"teal","kind":"route","label":"5","long":"Green Line Station To/From La Mirada Via Rosecrans","route_id":"5851","text_color":"#FFFFFF","type_label":"Bus"},"type":"Feature"},{"geometry":{"coordinates":[[-118.04497,34.07237],[-118.04584,34.0724],[-118.04595,34.07205],[-118.04434,34.07203],[-118.04432,34.07263],[-118.04359,34.07263],[-118.04342,34.07193],[-118.03599,34.07204],[-118.03595,34.07296],[-118.03505,34.07491],[-118.0335,34.07406],[-118.03199,34.07189],[-118.02819,34.06897],[-118.02983,34.06683],[-118.03051,34.06479],[-118.03067,34.04709],[-118.03045,34.04627],[-118.02989,34.04571],[-118.03681,34.04012],[-118.03757,34.0393],[-118.03832,34.0379],[-118.03855,34.0364],[-118.03726,34.03052],[-118.03788,34.02547],[-118.03738,34.02344],[-118.03723,34.02164],[-118.0377,34.02023],[-118.03874,34.01902],[-118.04202,34.01642],[-118.04533,34.01458],[-118.04819,34.01172],[-118.0508,34.0102],[-118.05402,34.00973],[-118.05494,34.00918],[-118.05582,34.00675],[-118.05641,34.00216],[-118.05579,34.00002],[-118.05523,33.99923],[-118.05542,33.99867],[-118.05494,33.99819],[-118.04833,33.98829],[-118.04783,33.98811],[-118.03735,33.98813],[-118.03734,33.98271],[-118.03266,33.98272],[-118.03269,33.97348],[-118.03451,33.97365],[-118.04208,33.97368],[-118.04205,33.96827],[-118.04816,33.96742],[-118.0459,33.96376],[-118.06248,33.94733],[-118.06341,33.94611],[-118.06393,33.94489],[-118.0641,33.94343],[-118.06393,33.91722],[-118.06402,33.91637],[-118.06466,33.91461],[-118.06941,33.91355],[-118.07095,33.91416],[-118.07266,33.91419],[-118.0731,33.91283],[-118.07568,33.90949],[-118.08998,33.91716],[-118.09932,33.91715],[-118.09933,33.91438],[-118.1034,33.91453],[-118.10339,33.91388],[-118.10387,33.91382],[-118.1039,33.91345]],"type":"LineString"},"properties":{"color":"#CF9F24","color_name":"yellow","kind":"route","label":"7","long":"Green Line Station/El Monte Station","route_id":"5852","text_color":"#FCFCFC","type_label":"Bus"},"type":"Feature"},{"geometry":{"coordinates":[-118.0593,33.90249],"type":"Point"},"properties":{"kind":"stop","name":"12801 Rosecrans Avenue","stop_id":"2324469"},"type":"Feature"},{"geometry":{"coordinates":[-118.07317,33.88029],"type":"Point"},"properties":{"kind":"stop","name":"Norwalk/166th","stop_id":"2324470"},"type":"Feature"},{"geometry":{"coordinates":[-118.08419,33.86582],"type":"Point"},"properties":{"kind":"stop","name":"183rd Street and Alburtis Avenue- N/E Corner","stop_id":"2324471"},"type":"Feature"},{"geometry":{"coordinates":[-118.08388,33.86565],"type":"Point"},"properties":{"kind":"stop","name":"183rd Street and Alburtis Avenue- S/E Corner","stop_id":"2324472"},"type":"Feature"},{"geometry":{"coordinates":[-118.09511,33.86578],"type":"Point"},"properties":{"kind":"stop","name":"183rd Street and Best Plaza- N/W Corner","stop_id":"2324473"},"type":"Feature"},{"geometry":{"coordinates":[-118.09182,33.8658],"type":"Point"},"properties":{"kind":"stop","name":"183rd/Gridley","stop_id":"2324474"},"type":"Feature"},{"geometry":{"coordinates":[-118.09166,33.86555],"type":"Point"},"properties":{"kind":"stop","name":"183rd/Gridley","stop_id":"2324475"},"type":"Feature"},{"geometry":{"coordinates":[-118.09434,33.86553],"type":"Point"},"properties":{"kind":"stop","name":"183rd Street and Los Cerritos Center- S/E Corner","stop_id":"2324476"},"type":"Feature"},{"geometry":{"coordinates":[-118.09909,33.86549],"type":"Point"},"properties":{"kind":"stop","name":"183rd Street and Studebaker Road- S/E Corner","stop_id":"2324477"},"type":"Feature"},{"geometry":{"coordinates":[-118.00102,33.89433],"type":"Point"},"properties":{"kind":"stop","name":"Adelfa and Santa Gertrudes","stop_id":"2324479"},"type":"Feature"},{"geometry":{"coordinates":[-118.09583,33.88768],"type":"Point"},"properties":{"kind":"stop","name":"Alondra Boulevard and Elmcroft Avenue- N/W Corner","stop_id":"2324482"},"type":"Feature"},{"geometry":{"coordinates":[-118.09385,33.8877],"type":"Point"},"properties":{"kind":"stop","name":"Alondra Boulevard and Graystone Avenue","stop_id":"2324483"},"type":"Feature"},{"geometry":{"coordinates":[-118.09142,33.88771],"type":"Point"},"properties":{"kind":"stop","name":"Alondra Boulevard and Gridley Road- N/W Corner","stop_id":"2324484"},"type":"Feature"},{"geometry":{"coordinates":[-118.06967,33.88757],"type":"Point"},"properties":{"kind":"stop","name":"Alondra Boulevard and Madris Avenue","stop_id":"2324485"},"type":"Feature"},{"geometry":{"coordinates":[-118.06933,33.88783],"type":"Point"},"properties":{"kind":"stop","name":"Alondra Boulevard and Madris Avenue - N/E Corner","stop_id":"2324486"},"type":"Feature"},{"geometry":{"coordinates":[-118.0865,33.88748],"type":"Point"},"properties":{"kind":"stop","name":"Alondra/Maidstone","stop_id":"2324487"},"type":"Feature"},{"geometry":{"coordinates":[-118.08665,33.88774],"type":"Point"},"properties":{"kind":"stop","name":"Alondra Boulevard and Maidstone Avenue-N/E Corner","stop_id":"2324488"},"type":"Feature"},{"geometry":{"coordinates":[-118.11324,33.8883],"type":"Point"},"properties":{"kind":"stop","name":"Alondra Boulevard and Mc Nab Avenue- S/E Corner","stop_id":"2324489"},"type":"Feature"},{"geometry":{"coordinates":[-118.11366,33.88878],"type":"Point"},"properties":{"kind":"stop","name":"Alondra Boulevard and Mc Nab Avenue- N/W Corner","stop_id":"2324490"},"type":"Feature"},{"geometry":{"coordinates":[-118.07254,33.88755],"type":"Point"},"properties":{"kind":"stop","name":"Norwalk/Alondra","stop_id":"2324491"},"type":"Feature"},{"geometry":{"coordinates":[-118.10634,33.88777],"type":"Point"},"properties":{"kind":"stop","name":"Alondra Boulevard and Piuma Avenue- N/W Corner","stop_id":"2324492"},"type":"Feature"},{"geometry":{"coordinates":[-118.10628,33.8875],"type":"Point"},"properties":{"kind":"stop","name":"Alondra Boulevard and Piuma Avenue- S/W Corner","stop_id":"2324493"},"type":"Feature"},{"geometry":{"coordinates":[-118.09959,33.88766],"type":"Point"},"properties":{"kind":"stop","name":"Alondra Boulevard and Studebaker Road- N/E Corner","stop_id":"2324494"},"type":"Feature"},{"geometry":{"coordinates":[-118.09946,33.88741],"type":"Point"},"properties":{"kind":"stop","name":"Alondra Boulevard and Studebaker Road- S/E Corner","stop_id":"2324495"},"type":"Feature"},{"geometry":{"coordinates":[-118.11693,33.88925],"type":"Point"},"properties":{"kind":"stop","name":"Woodruff/Alondra","stop_id":"2324497"},"type":"Feature"},{"geometry":{"coordinates":[-118.09521,33.88743],"type":"Point"},"properties":{"kind":"stop","name":"Alondra Boulevard opposite Elmcroft Avenue","stop_id":"2324498"},"type":"Feature"},{"geometry":{"coordinates":[-118.09083,33.88746],"type":"Point"},"properties":{"kind":"stop","name":"Alondra Boulevard opposite Gridley Road","stop_id":"2324499"},"type":"Feature"},{"geometry":{"coordinates":[-118.10285,33.88739],"type":"Point"},"properties":{"kind":"stop","name":"Alondra Boulevard opposite Leibacher Avenue","stop_id":"2324500"},"type":"Feature"},{"geometry":{"coordinates":[-117.96755,33.91972],"type":"Point"},"properties":{"kind":"stop","name":"Beach Boulevard and Fashion Square Lane- S/E Corner","stop_id":"2324501"},"type":"Feature"},{"geometry":{"coordinates":[-117.96774,33.91779],"type":"Point"},"properties":{"kind":"stop","name":"Imperial/Beach","stop_id":"2324502"},"type":"Feature"},{"geometry":{"coordinates":[-118.04582,33.98807],"type":"Point"},"properties":{"kind":"stop","name":"Beverly Boulevard and Citrus Avenue","stop_id":"2324503"},"type":"Feature"},{"geometry":{"coordinates":[-118.05069,33.99161],"type":"Point"},"properties":{"kind":"stop","name":"Beverly Boulevard and Floral Drive","stop_id":"2324504"},"type":"Feature"},{"geometry":{"coordinates":[-118.03725,33.98801],"type":"Point"},"properties":{"kind":"stop","name":"Beverly Boulevard and Greenleaf Avenue","stop_id":"2324505"},"type":"Feature"},{"geometry":{"coordinates":[-118.05519,33.99824],"type":"Point"},"properties":{"kind":"stop","name":"Beverly Boulevard and Norwalk Boulevard","stop_id":"2324506"},"type":"Feature"},{"geometry":{"coordinates":[-118.0545,33.99776],"type":"Point"},"properties":{"kind":"stop","name":"Beverly Boulevard and Palm Avenue","stop_id":"2324507"},"type":"Feature"},{"geometry":{"coordinates":[-118.04181,33.98807],"type":"Point"},"properties":{"kind":"stop","name":"Beverly Boulevard and Pickering Avenue","stop_id":"2324508"},"type":"Feature"},{"geometry":{"coordinates":[-118.06426,33.88796],"type":"Point"},"properties":{"kind":"stop","name":"Bloomfield Avenue and Alondra Boulevard","stop_id":"2324509"},"type":"Feature"},{"geometry":{"coordinates":[-118.06477,33.91408],"type":"Point"},"properties":{"kind":"stop","name":"Bloomfield Avenue and Anabella Street","stop_id":"2324510"},"type":"Feature"},{"geometry":{"coordinates":[-118.06473,33.91064],"type":"Point"},"properties":{"kind":"stop","name":"Bloomfield Avenue and Dante Street","stop_id":"2324511"},"type":"Feature"},{"geometry":{"coordinates":[-118.06423,33.89523],"type":"Point"},"properties":{"kind":"stop","name":"Bloomfield Avenue and Excelsior Drive","stop_id":"2324512"},"type":"Feature"},{"geometry":{"coordinates":[-118.06447,33.91348],"type":"Point"},"properties":{"kind":"stop","name":"Bloomfield Avenue and Hacienda Drive","stop_id":"2324513"},"type":"Feature"},{"geometry":{"coordinates":[-118.06445,33.91018],"type":"Point"},"properties":{"kind":"stop","name":"Bloomfield Avenue at Hospital","stop_id":"2324514"},"type":"Feature"},{"geometry":{"coordinates":[-118.06436,33.91497],"type":"Point"},"properties":{"kind":"stop","name":"Bloomfield Avenue and Civic Center Drive","stop_id":"2324515"},"type":"Feature"},{"geometry":{"coordinates":[-118.06415,33.93508],"type":"Point"},"properties":{"kind":"stop","name":"Bloomfield Avenue and Florence Avenue","stop_id":"2324516"},"type":"Feature"},{"geometry":{"coordinates":[-118.06407,33.91677],"type":"Point"},"properties":{"kind":"stop","name":"Bloomfield/Imperial","stop_id":"2324517"},"type":"Feature"},{"geometry":{"coordinates":[-118.06413,33.93121],"type":"Point"},"properties":{"kind":"stop","name":"Bloomfield Avenue and Lakeland Road","stop_id":"2324518"},"type":"Feature"},{"geometry":{"coordinates":[-118.06384,33.94165],"type":"Point"},"properties":{"kind":"stop","name":"Bloomfield/Telegraph","stop_id":"2324519"},"type":"Feature"},{"geometry":{"coordinates":[-118.07164,33.9141],"type":"Point"},"properties":{"kind":"stop","name":"Civic Center Drive at AMC Theaters","stop_id":"2324520"},"type":"Feature"},{"geometry":{"coordinates":[-118.06492,33.91468],"type":"Point"},"properties":{"kind":"stop","name":"Civic Center Drive and Bloomfield Avenue","stop_id":"2324521"},"type":"Feature"},{"geometry":{"coordinates":[-118.06603,33.91422],"type":"Point"},"properties":{"kind":"stop","name":"Civic Center Drive and Silverbow Avenue -S/E Corner","stop_id":"2324524"},"type":"Feature"},{"geometry":{"coordinates":[-118.06853,33.91384],"type":"Point"},"properties":{"kind":"stop","name":"Civic Center Drive and Volunteer Avenue- N/E Corner","stop_id":"2324525"},"type":"Feature"},{"geometry":{"coordinates":[-118.06848,33.91366],"type":"Point"},"properties":{"kind":"stop","name":"Civic Center Drive and Volunteer Avenue - S/E Corner","stop_id":"2324526"},"type":"Feature"},{"geometry":{"coordinates":[-118.06614,33.91439],"type":"Point"},"properties":{"kind":"stop","name":"Civic Center Drive opposite Silverbow Avenue","stop_id":"2324527"},"type":"Feature"},{"geometry":{"coordinates":[-118.13389,33.889],"type":"Point"},"properties":{"kind":"stop","name":"Clark Avenue and Alondra Boulevard - S/E  Corner","stop_id":"2324528"},"type":"Feature"},{"geometry":{"coordinates":[-118.13392,33.89448],"type":"Point"},"properties":{"kind":"stop","name":"Clark Avenue and Ives Street - N/E  Corner","stop_id":"2324529"},"type":"Feature"},{"geometry":{"coordinates":[-118.1339,33.89167],"type":"Point"},"properties":{"kind":"stop","name":"Clark Avenue and Linden Street - N/E  Corner","stop_id":"2324530"},"type":"Feature"},{"geometry":{"coordinates":[-118.13385,33.88396],"type":"Point"},"properties":{"kind":"stop","name":"Clark Avenue and Oak Street at Youth Employment","stop_id":"2324531"},"type":"Feature"},{"geometry":{"coordinates":[-118.13396,33.90384],"type":"Point"},"properties":{"kind":"stop","name":"Clark/Rosecrans","stop_id":"2324532"},"type":"Feature"},{"geometry":{"coordinates":[-118.13393,33.89678],"type":"Point"},"properties":{"kind":"stop","name":"Clark Avenue and Somerset Boulevard- N/E  Corner","stop_id":"2324533"},"type":"Feature"},{"geometry":{"coordinates":[-118.04508,34.07228],"type":"Point"},"properties":{"kind":"stop","name":"El Monte Station - Lower Bay 3/4","stop_id":"2324534"},"type":"Feature"},{"geometry":{"coordinates":[-118.04495,34.07228],"type":"Point"},"properties":{"kind":"stop","name":"El Monte Station - Lower Bay 6","stop_id":"2324535"},"type":"Feature"},{"geometry":{"coordinates":[-118.07866,33.91089],"type":"Point"},"properties":{"kind":"stop","name":"Firestone Boulevard and Paddison Avenue","stop_id":"2324536"},"type":"Feature"},{"geometry":{"coordinates":[-118.08136,33.91233],"type":"Point"},"properties":{"kind":"stop","name":"Firestone Boulevard and Pioneer Boulevard","stop_id":"2324537"},"type":"Feature"},{"geometry":{"coordinates":[-118.07667,33.93519],"type":"Point"},"properties":{"kind":"stop","name":"Florence Avenue and Fulton Wells Avenue- S/W Corner","stop_id":"2324539"},"type":"Feature"},{"geometry":{"coordinates":[-118.08856,33.93518],"type":"Point"},"properties":{"kind":"stop","name":"Florence/Orr & Day","stop_id":"2324540"},"type":"Feature"},{"geometry":{"coordinates":[-118.08941,33.93543],"type":"Point"},"properties":{"kind":"stop","name":"Florence Avenue at Kid Zone","stop_id":"2324541"},"type":"Feature"},{"geometry":{"coordinates":[-118.08524,33.93542],"type":"Point"},"properties":{"kind":"stop","name":"Florence Avenue at Lake Center Athletic Park","stop_id":"2324542"},"type":"Feature"},{"geometry":{"coordinates":[-118.07343,33.93545],"type":"Point"},"properties":{"kind":"stop","name":"Florence Avenue and Norwalk Boulevard- N/W Corner","stop_id":"2324543"},"type":"Feature"},{"geometry":{"coordinates":[-118.08219,33.93544],"type":"Point"},"properties":{"kind":"stop","name":"Florence/Pioneer","stop_id":"2324545"},"type":"Feature"},{"geometry":{"coordinates":[-118.08148,33.93518],"type":"Point"},"properties":{"kind":"stop","name":"Florence Avenue and Pioneer Boulevard- S/E Corner","stop_id":"2324546"},"type":"Feature"},{"geometry":{"coordinates":[-118.08465,33.93518],"type":"Point"},"properties":{"kind":"stop","name":"Florence Avenue and Ringwood Avenue- S/W Corner","stop_id":"2324548"},"type":"Feature"},{"geometry":{"coordinates":[-118.12893,33.88216],"type":"Point"},"properties":{"kind":"stop","name":"Flower Street and Ardmore Avenue - N/E  Corner","stop_id":"2324550"},"type":"Feature"},{"geometry":{"coordinates":[-118.12606,33.88217],"type":"Point"},"properties":{"kind":"stop","name":"Flower/Bellflower","stop_id":"2324551"},"type":"Feature"},{"geometry":{"coordinates":[-118.12208,33.88218],"type":"Point"},"properties":{"kind":"stop","name":"Flower Street and Civic Center Drive- N/E Corner","stop_id":"2324552"},"type":"Feature"},{"geometry":{"coordinates":[-118.06253,33.90951],"type":"Point"},"properties":{"kind":"stop","name":"Foster Road and Bechard Avenue - S/W Corner","stop_id":"2324553"},"type":"Feature"},{"geometry":{"coordinates":[-118.06261,33.90965],"type":"Point"},"properties":{"kind":"stop","name":"Foster Road and Bechard Avenue (Soropt. Village)","stop_id":"2324554"},"type":"Feature"},{"geometry":{"coordinates":[-118.05851,33.90967],"type":"Point"},"properties":{"kind":"stop","name":"Foster Road and Greenstone Avenue","stop_id":"2324555"},"type":"Feature"},{"geometry":{"coordinates":[-118.05818,33.90954],"type":"Point"},"properties":{"kind":"stop","name":"Foster Road and Greenstone Avenue -S/E Corner","stop_id":"2324556"},"type":"Feature"},{"geometry":{"coordinates":[-118.07679,33.90758],"type":"Point"},"properties":{"kind":"stop","name":"San Antonio Drive and Foster Road - N/E Corner","stop_id":"2324557"},"type":"Feature"},{"geometry":{"coordinates":[-118.0558,33.90956],"type":"Point"},"properties":{"kind":"stop","name":"Foster Road and Shoemaker Avenue - S/W Corner","stop_id":"2324558"},"type":"Feature"},{"geometry":{"coordinates":[-118.06418,33.90951],"type":"Point"},"properties":{"kind":"stop","name":"Foster Road and Stanstead Avenue -S/W Corner","stop_id":"2324559"},"type":"Feature"},{"geometry":{"coordinates":[-118.03725,33.98604],"type":"Point"},"properties":{"kind":"stop","name":"Greenleaf Avenue and Broadway","stop_id":"2324560"},"type":"Feature"},{"geometry":{"coordinates":[-118.03725,33.98294],"type":"Point"},"properties":{"kind":"stop","name":"Greenleaf Avenue and Hadley Street","stop_id":"2324561"},"type":"Feature"},{"geometry":{"coordinates":[-118.10393,33.9133],"type":"Point"},"properties":{"kind":"stop","name":"Green Line Station","stop_id":"2324563"},"type":"Feature"},{"geometry":{"coordinates":[-118.03367,33.98281],"type":"Point"},"properties":{"kind":"stop","name":"Hadley Street and Friends Avenue","stop_id":"2324564"},"type":"Feature"},{"geometry":{"coordinates":[-118.03296,33.98261],"type":"Point"},"properties":{"kind":"stop","name":"Hadley Street and Painter Avenue","stop_id":"2324565"},"type":"Feature"},{"geometry":{"coordinates":[-118.03528,33.98262],"type":"Point"},"properties":{"kind":"stop","name":"Hadley Street and Washington Boulevard","stop_id":"2324566"},"type":"Feature"},{"geometry":{"coordinates":[-118.08264,33.89231],"type":"Point"},"properties":{"kind":"stop","name":"Hindu Temple (15311 Pioneer Boulevard)","stop_id":"2324567"},"type":"Feature"},{"geometry":{"coordinates":[-117.9593,33.92163],"type":"Point"},"properties":{"kind":"stop","name":"Idaho Street opposite Las Lomas","stop_id":"2324568"},"type":"Feature"},{"geometry":{"coordinates":[-118.06706,33.91727],"type":"Point"},"properties":{"kind":"stop","name":"Imperial Highway and 12501 Imperial Highway","stop_id":"2324569"},"type":"Feature"},{"geometry":{"coordinates":[-117.96868,33.91753],"type":"Point"},"properties":{"kind":"stop","name":"Imperial Highway and Beach Boulevard- N/W Corner","stop_id":"2324570"},"type":"Feature"},{"geometry":{"coordinates":[-118.01923,33.91703],"type":"Point"},"properties":{"kind":"stop","name":"Imperial Highway and Biola Avenue- S/W Corner","stop_id":"2324571"},"type":"Feature"},{"geometry":{"coordinates":[-118.06351,33.91728],"type":"Point"},"properties":{"kind":"stop","name":"Imperial Highway and Bloomfield Avenue- N/E Corner","stop_id":"2324572"},"type":"Feature"},{"geometry":{"coordinates":[-118.06341,33.91703],"type":"Point"},"properties":{"kind":"stop","name":"Imperial Highway and Bloomfield Avenue- S/E Corner","stop_id":"2324573"},"type":"Feature"},{"geometry":{"coordinates":[-118.02419,33.91724],"type":"Point"},"properties":{"kind":"stop","name":"Imperial Highway and Burgess Avenue- N/W Corner","stop_id":"2324574"},"type":"Feature"},{"geometry":{"coordinates":[-118.02419,33.917],"type":"Point"},"properties":{"kind":"stop","name":"Imperial Highway and Burgess Avenue- S/W Corner","stop_id":"2324575"},"type":"Feature"},{"geometry":{"coordinates":[-118.04645,33.91712],"type":"Point"},"properties":{"kind":"stop","name":"Imperial Highway and Carmenita Road- N/E Corner","stop_id":"2324576"},"type":"Feature"},{"geometry":{"coordinates":[-118.04723,33.91687],"type":"Point"},"properties":{"kind":"stop","name":"Imperial Highway and Carmenita Road- S/W Corner","stop_id":"2324577"},"type":"Feature"},{"geometry":{"coordinates":[-118.09453,33.91697],"type":"Point"},"properties":{"kind":"stop","name":"Imperial Highway and Fairford Avenue-S/E Corner","stop_id":"2324578"},"type":"Feature"},{"geometry":{"coordinates":[-118.09074,33.91722],"type":"Point"},"properties":{"kind":"stop","name":"Imperial/Firestone","stop_id":"2324579"},"type":"Feature"},{"geometry":{"coordinates":[-117.98602,33.91744],"type":"Point"},"properties":{"kind":"stop","name":"Imperial Highway and 1st Avenue- N/W Corner","stop_id":"2324580"},"type":"Feature"},{"geometry":{"coordinates":[-117.98578,33.91721],"type":"Point"},"properties":{"kind":"stop","name":"Imperial Highway and 1st Avenue- S/W Corner","stop_id":"2324581"},"type":"Feature"},{"geometry":{"coordinates":[-117.98857,33.91743],"type":"Point"},"properties":{"kind":"stop","name":"Imperial Highway and Grovedale Drive- N/E Corner","stop_id":"2324582"},"type":"Feature"},{"geometry":{"coordinates":[-117.98902,33.91719],"type":"Point"},"properties":{"kind":"stop","name":"Imperial Highway and Grovedale Drive- S/W Corner","stop_id":"2324583"},"type":"Feature"},{"geometry":{"coordinates":[-118.10314,33.91696],"type":"Point"},"properties":{"kind":"stop","name":"Imperial Highway and Hoxie Avenue- S/E Corner","stop_id":"2324584"},"type":"Feature"},{"geometry":{"coordinates":[-117.95993,33.91748],"type":"Point"},"properties":{"kind":"stop","name":"Imperial/Idaho","stop_id":"2324585"},"type":"Feature"},{"geometry":{"coordinates":[-118.08595,33.91721],"type":"Point"},"properties":{"kind":"stop","name":"Imperial Highway and Jersey Avenue- N/E Corner","stop_id":"2324586"},"type":"Feature"},{"geometry":{"coordinates":[-118.07449,33.917],"type":"Point"},"properties":{"kind":"stop","name":"Imperial/Norwalk","stop_id":"2324589"},"type":"Feature"},{"geometry":{"coordinates":[-118.01145,33.91732],"type":"Point"},"properties":{"kind":"stop","name":"Imperial Highway and La Mirada Boulevard- N/E Corner","stop_id":"2324590"},"type":"Feature"},{"geometry":{"coordinates":[-118.01145,33.91707],"type":"Point"},"properties":{"kind":"stop","name":"Imperial Highway and La Mirada Boulevard- S/W Corner","stop_id":"2324591"},"type":"Feature"},{"geometry":{"coordinates":[-118.04975,33.91682],"type":"Point"},"properties":{"kind":"stop","name":"Imperial Highway and Leffingwell Road - S/E Corner","stop_id":"2324592"},"type":"Feature"},{"geometry":{"coordinates":[-118.04981,33.91711],"type":"Point"},"properties":{"kind":"stop","name":"Imperial Highway and Leffingwell Road- N/E Corner","stop_id":"2324593"},"type":"Feature"},{"geometry":{"coordinates":[-118.03452,33.91719],"type":"Point"},"properties":{"kind":"stop","name":"Imperial Highway and Meyer Road- N/W Corner","stop_id":"2324594"},"type":"Feature"},{"geometry":{"coordinates":[-118.03408,33.91694],"type":"Point"},"properties":{"kind":"stop","name":"Imperial Highway and Meyer Road- S/W Corner","stop_id":"2324595"},"type":"Feature"},{"geometry":{"coordinates":[-117.96001,33.91748],"type":"Point"},"properties":{"kind":"stop","name":"Imperial Highway and Market Place (East)","stop_id":"2324596"},"type":"Feature"},{"geometry":{"coordinates":[-117.96265,33.91748],"type":"Point"},"properties":{"kind":"stop","name":"Imperial Highway and Market Place (West) Wendy's","stop_id":"2324597"},"type":"Feature"},{"geometry":{"coordinates":[-118.07401,33.91728],"type":"Point"},"properties":{"kind":"stop","name":"Imperial/Norwalk","stop_id":"2324598"},"type":"Feature"},{"geometry":{"coordinates":[-118.07161,33.91695],"type":"Point"},"properties":{"kind":"stop","name":"Imperial/Norwalk","stop_id":"2324599"},"type":"Feature"},{"geometry":{"coordinates":[-118.00353,33.91663],"type":"Point"},"properties":{"kind":"stop","name":"Imperial Highway and Ocaso Avenue- N/W Corner","stop_id":"2324600"},"type":"Feature"},{"geometry":{"coordinates":[-118.00338,33.91641],"type":"Point"},"properties":{"kind":"stop","name":"Imperial Highway and Ocaso Avenue- S/W Corner","stop_id":"2324601"},"type":"Feature"},{"geometry":{"coordinates":[-117.99878,33.91739],"type":"Point"},"properties":{"kind":"stop","name":"Imperial Highway and Oxford Drive- N/E Corner","stop_id":"2324603"},"type":"Feature"},{"geometry":{"coordinates":[-117.99913,33.91713],"type":"Point"},"properties":{"kind":"stop","name":"Imperial Highway and Oxford Drive- S/W Corner","stop_id":"2324604"},"type":"Feature"},{"geometry":{"coordinates":[-118.07661,33.91727],"type":"Point"},"properties":{"kind":"stop","name":"Imperial Highway and Paddison Avenue- N/E Corner","stop_id":"2324606"},"type":"Feature"},{"geometry":{"coordinates":[-118.0772,33.91696],"type":"Point"},"properties":{"kind":"stop","name":"Imperial Highway and Paddison Avenue- S/E Corner","stop_id":"2324607"},"type":"Feature"},{"geometry":{"coordinates":[-118.08259,33.91724],"type":"Point"},"properties":{"kind":"stop","name":"Imperial/Pioneer","stop_id":"2324608"},"type":"Feature"},{"geometry":{"coordinates":[-118.08214,33.91695],"type":"Point"},"properties":{"kind":"stop","name":"Imperial/Pioneer","stop_id":"2324609"},"type":"Feature"},{"geometry":{"coordinates":[-117.99492,33.9174],"type":"Point"},"properties":{"kind":"stop","name":"Imperial/Santa Gertrudes","stop_id":"2324610"},"type":"Feature"},{"geometry":{"coordinates":[-117.99472,33.91715],"type":"Point"},"properties":{"kind":"stop","name":"Imperial/Santa Gertrudes","stop_id":"2324611"},"type":"Feature"},{"geometry":{"coordinates":[-118.05497,33.91718],"type":"Point"},"properties":{"kind":"stop","name":"Imperial Highway and Shoemaker Avenue- N/E Corner","stop_id":"2324612"},"type":"Feature"},{"geometry":{"coordinates":[-118.05486,33.91691],"type":"Point"},"properties":{"kind":"stop","name":"Imperial Highway and Shoemaker Avenue- S/E Corner","stop_id":"2324613"},"type":"Feature"},{"geometry":{"coordinates":[-118.02044,33.91726],"type":"Point"},"properties":{"kind":"stop","name":"Imperial Highway and Springview Drive- N/W Corner","stop_id":"2324614"},"type":"Feature"},{"geometry":{"coordinates":[-118.1,33.91722],"type":"Point"},"properties":{"kind":"stop","name":"Imperial Highway and Studebaker Road- N/W Corner","stop_id":"2324615"},"type":"Feature"},{"geometry":{"coordinates":[-118.09867,33.91694],"type":"Point"},"properties":{"kind":"stop","name":"Imperial Highway and Studebaker Road-S/E Corner","stop_id":"2324616"},"type":"Feature"},{"geometry":{"coordinates":[-117.98053,33.91747],"type":"Point"},"properties":{"kind":"stop","name":"Imperial Highway and Tigrina Avenue- N/E Corner","stop_id":"2324617"},"type":"Feature"},{"geometry":{"coordinates":[-117.981,33.91723],"type":"Point"},"properties":{"kind":"stop","name":"Imperial Highway and Tigrina Avenue- S/W Corner","stop_id":"2324618"},"type":"Feature"},{"geometry":{"coordinates":[-118.02977,33.91722],"type":"Point"},"properties":{"kind":"stop","name":"Imperial Highway and Valley View Avenue- N/W Corner","stop_id":"2324619"},"type":"Feature"},{"geometry":{"coordinates":[-118.02978,33.91696],"type":"Point"},"properties":{"kind":"stop","name":"Imperial Highway and Valley View Avenue- S/W Corner","stop_id":"2324620"},"type":"Feature"},{"geometry":{"coordinates":[-118.06902,33.91726],"type":"Point"},"properties":{"kind":"stop","name":"Imperial Highway and Volunteer Avenue- N/W Corner","stop_id":"2324621"},"type":"Feature"},{"geometry":{"coordinates":[-118.0684,33.91702],"type":"Point"},"properties":{"kind":"stop","name":"Imperial Highway and Volunteer Avenue- S/W Corner","stop_id":"2324622"},"type":"Feature"},{"geometry":{"coordinates":[-118.09079,33.91698],"type":"Point"},"properties":{"kind":"stop","name":"Imperial Highway and Orr and Day Road","stop_id":"2324625"},"type":"Feature"},{"geometry":{"coordinates":[-118.0946,33.91723],"type":"Point"},"properties":{"kind":"stop","name":"Imperial Highway opposite Fairford Avenue","stop_id":"2324627"},"type":"Feature"},{"geometry":{"coordinates":[-118.08647,33.91698],"type":"Point"},"properties":{"kind":"stop","name":"Imperial Highway opposite Jersey Avenue","stop_id":"2324628"},"type":"Feature"},{"geometry":{"coordinates":[-118.00362,33.89174],"type":"Point"},"properties":{"kind":"stop","name":"La Mirada Boulevard and Ocaso Avenue S/E Corner","stop_id":"2324629"},"type":"Feature"},{"geometry":{"coordinates":[-118.08076,33.9316],"type":"Point"},"properties":{"kind":"stop","name":"Lakeland Road and Arlee Avenue - S/W Corner","stop_id":"2324630"},"type":"Feature"},{"geometry":{"coordinates":[-118.07657,33.93175],"type":"Point"},"properties":{"kind":"stop","name":"Lakeland Road and Fulton Wells Avenue","stop_id":"2324631"},"type":"Feature"},{"geometry":{"coordinates":[-118.07422,33.93175],"type":"Point"},"properties":{"kind":"stop","name":"Lakeland Road and Lakeland Road Villa","stop_id":"2324632"},"type":"Feature"},{"geometry":{"coordinates":[-118.07688,33.93162],"type":"Point"},"properties":{"kind":"stop","name":"Lakeland Road and Paddison Avenue - S/E Corner","stop_id":"2324633"},"type":"Feature"},{"geometry":{"coordinates":[-118.08146,33.93174],"type":"Point"},"properties":{"kind":"stop","name":"Lakeland Road and Pioneer Boulevard","stop_id":"2324634"},"type":"Feature"},{"geometry":{"coordinates":[-118.08003,33.93174],"type":"Point"},"properties":{"kind":"stop","name":"Lakeland Road opposite Bombardier Avenue","stop_id":"2324635"},"type":"Feature"},{"geometry":{"coordinates":[-117.96726,33.92448],"type":"Point"},"properties":{"kind":"stop","name":"Lambert Road and Beach Boulevard- S/E Corner","stop_id":"2324636"},"type":"Feature"},{"geometry":{"coordinates":[-117.95942,33.92446],"type":"Point"},"properties":{"kind":"stop","name":"Lambert Road and Idaho Street- S/W Corner","stop_id":"2324637"},"type":"Feature"},{"geometry":{"coordinates":[-117.96208,33.92446],"type":"Point"},"properties":{"kind":"stop","name":"Lambert Road and Whitebrook Drive- S/E Corner","stop_id":"2324638"},"type":"Feature"},{"geometry":{"coordinates":[-118.04622,33.96404],"type":"Point"},"properties":{"kind":"stop","name":"Lambert Road and Santa Fe Springs Road","stop_id":"2324639"},"type":"Feature"},{"geometry":{"coordinates":[-118.04805,33.967],"type":"Point"},"properties":{"kind":"stop","name":"Lambert Road and Washington Boulevard","stop_id":"2324640"},"type":"Feature"},{"geometry":{"coordinates":[-118.03774,33.97357],"type":"Point"},"properties":{"kind":"stop","name":"Mar Vista/Greenleaf","stop_id":"2324641"},"type":"Feature"},{"geometry":{"coordinates":[-118.03467,33.97354],"type":"Point"},"properties":{"kind":"stop","name":"Mar Vista Street and Washington Boulevard","stop_id":"2324642"},"type":"Feature"},{"geometry":{"coordinates":[-118.06073,33.91654],"type":"Point"},"properties":{"kind":"stop","name":"Metrolink Station","stop_id":"2324643"},"type":"Feature"},{"geometry":{"coordinates":[-118.07292,33.88419],"type":"Point"},"properties":{"kind":"stop","name":"Norwalk Boulevard and 161st Street  (Coras Market.- S/W Corner","stop_id":"2324644"},"type":"Feature"},{"geometry":{"coordinates":[-118.07283,33.87999],"type":"Point"},"properties":{"kind":"stop","name":"Norwalk/166th","stop_id":"2324645"},"type":"Feature"},{"geometry":{"coordinates":[-118.07251,33.92328],"type":"Point"},"properties":{"kind":"stop","name":"Norwalk Boulevard and Aegean Street","stop_id":"2324646"},"type":"Feature"},{"geometry":{"coordinates":[-118.07279,33.92351],"type":"Point"},"properties":{"kind":"stop","name":"Norwalk Boulevard and Aegean Street- S/W Corner","stop_id":"2324647"},"type":"Feature"},{"geometry":{"coordinates":[-118.07054,33.98353],"type":"Point"},"properties":{"kind":"stop","name":"Norwalk Boulevard and Aldrich Street- N/W Corner","stop_id":"2324648"},"type":"Feature"},{"geometry":{"coordinates":[-118.07299,33.88728],"type":"Point"},"properties":{"kind":"stop","name":"Norwalk/Alondra","stop_id":"2324649"},"type":"Feature"},{"geometry":{"coordinates":[-118.07379,33.97991],"type":"Point"},"properties":{"kind":"stop","name":"Norwalk Boulevard and Balfour Street- N/E Corner","stop_id":"2324650"},"type":"Feature"},{"geometry":{"coordinates":[-118.05603,33.9979],"type":"Point"},"properties":{"kind":"stop","name":"Norwalk Boulevard and Beverly Boulevard- S/E Corner","stop_id":"2324651"},"type":"Feature"},{"geometry":{"coordinates":[-118.05611,33.99814],"type":"Point"},"properties":{"kind":"stop","name":"Norwalk Boulevard and Beverly Boulevard- S/W Corner","stop_id":"2324652"},"type":"Feature"},{"geometry":{"coordinates":[-118.06782,33.98629],"type":"Point"},"properties":{"kind":"stop","name":"Norwalk Boulevard and Bexley Drive- N/W Corner","stop_id":"2324653"},"type":"Feature"},{"geometry":{"coordinates":[-118.06793,33.98579],"type":"Point"},"properties":{"kind":"stop","name":"Norwalk Boulevard and Bexley Drive- S/E Corner","stop_id":"2324654"},"type":"Feature"},{"geometry":{"coordinates":[-118.07268,33.88454],"type":"Point"},"properties":{"kind":"stop","name":"Norwalk Boulevard and Cedarcrest Drive","stop_id":"2324655"},"type":"Feature"},{"geometry":{"coordinates":[-118.07581,33.97617],"type":"Point"},"properties":{"kind":"stop","name":"Norwalk Boulevard and Choisser Street","stop_id":"2324656"},"type":"Feature"},{"geometry":{"coordinates":[-118.07273,33.91448],"type":"Point"},"properties":{"kind":"stop","name":"Norwalk Boulevard and Civic Center Drive","stop_id":"2324657"},"type":"Feature"},{"geometry":{"coordinates":[-118.07242,33.9145],"type":"Point"},"properties":{"kind":"stop","name":"Norwalk Boulevard and Civic Center Drive- N/E Corner","stop_id":"2324659"},"type":"Feature"},{"geometry":{"coordinates":[-118.07344,33.98062],"type":"Point"},"properties":{"kind":"stop","name":"Norwalk Boulevard and Coolhurst Drive- S/W Corner","stop_id":"2324662"},"type":"Feature"},{"geometry":{"coordinates":[-118.07278,33.92091],"type":"Point"},"properties":{"kind":"stop","name":"Norwalk Boulevard and Crewe Street- N/W Corner","stop_id":"2324664"},"type":"Feature"},{"geometry":{"coordinates":[-118.07247,33.91922],"type":"Point"},"properties":{"kind":"stop","name":"Norwalk Boulevard and Everest Street","stop_id":"2324665"},"type":"Feature"},{"geometry":{"coordinates":[-118.07286,33.93495],"type":"Point"},"properties":{"kind":"stop","name":"Norwalk Boulevard and Florence Avenue- S/W Corner","stop_id":"2324666"},"type":"Feature"},{"geometry":{"coordinates":[-118.07285,33.93118],"type":"Point"},"properties":{"kind":"stop","name":"Norwalk Boulevard and Hermes Street- N/W Corner","stop_id":"2324668"},"type":"Feature"},{"geometry":{"coordinates":[-118.07275,33.91629],"type":"Point"},"properties":{"kind":"stop","name":"Norwalk/Imperial (Ihop)","stop_id":"2324670"},"type":"Feature"},{"geometry":{"coordinates":[-118.07246,33.91758],"type":"Point"},"properties":{"kind":"stop","name":"Norwalk/Imperial","stop_id":"2324671"},"type":"Feature"},{"geometry":{"coordinates":[-118.07256,33.93146],"type":"Point"},"properties":{"kind":"stop","name":"Norwalk Boulevard and Lakeland Road- S/E Corner","stop_id":"2324672"},"type":"Feature"},{"geometry":{"coordinates":[-118.07253,33.92635],"type":"Point"},"properties":{"kind":"stop","name":"Norwalk Boulevard at Metro Hospital Main Gate","stop_id":"2324673"},"type":"Feature"},{"geometry":{"coordinates":[-118.07098,33.98271],"type":"Point"},"properties":{"kind":"stop","name":"Norwalk Boulevard and Mines Boulevard- N/E Corner","stop_id":"2324674"},"type":"Feature"},{"geometry":{"coordinates":[-118.05863,33.99529],"type":"Point"},"properties":{"kind":"stop","name":"Norwalk Boulevard and Monte Vista Drive- N/E Corner","stop_id":"2324675"},"type":"Feature"},{"geometry":{"coordinates":[-118.07283,33.92865],"type":"Point"},"properties":{"kind":"stop","name":"Norwalk Boulevard and Oracle Street- S/W Corner","stop_id":"2324677"},"type":"Feature"},{"geometry":{"coordinates":[-118.05826,33.99595],"type":"Point"},"properties":{"kind":"stop","name":"Norwalk Boulevard and Orange Grove Avenue- N/W Corner","stop_id":"2324678"},"type":"Feature"},{"geometry":{"coordinates":[-118.06175,33.9924],"type":"Point"},"properties":{"kind":"stop","name":"Norwalk Boulevard and Orange Street- N/W Corner","stop_id":"2324679"},"type":"Feature"},{"geometry":{"coordinates":[-118.06194,33.99194],"type":"Point"},"properties":{"kind":"stop","name":"Norwalk Boulevard and Orange Street- S/E Corner","stop_id":"2324680"},"type":"Feature"},{"geometry":{"coordinates":[-118.07277,33.9192],"type":"Point"},"properties":{"kind":"stop","name":"Norwalk Boulevard and Paddison Avenue Square","stop_id":"2324681"},"type":"Feature"},{"geometry":{"coordinates":[-118.0699,33.9838],"type":"Point"},"properties":{"kind":"stop","name":"Norwalk Boulevard and Reichling Lane- S/E Corner","stop_id":"2324682"},"type":"Feature"},{"geometry":{"coordinates":[-118.07052,33.96509],"type":"Point"},"properties":{"kind":"stop","name":"Norwalk Boulevard and Slauson Avenue- N/E Corner","stop_id":"2324683"},"type":"Feature"},{"geometry":{"coordinates":[-118.0708,33.96502],"type":"Point"},"properties":{"kind":"stop","name":"Norwalk Boulevard and Slauson Avenue- N/W Corner","stop_id":"2324684"},"type":"Feature"},{"geometry":{"coordinates":[-118.0728,33.92565],"type":"Point"},"properties":{"kind":"stop","name":"Norwalk Boulevard and Tina Street - S/W Corner","stop_id":"2324685"},"type":"Feature"},{"geometry":{"coordinates":[-118.07281,33.92602],"type":"Point"},"properties":{"kind":"stop","name":"Norwalk Boulevard and Tina Street- N/W Corner","stop_id":"2324686"},"type":"Feature"},{"geometry":{"coordinates":[-118.07186,33.96901],"type":"Point"},"properties":{"kind":"stop","name":"Norwalk Boulevard and Waddell Street- N/W Corner","stop_id":"2324687"},"type":"Feature"},{"geometry":{"coordinates":[-118.0714,33.96886],"type":"Point"},"properties":{"kind":"stop","name":"Norwalk Boulevard and Waddell Street- N/E Corner","stop_id":"2324688"},"type":"Feature"},{"geometry":{"coordinates":[-118.07081,33.96721],"type":"Point"},"properties":{"kind":"stop","name":"Norwalk Boulevard and Wakeman Street- Sw/E Corner","stop_id":"2324689"},"type":"Feature"},{"geometry":{"coordinates":[-118.07403,33.97282],"type":"Point"},"properties":{"kind":"stop","name":"Norwalk/Washington","stop_id":"2324690"},"type":"Feature"},{"geometry":{"coordinates":[-118.07378,33.97182],"type":"Point"},"properties":{"kind":"stop","name":"Norwalk/Washington","stop_id":"2324691"},"type":"Feature"},{"geometry":{"coordinates":[-118.06378,33.99006],"type":"Point"},"properties":{"kind":"stop","name":"Norwalk/Whittier","stop_id":"2324692"},"type":"Feature"},{"geometry":{"coordinates":[-118.06437,33.98971],"type":"Point"},"properties":{"kind":"stop","name":"Norwalk/Whittier","stop_id":"2324693"},"type":"Feature"},{"geometry":{"coordinates":[-118.07249,33.92053],"type":"Point"},"properties":{"kind":"stop","name":"Norwalk Boulevard opposite Crewe Street","stop_id":"2324694"},"type":"Feature"},{"geometry":{"coordinates":[-118.07254,33.92866],"type":"Point"},"properties":{"kind":"stop","name":"Norwalk Boulevard opposite Oracle Street","stop_id":"2324696"},"type":"Feature"},{"geometry":{"coordinates":[-118.10401,33.91345],"type":"Point"},"properties":{"kind":"stop","name":"Norwalk Green Line Station","stop_id":"2324697"},"type":"Feature"},{"geometry":{"coordinates":[-118.09043,33.93946],"type":"Point"},"properties":{"kind":"stop","name":"Orr and Day Road and Clarkman Street","stop_id":"2324698"},"type":"Feature"},{"geometry":{"coordinates":[-118.09074,33.93951],"type":"Point"},"properties":{"kind":"stop","name":"Orr and Day Road and Clarkman Street- N/W Corner","stop_id":"2324699"},"type":"Feature"},{"geometry":{"coordinates":[-118.09076,33.9456],"type":"Point"},"properties":{"kind":"stop","name":"Orr and Day Road and Davenrich Street- S/W Corner","stop_id":"2324701"},"type":"Feature"},{"geometry":{"coordinates":[-118.09046,33.94277],"type":"Point"},"properties":{"kind":"stop","name":"Orr and Day Road and Dunning Street","stop_id":"2324703"},"type":"Feature"},{"geometry":{"coordinates":[-118.09075,33.94325],"type":"Point"},"properties":{"kind":"stop","name":"Orr and Day Road and Dunning Street- N/W Corner","stop_id":"2324704"},"type":"Feature"},{"geometry":{"coordinates":[-118.09042,33.93582],"type":"Point"},"properties":{"kind":"stop","name":"Florence/Orr and Day","stop_id":"2324706"},"type":"Feature"},{"geometry":{"coordinates":[-118.08949,33.94843],"type":"Point"},"properties":{"kind":"stop","name":"Orr and Day/Telegraph","stop_id":"2324709"},"type":"Feature"},{"geometry":{"coordinates":[-118.08713,33.95244],"type":"Point"},"properties":{"kind":"stop","name":"Orr and Day Road and Whiteland Street- S/E Corner","stop_id":"2324710"},"type":"Feature"},{"geometry":{"coordinates":[-118.08743,33.95248],"type":"Point"},"properties":{"kind":"stop","name":"Orr and Day Road and Whiteland Street- S/W Corner","stop_id":"2324711"},"type":"Feature"},{"geometry":{"coordinates":[-118.08986,33.94838],"type":"Point"},"properties":{"kind":"stop","name":"Orr and Day/Telegraph","stop_id":"2324712"},"type":"Feature"},{"geometry":{"coordinates":[-118.0328,33.97368],"type":"Point"},"properties":{"kind":"stop","name":"Painter Avenue and Mar Vista Street","stop_id":"2324713"},"type":"Feature"},{"geometry":{"coordinates":[-118.03279,33.97516],"type":"Point"},"properties":{"kind":"stop","name":"Painter Avenue and Penn Street","stop_id":"2324714"},"type":"Feature"},{"geometry":{"coordinates":[-118.03279,33.97926],"type":"Point"},"properties":{"kind":"stop","name":"Painter Avenue and Philadelphia Street","stop_id":"2324715"},"type":"Feature"},{"geometry":{"coordinates":[-118.03256,33.97718],"type":"Point"},"properties":{"kind":"stop","name":"Painter Avenue and Wardman Street","stop_id":"2324716"},"type":"Feature"},{"geometry":{"coordinates":[-118.03863,34.03587],"type":"Point"},"properties":{"kind":"stop","name":"Peck Road and Durfee Avenue","stop_id":"2324717"},"type":"Feature"},{"geometry":{"coordinates":[-118.03072,34.05837],"type":"Point"},"properties":{"kind":"stop","name":"Peck Road/Elliott","stop_id":"2324718"},"type":"Feature"},{"geometry":{"coordinates":[-118.03073,34.05136],"type":"Point"},"properties":{"kind":"stop","name":"Peck Road and Fineview Street","stop_id":"2324719"},"type":"Feature"},{"geometry":{"coordinates":[-118.03041,34.06313],"type":"Point"},"properties":{"kind":"stop","name":"Peck Road and Garvey Avenue","stop_id":"2324720"},"type":"Feature"},{"geometry":{"coordinates":[-118.03043,34.05631],"type":"Point"},"properties":{"kind":"stop","name":"Peck Road and Klingerman Street","stop_id":"2324721"},"type":"Feature"},{"geometry":{"coordinates":[-118.0306,34.06527],"type":"Point"},"properties":{"kind":"stop","name":"Peck Road and Meeker Avenue","stop_id":"2324722"},"type":"Feature"},{"geometry":{"coordinates":[-118.03572,34.04075],"type":"Point"},"properties":{"kind":"stop","name":"Durfee Avenue and Michael Hunt Drive","stop_id":"2324723"},"type":"Feature"},{"geometry":{"coordinates":[-118.03074,34.05569],"type":"Point"},"properties":{"kind":"stop","name":"Peck Road and Mountain View Road","stop_id":"2324724"},"type":"Feature"},{"geometry":{"coordinates":[-118.03744,34.0305],"type":"Point"},"properties":{"kind":"stop","name":"Peck Road and Rooks Road","stop_id":"2324725"},"type":"Feature"},{"geometry":{"coordinates":[-118.03267,34.04326],"type":"Point"},"properties":{"kind":"stop","name":"Durfee Avenue and Thienes Avenue","stop_id":"2324726"},"type":"Feature"},{"geometry":{"coordinates":[-118.04217,33.97343],"type":"Point"},"properties":{"kind":"stop","name":"Pickering Avenue and Mar Vista Street","stop_id":"2324727"},"type":"Feature"},{"geometry":{"coordinates":[-118.042,33.97174],"type":"Point"},"properties":{"kind":"stop","name":"Pickering Avenue and Walnut Street","stop_id":"2324728"},"type":"Feature"},{"geometry":{"coordinates":[-118.042,33.96905],"type":"Point"},"properties":{"kind":"stop","name":"Pickering Avenue and Whittier Boulevard","stop_id":"2324729"},"type":"Feature"},{"geometry":{"coordinates":[-118.08225,33.88348],"type":"Point"},"properties":{"kind":"stop","name":"Pioneer Boulevard and 163rd Street- S/E Corner","stop_id":"2324730"},"type":"Feature"},{"geometry":{"coordinates":[-118.08223,33.88093],"type":"Point"},"properties":{"kind":"stop","name":"Pioneer Boulevard and 166th Street- N/E Corner","stop_id":"2324731"},"type":"Feature"},{"geometry":{"coordinates":[-118.08252,33.88058],"type":"Point"},"properties":{"kind":"stop","name":"Pioneer Boulevard and 166th Street- N/W Corner","stop_id":"2324732"},"type":"Feature"},{"geometry":{"coordinates":[-118.0821,33.86917],"type":"Point"},"properties":{"kind":"stop","name":"Pioneer Boulevard and 178th Street - N/E Corner","stop_id":"2324733"},"type":"Feature"},{"geometry":{"coordinates":[-118.08236,33.86592],"type":"Point"},"properties":{"kind":"stop","name":"Pioneer Boulevard and 183rd Street- N/W Corner","stop_id":"2324734"},"type":"Feature"},{"geometry":{"coordinates":[-118.0823,33.88789],"type":"Point"},"properties":{"kind":"stop","name":"Pioneer/Alondra","stop_id":"2324735"},"type":"Feature"},{"geometry":{"coordinates":[-118.08261,33.88788],"type":"Point"},"properties":{"kind":"stop","name":"Pioneer Boulevard and Alondra Boulevard- N/W Corner","stop_id":"2324736"},"type":"Feature"},{"geometry":{"coordinates":[-118.08243,33.86887],"type":"Point"},"properties":{"kind":"stop","name":"Pioneer Boulevard at Artesia Boulevard Oasis","stop_id":"2324737"},"type":"Feature"},{"geometry":{"coordinates":[-118.08214,33.8733],"type":"Point"},"properties":{"kind":"stop","name":"Pioneer Boulevard and Artesia Boulevard- N/E Corner","stop_id":"2324738"},"type":"Feature"},{"geometry":{"coordinates":[-118.08245,33.87341],"type":"Point"},"properties":{"kind":"stop","name":"Pioneer Boulevard and Artesia Boulevard- N/W Corner","stop_id":"2324739"},"type":"Feature"},{"geometry":{"coordinates":[-118.08439,33.95946],"type":"Point"},"properties":{"kind":"stop","name":"Pioneer Boulevard and Bluejay Lane- S/E Corner","stop_id":"2324740"},"type":"Feature"},{"geometry":{"coordinates":[-118.085,33.95792],"type":"Point"},"properties":{"kind":"stop","name":"Pioneer Boulevard and Broaded Street- N/E Corner","stop_id":"2324741"},"type":"Feature"},{"geometry":{"coordinates":[-118.08562,33.95607],"type":"Point"},"properties":{"kind":"stop","name":"Pioneer Boulevard and Charlesworth Road- N/E Corner","stop_id":"2324742"},"type":"Feature"},{"geometry":{"coordinates":[-118.08233,33.89075],"type":"Point"},"properties":{"kind":"stop","name":"Pioneer Boulevard and Cheshire Street- N/E Corner","stop_id":"2324743"},"type":"Feature"},{"geometry":{"coordinates":[-118.08238,33.89518],"type":"Point"},"properties":{"kind":"stop","name":"Pioneer Boulevard and Excelsior Drive- N/E Corner","stop_id":"2324744"},"type":"Feature"},{"geometry":{"coordinates":[-118.08267,33.89464],"type":"Point"},"properties":{"kind":"stop","name":"Pioneer Boulevard and Excelsior Drive-S/W Corner","stop_id":"2324746"},"type":"Feature"},{"geometry":{"coordinates":[-118.08228,33.90953],"type":"Point"},"properties":{"kind":"stop","name":"Pioneer Boulevard and Foster Road- S/E Corner","stop_id":"2324747"},"type":"Feature"},{"geometry":{"coordinates":[-118.08243,33.90004],"type":"Point"},"properties":{"kind":"stop","name":"Pioneer Boulevard and Lindale- S/E Corner","stop_id":"2324748"},"type":"Feature"},{"geometry":{"coordinates":[-118.08272,33.90013],"type":"Point"},"properties":{"kind":"stop","name":"Pioneer Boulevard and Lindale-S/W Corner","stop_id":"2324750"},"type":"Feature"},{"geometry":{"coordinates":[-118.08169,33.93329],"type":"Point"},"properties":{"kind":"stop","name":"Pioneer Boulevard at Little Lake Park","stop_id":"2324751"},"type":"Feature"},{"geometry":{"coordinates":[-118.08346,33.96151],"type":"Point"},"properties":{"kind":"stop","name":"Pioneer Boulevard and Los Nietos Road- S/E Corner","stop_id":"2324752"},"type":"Feature"},{"geometry":{"coordinates":[-118.08242,33.8987],"type":"Point"},"properties":{"kind":"stop","name":"Pioneer Boulevard and Mapledale Street- N/E Corner","stop_id":"2324753"},"type":"Feature"},{"geometry":{"coordinates":[-118.0827,33.89824],"type":"Point"},"properties":{"kind":"stop","name":"Pioneer Boulevard and Mapledale Street- S/W Corner","stop_id":"2324754"},"type":"Feature"},{"geometry":{"coordinates":[-118.08516,33.95834],"type":"Point"},"properties":{"kind":"stop","name":"Pioneer Boulevard at Neighborhood Center","stop_id":"2324755"},"type":"Feature"},{"geometry":{"coordinates":[-118.0825,33.90509],"type":"Point"},"properties":{"kind":"stop","name":"Pioneer Boulevard and Orange Street- S/E Corner","stop_id":"2324756"},"type":"Feature"},{"geometry":{"coordinates":[-118.08247,33.90299],"type":"Point"},"properties":{"kind":"stop","name":"Pioneer/Rosecrans","stop_id":"2324757"},"type":"Feature"},{"geometry":{"coordinates":[-118.08275,33.90156],"type":"Point"},"properties":{"kind":"stop","name":"Pioneer/Rosecrans","stop_id":"2324759"},"type":"Feature"},{"geometry":{"coordinates":[-118.08223,33.96672],"type":"Point"},"properties":{"kind":"stop","name":"Pioneer Boulevard and Slauson Avenue- S/E Corner","stop_id":"2324760"},"type":"Feature"},{"geometry":{"coordinates":[-118.08257,33.9667],"type":"Point"},"properties":{"kind":"stop","name":"Pioneer Boulevard and Slauson Avenue- S/W Corner","stop_id":"2324761"},"type":"Feature"},{"geometry":{"coordinates":[-118.08254,33.88315],"type":"Point"},"properties":{"kind":"stop","name":"Pioneer Boulevard opposite 163rd Street","stop_id":"2324762"},"type":"Feature"},{"geometry":{"coordinates":[-118.08469,33.95949],"type":"Point"},"properties":{"kind":"stop","name":"Pioneer Boulevard opposite Bluejay Lane","stop_id":"2324763"},"type":"Feature"},{"geometry":{"coordinates":[-118.08262,33.89017],"type":"Point"},"properties":{"kind":"stop","name":"Pioneer Boulevard opposite Cheshire Street","stop_id":"2324764"},"type":"Feature"},{"geometry":{"coordinates":[-118.08279,33.90499],"type":"Point"},"properties":{"kind":"stop","name":"NSQ","stop_id":"2324765"},"type":"Feature"},{"geometry":{"coordinates":[-118.08375,33.96158],"type":"Point"},"properties":{"kind":"stop","name":"Pioneer Boulevard opposite Los Nietos Road","stop_id":"2324766"},"type":"Feature"},{"geometry":{"coordinates":[-118.08799,33.90228],"type":"Point"},"properties":{"kind":"stop","name":"Ralph's","stop_id":"2324767"},"type":"Feature"},{"geometry":{"coordinates":[-118.03974,34.07188],"type":"Point"},"properties":{"kind":"stop","name":"Ramona Boulevard and Lexington Avenue","stop_id":"2324768"},"type":"Feature"},{"geometry":{"coordinates":[-118.04141,34.07186],"type":"Point"},"properties":{"kind":"stop","name":"Ramona Boulevard and Santa Anita Avenue","stop_id":"2324769"},"type":"Feature"},{"geometry":{"coordinates":[-118.03564,34.07196],"type":"Point"},"properties":{"kind":"stop","name":"Ramona Boulevard and Tyler Avenue","stop_id":"2324770"},"type":"Feature"},{"geometry":{"coordinates":[-118.03313,34.07226],"type":"Point"},"properties":{"kind":"stop","name":"Ramona Boulevard and Valley Boulevard","stop_id":"2324771"},"type":"Feature"},{"geometry":{"coordinates":[-118.00486,33.89898],"type":"Point"},"properties":{"kind":"stop","name":"Rosecrans Avenue and Adelfa Drive N/E Corner","stop_id":"2324772"},"type":"Feature"},{"geometry":{"coordinates":[-118.00542,33.8987],"type":"Point"},"properties":{"kind":"stop","name":"Rosecrans Avenue and Adelfa Drive S/W Corner","stop_id":"2324773"},"type":"Feature"},{"geometry":{"coordinates":[-118.1289,33.90299],"type":"Point"},"properties":{"kind":"stop","name":"Rosecrans Avenue and Ardis Avenue - S/E  Corner","stop_id":"2324774"},"type":"Feature"},{"geometry":{"coordinates":[-118.12493,33.90186],"type":"Point"},"properties":{"kind":"stop","name":"Rosecrans Avenue and Bellflower Boulevard -S/E Corner","stop_id":"2324775"},"type":"Feature"},{"geometry":{"coordinates":[-118.01897,33.90059],"type":"Point"},"properties":{"kind":"stop","name":"Rosecrans Avenue and Biola Avenue N/E Corner","stop_id":"2324776"},"type":"Feature"},{"geometry":{"coordinates":[-118.0196,33.90062],"type":"Point"},"properties":{"kind":"stop","name":"Rosecrans Avenue and Biola Avenue S/W Corner","stop_id":"2324777"},"type":"Feature"},{"geometry":{"coordinates":[-118.06445,33.90219],"type":"Point"},"properties":{"kind":"stop","name":"Rosecrans Avenue and Bloomfield Avenue S/W Corner","stop_id":"2324778"},"type":"Feature"},{"geometry":{"coordinates":[-118.122,33.90188],"type":"Point"},"properties":{"kind":"stop","name":"Rosecrans Avenue and Cabell - S/E  Corner","stop_id":"2324779"},"type":"Feature"},{"geometry":{"coordinates":[-118.04708,33.90254],"type":"Point"},"properties":{"kind":"stop","name":"Rosecrans Avenue and Carmenita Road N/W Corner","stop_id":"2324780"},"type":"Feature"},{"geometry":{"coordinates":[-118.04617,33.90229],"type":"Point"},"properties":{"kind":"stop","name":"Rosecrans Avenue and Carmenita Road S/E Corner","stop_id":"2324781"},"type":"Feature"},{"geometry":{"coordinates":[-118.02397,33.90225],"type":"Point"},"properties":{"kind":"stop","name":"Rosecrans Avenue and Castellon Road S/W Corner","stop_id":"2324782"},"type":"Feature"},{"geometry":{"coordinates":[-118.04862,33.90228],"type":"Point"},"properties":{"kind":"stop","name":"Rosecrans Avenue and Claressa Avenue S/W Corner","stop_id":"2324783"},"type":"Feature"},{"geometry":{"coordinates":[-118.08001,33.90233],"type":"Point"},"properties":{"kind":"stop","name":"Rosecrans Avenue and Clarkdale Avenue N/W Corner","stop_id":"2324784"},"type":"Feature"},{"geometry":{"coordinates":[-118.07962,33.90209],"type":"Point"},"properties":{"kind":"stop","name":"Rosecrans Avenue and Clarkdale Avenue S/E Corner","stop_id":"2324785"},"type":"Feature"},{"geometry":{"coordinates":[-118.05073,33.90251],"type":"Point"},"properties":{"kind":"stop","name":"Rosecrans Avenue and Dinard Avenue N/E Corner","stop_id":"2324786"},"type":"Feature"},{"geometry":{"coordinates":[-118.05121,33.90227],"type":"Point"},"properties":{"kind":"stop","name":"Rosecrans Avenue and Dinard Avenue S/W Corner","stop_id":"2324787"},"type":"Feature"},{"geometry":{"coordinates":[-118.10352,33.90195],"type":"Point"},"properties":{"kind":"stop","name":"Rosecrans Avenue and Dumont Avenue","stop_id":"2324788"},"type":"Feature"},{"geometry":{"coordinates":[-118.02248,33.90216],"type":"Point"},"properties":{"kind":"stop","name":"Rosecrans Avenue and El Espejo Road N/E Corner","stop_id":"2324789"},"type":"Feature"},{"geometry":{"coordinates":[-118.09591,33.90224],"type":"Point"},"properties":{"kind":"stop","name":"Rosecrans Avenue and Elmcroft Avenue","stop_id":"2324790"},"type":"Feature"},{"geometry":{"coordinates":[-118.09541,33.902],"type":"Point"},"properties":{"kind":"stop","name":"Rosecrans Avenue and Elmcroft Avenue S/E Corner","stop_id":"2324791"},"type":"Feature"},{"geometry":{"coordinates":[-118.01471,33.89874],"type":"Point"},"properties":{"kind":"stop","name":"Rosecrans Avenue and Figueras Road N/E Corner","stop_id":"2324792"},"type":"Feature"},{"geometry":{"coordinates":[-118.01526,33.89864],"type":"Point"},"properties":{"kind":"stop","name":"Rosecrans Avenue and Figueras Road S/W Corner","stop_id":"2324793"},"type":"Feature"},{"geometry":{"coordinates":[-118.08529,33.90229],"type":"Point"},"properties":{"kind":"stop","name":"Rosecrans Avenue and Flallon Avenue N/W Corner","stop_id":"2324794"},"type":"Feature"},{"geometry":{"coordinates":[-118.08556,33.90205],"type":"Point"},"properties":{"kind":"stop","name":"Rosecrans Avenue and Flallon Avenue S/W Corner","stop_id":"2324795"},"type":"Feature"},{"geometry":{"coordinates":[-118.07607,33.90236],"type":"Point"},"properties":{"kind":"stop","name":"Rosecrans Avenue and Grayland Avenue N/E Corner","stop_id":"2324796"},"type":"Feature"},{"geometry":{"coordinates":[-118.07592,33.90212],"type":"Point"},"properties":{"kind":"stop","name":"Rosecrans Avenue and Grayland Avenue S/E Corner","stop_id":"2324797"},"type":"Feature"},{"geometry":{"coordinates":[-118.05754,33.90248],"type":"Point"},"properties":{"kind":"stop","name":"Rosecrans Avenue and Greenstone Avenue N/E Corner","stop_id":"2324799"},"type":"Feature"},{"geometry":{"coordinates":[-118.05748,33.90223],"type":"Point"},"properties":{"kind":"stop","name":"Rosecrans Avenue and Greenstone Avenue S/E Corner","stop_id":"2324800"},"type":"Feature"},{"geometry":{"coordinates":[-118.09174,33.90225],"type":"Point"},"properties":{"kind":"stop","name":"Rosecrans Avenue and Harvest Avenue N/E Corner","stop_id":"2324801"},"type":"Feature"},{"geometry":{"coordinates":[-118.09246,33.90202],"type":"Point"},"properties":{"kind":"stop","name":"Rosecrans Avenue and Harvest Avenue S/W Corner","stop_id":"2324802"},"type":"Feature"},{"geometry":{"coordinates":[-118.06936,33.90216],"type":"Point"},"properties":{"kind":"stop","name":"Rosecrans Avenue and Helwig Avenue S/W Corner","stop_id":"2324803"},"type":"Feature"},{"geometry":{"coordinates":[-118.00691,33.89884],"type":"Point"},"properties":{"kind":"stop","name":"Rosecrans Avenue and Jalon Road N/E Corner","stop_id":"2324804"},"type":"Feature"},{"geometry":{"coordinates":[-118.00155,33.89896],"type":"Point"},"properties":{"kind":"stop","name":"Rosecrans Avenue and La Fonda Drive S/W Corner","stop_id":"2324805"},"type":"Feature"},{"geometry":{"coordinates":[-118.01065,33.8986],"type":"Point"},"properties":{"kind":"stop","name":"Rosecrans Avenue and La Mirada Boulevard N/E Corner","stop_id":"2324806"},"type":"Feature"},{"geometry":{"coordinates":[-118.01034,33.89838],"type":"Point"},"properties":{"kind":"stop","name":"Rosecrans Avenue and La Mirada Boulevard S/E Corner","stop_id":"2324807"},"type":"Feature"},{"geometry":{"coordinates":[-118.00096,33.89923],"type":"Point"},"properties":{"kind":"stop","name":"Rosecrans Avenue and La Fonda Drive N/E Corner","stop_id":"2324808"},"type":"Feature"},{"geometry":{"coordinates":[-118.03746,33.90259],"type":"Point"},"properties":{"kind":"stop","name":"Rosecrans Avenue and Marquardt Avenue N/E Corner","stop_id":"2324809"},"type":"Feature"},{"geometry":{"coordinates":[-118.03815,33.90234],"type":"Point"},"properties":{"kind":"stop","name":"Rosecrans Avenue and Marquardt Avenue S/W Corner","stop_id":"2324810"},"type":"Feature"},{"geometry":{"coordinates":[-118.06947,33.90241],"type":"Point"},"properties":{"kind":"stop","name":"Rosecrans Avenue at the Masonic Center","stop_id":"2324811"},"type":"Feature"},{"geometry":{"coordinates":[-118.07306,33.90236],"type":"Point"},"properties":{"kind":"stop","name":"Rosecrans Avenue and Norwalk Boulevard N/W Corner","stop_id":"2324812"},"type":"Feature"},{"geometry":{"coordinates":[-118.07268,33.90214],"type":"Point"},"properties":{"kind":"stop","name":"Rosecrans Avenue and Norwalk Boulevard S/E Corner","stop_id":"2324813"},"type":"Feature"},{"geometry":{"coordinates":[-118.08316,33.90231],"type":"Point"},"properties":{"kind":"stop","name":"Rosecrans and Pioneer","stop_id":"2324814"},"type":"Feature"},{"geometry":{"coordinates":[-118.08213,33.90207],"type":"Point"},"properties":{"kind":"stop","name":"Rosecrans and Pioneer","stop_id":"2324815"},"type":"Feature"},{"geometry":{"coordinates":[-117.99704,33.899],"type":"Point"},"properties":{"kind":"stop","name":"Rosecrans Avenue and Santa Gertrudes Avenue N/W Corner","stop_id":"2324816"},"type":"Feature"},{"geometry":{"coordinates":[-117.99698,33.89875],"type":"Point"},"properties":{"kind":"stop","name":"Rosecrans Avenue and Santa Gertrudes Avenue S/W Corner","stop_id":"2324817"},"type":"Feature"},{"geometry":{"coordinates":[-118.05569,33.90225],"type":"Point"},"properties":{"kind":"stop","name":"Rosecrans Avenue and Shoemaker Avenue S/W Corner","stop_id":"2324819"},"type":"Feature"},{"geometry":{"coordinates":[-118.09962,33.90222],"type":"Point"},"properties":{"kind":"stop","name":"Rosecrans Avenue and Studebaker Road N/E Corner","stop_id":"2324820"},"type":"Feature"},{"geometry":{"coordinates":[-118.10043,33.90198],"type":"Point"},"properties":{"kind":"stop","name":"Rosecrans Avenue and Studebaker Road S/W Corner","stop_id":"2324821"},"type":"Feature"},{"geometry":{"coordinates":[-118.02961,33.90265],"type":"Point"},"properties":{"kind":"stop","name":"Rosecrans Avenue and Valley View Avenue N/W Corner","stop_id":"2324822"},"type":"Feature"},{"geometry":{"coordinates":[-118.02875,33.9024],"type":"Point"},"properties":{"kind":"stop","name":"Rosecrans Avenue and Valley View Avenue S/E Corner","stop_id":"2324823"},"type":"Feature"},{"geometry":{"coordinates":[-118.06044,33.9022],"type":"Point"},"properties":{"kind":"stop","name":"Rosecrans Avenue opposite Bloomfield Avenue North","stop_id":"2324825"},"type":"Feature"},{"geometry":{"coordinates":[-118.10368,33.9022],"type":"Point"},"properties":{"kind":"stop","name":"Rosecrans Avenue opposite Dumont Avenue","stop_id":"2324826"},"type":"Feature"},{"geometry":{"coordinates":[-118.06481,33.90243],"type":"Point"},"properties":{"kind":"stop","name":"Rosecrans Avenue opposite S Bloomfield Avenue","stop_id":"2324827"},"type":"Feature"},{"geometry":{"coordinates":[-118.03023,34.04586],"type":"Point"},"properties":{"kind":"stop","name":"Rush Street and Durfee Avenue","stop_id":"2324828"},"type":"Feature"},{"geometry":{"coordinates":[-118.07626,33.9089],"type":"Point"},"properties":{"kind":"stop","name":"San Antonio Drive and Firestone Boulevard- S/W Corner","stop_id":"2324829"},"type":"Feature"},{"geometry":{"coordinates":[-118.07706,33.90767],"type":"Point"},"properties":{"kind":"stop","name":"San Antonio Drive and Foster Road- N/W Corner","stop_id":"2324830"},"type":"Feature"},{"geometry":{"coordinates":[-118.07599,33.9088],"type":"Point"},"properties":{"kind":"stop","name":"San Antonio Drive and Front Street- N/E Corner","stop_id":"2324831"},"type":"Feature"},{"geometry":{"coordinates":[-118.07408,33.91123],"type":"Point"},"properties":{"kind":"stop","name":"San Antonio Drive and Olive Street- N/E Corner","stop_id":"2324832"},"type":"Feature"},{"geometry":{"coordinates":[-118.07425,33.91175],"type":"Point"},"properties":{"kind":"stop","name":"San Antonio Drive and Frontage - S/W Corner","stop_id":"2324833"},"type":"Feature"},{"geometry":{"coordinates":[-118.06007,33.94943],"type":"Point"},"properties":{"kind":"stop","name":"Santa Fe Springs Road and Los Nietos Road","stop_id":"2324835"},"type":"Feature"},{"geometry":{"coordinates":[-118.05037,33.95906],"type":"Point"},"properties":{"kind":"stop","name":"Santa Fe Springs Road and Mulberry Drive","stop_id":"2324836"},"type":"Feature"},{"geometry":{"coordinates":[-118.0507,33.95913],"type":"Point"},"properties":{"kind":"stop","name":"Santa Fe Springs Road and Slauson Avenue","stop_id":"2324837"},"type":"Feature"},{"geometry":{"coordinates":[-118.06416,33.94208],"type":"Point"},"properties":{"kind":"stop","name":"Bloomfield/Telegraph","stop_id":"2324838"},"type":"Feature"},{"geometry":{"coordinates":[-117.99967,33.89377],"type":"Point"},"properties":{"kind":"stop","name":"Santa Gertrudes Avenue and Stanbrook Drive","stop_id":"2324839"},"type":"Feature"},{"geometry":{"coordinates":[-118.0555,33.90761],"type":"Point"},"properties":{"kind":"stop","name":"Shoemaker Avenue at Golf Course","stop_id":"2324840"},"type":"Feature"},{"geometry":{"coordinates":[-118.05528,33.90938],"type":"Point"},"properties":{"kind":"stop","name":"Shoemaker Avenue and Foster Road","stop_id":"2324841"},"type":"Feature"},{"geometry":{"coordinates":[-118.05523,33.90275],"type":"Point"},"properties":{"kind":"stop","name":"Shoemaker/Rosecrans","stop_id":"2324842"},"type":"Feature"},{"geometry":{"coordinates":[-118.05547,33.90334],"type":"Point"},"properties":{"kind":"stop","name":"Shoemaker Avenue and Shoemaker Avenue Ct. Apts.","stop_id":"2324843"},"type":"Feature"},{"geometry":{"coordinates":[-118.05524,33.90494],"type":"Point"},"properties":{"kind":"stop","name":"Shoemaker Avenue and Tom White Way","stop_id":"2324844"},"type":"Feature"},{"geometry":{"coordinates":[-118.05548,33.90485],"type":"Point"},"properties":{"kind":"stop","name":"Shoemaker Avenue and Tom White Way - S/W Corner","stop_id":"2324845"},"type":"Feature"},{"geometry":{"coordinates":[-118.07574,33.96563],"type":"Point"},"properties":{"kind":"stop","name":"Slauson Avenue and Alburtis Avenue- N/E Corner","stop_id":"2324846"},"type":"Feature"},{"geometry":{"coordinates":[-118.07563,33.96535],"type":"Point"},"properties":{"kind":"stop","name":"Slauson Avenue and Alburtis Avenue- S/E Corner","stop_id":"2324847"},"type":"Feature"},{"geometry":{"coordinates":[-118.07917,33.96647],"type":"Point"},"properties":{"kind":"stop","name":"Slauson Avenue and Millergrove Drive- N/E Corner","stop_id":"2324848"},"type":"Feature"},{"geometry":{"coordinates":[-118.07975,33.96635],"type":"Point"},"properties":{"kind":"stop","name":"Slauson Avenue and Millergrove Drive- S/W Corner","stop_id":"2324849"},"type":"Feature"},{"geometry":{"coordinates":[-118.09967,33.88058],"type":"Point"},"properties":{"kind":"stop","name":"Studebaker Road and 166th Street- N/E Corner","stop_id":"2324850"},"type":"Feature"},{"geometry":{"coordinates":[-118.09997,33.88047],"type":"Point"},"properties":{"kind":"stop","name":"Studebaker Road and 166th Street- N/W Corner","stop_id":"2324851"},"type":"Feature"},{"geometry":{"coordinates":[-118.09951,33.86598],"type":"Point"},"properties":{"kind":"stop","name":"Studebaker Road and 183rd Street- N/E Corner","stop_id":"2324852"},"type":"Feature"},{"geometry":{"coordinates":[-118.10006,33.88721],"type":"Point"},"properties":{"kind":"stop","name":"StudebakerAlondra","stop_id":"2324853"},"type":"Feature"},{"geometry":{"coordinates":[-118.09976,33.88818],"type":"Point"},"properties":{"kind":"stop","name":"Studebaker/Alondra","stop_id":"2324854"},"type":"Feature"},{"geometry":{"coordinates":[-118.0994,33.91245],"type":"Point"},"properties":{"kind":"stop","name":"Studebaker Road and Angell opposite Hospital","stop_id":"2324855"},"type":"Feature"},{"geometry":{"coordinates":[-118.09958,33.87334],"type":"Point"},"properties":{"kind":"stop","name":"Studebaker Road and Artesia Boulevard- N/E Corner","stop_id":"2324856"},"type":"Feature"},{"geometry":{"coordinates":[-118.09987,33.87268],"type":"Point"},"properties":{"kind":"stop","name":"Studebaker Road and Artesia Boulevard- S/W Corner","stop_id":"2324857"},"type":"Feature"},{"geometry":{"coordinates":[-118.10009,33.89133],"type":"Point"},"properties":{"kind":"stop","name":"Studebaker Road and Barnwall Street","stop_id":"2324858"},"type":"Feature"},{"geometry":{"coordinates":[-118.0998,33.89144],"type":"Point"},"properties":{"kind":"stop","name":"Studebaker Road and Barnwall Street- N/E Corner","stop_id":"2324859"},"type":"Feature"},{"geometry":{"coordinates":[-118.0991,33.91258],"type":"Point"},"properties":{"kind":"stop","name":"Studebaker Road and Coast Plaza Hospital","stop_id":"2324860"},"type":"Feature"},{"geometry":{"coordinates":[-118.09983,33.89507],"type":"Point"},"properties":{"kind":"stop","name":"Studebaker Road and Excelsior Drive- N/E Corner","stop_id":"2324861"},"type":"Feature"},{"geometry":{"coordinates":[-118.10012,33.89502],"type":"Point"},"properties":{"kind":"stop","name":"Studebaker Road and Excelsior Drive- N/W Corner","stop_id":"2324862"},"type":"Feature"},{"geometry":{"coordinates":[-118.09973,33.88429],"type":"Point"},"properties":{"kind":"stop","name":"Studebaker Road and Falcon Way- N/E Corner","stop_id":"2324863"},"type":"Feature"},{"geometry":{"coordinates":[-118.09939,33.91009],"type":"Point"},"properties":{"kind":"stop","name":"Studebaker Road and Foster Road- N/W Corner","stop_id":"2324864"},"type":"Feature"},{"geometry":{"coordinates":[-118.09911,33.90962],"type":"Point"},"properties":{"kind":"stop","name":"Studebaker Road and Foster Road- S/E Corner","stop_id":"2324865"},"type":"Feature"},{"geometry":{"coordinates":[-118.09935,33.90685],"type":"Point"},"properties":{"kind":"stop","name":"Studebaker Road and Leffingwell Road- N/E Corner","stop_id":"2324866"},"type":"Feature"},{"geometry":{"coordinates":[-118.09969,33.90673],"type":"Point"},"properties":{"kind":"stop","name":"Studebaker Road and Leffingwell Road- N/W Corner","stop_id":"2324867"},"type":"Feature"},{"geometry":{"coordinates":[-118.09985,33.89862],"type":"Point"},"properties":{"kind":"stop","name":"Studebaker Road and Mapledale Street- N/E Corner","stop_id":"2324868"},"type":"Feature"},{"geometry":{"coordinates":[-118.10015,33.89826],"type":"Point"},"properties":{"kind":"stop","name":"Studebaker Road and Mapledale Street- S/W Corner","stop_id":"2324869"},"type":"Feature"},{"geometry":{"coordinates":[-118.10002,33.8837],"type":"Point"},"properties":{"kind":"stop","name":"Studebaker Road and Melissa Street- S/W Corner","stop_id":"2324870"},"type":"Feature"},{"geometry":{"coordinates":[-118.09989,33.90251],"type":"Point"},"properties":{"kind":"stop","name":"Studebaker Road and Rosecrans Avenue- N/E Corner","stop_id":"2324871"},"type":"Feature"},{"geometry":{"coordinates":[-118.10017,33.90179],"type":"Point"},"properties":{"kind":"stop","name":"Studebaker Road and Rosecrans Avenue- S/W Corner","stop_id":"2324872"},"type":"Feature"},{"geometry":{"coordinates":[-118.09963,33.87811],"type":"Point"},"properties":{"kind":"stop","name":"Studebaker Road and Spinnaker Street- S/E Corner","stop_id":"2324873"},"type":"Feature"},{"geometry":{"coordinates":[-118.09909,33.91489],"type":"Point"},"properties":{"kind":"stop","name":"Studebaker Road and Borson Street","stop_id":"2324874"},"type":"Feature"},{"geometry":{"coordinates":[-118.0994,33.91666],"type":"Point"},"properties":{"kind":"stop","name":"Studebaker Road and Imperial Highway","stop_id":"2324875"},"type":"Feature"},{"geometry":{"coordinates":[-118.06448,33.9417],"type":"Point"},"properties":{"kind":"stop","name":"Telegraph Road and Bloomfield Avenue","stop_id":"2324876"},"type":"Feature"},{"geometry":{"coordinates":[-118.0646,33.94198],"type":"Point"},"properties":{"kind":"stop","name":"Telegraph Road and Bloomfield Avenue - N/W Corner","stop_id":"2324877"},"type":"Feature"},{"geometry":{"coordinates":[-118.04714,33.94087],"type":"Point"},"properties":{"kind":"stop","name":"Telegraph/Carmenita","stop_id":"2324878"},"type":"Feature"},{"geometry":{"coordinates":[-118.05478,33.94174],"type":"Point"},"properties":{"kind":"stop","name":"Telegraph Road and Greenleaf Avenue","stop_id":"2324879"},"type":"Feature"},{"geometry":{"coordinates":[-118.05564,33.94199],"type":"Point"},"properties":{"kind":"stop","name":"Telegraph Road and Greenleaf Avenue - N/W Corner","stop_id":"2324880"},"type":"Feature"},{"geometry":{"coordinates":[-118.08629,33.94728],"type":"Point"},"properties":{"kind":"stop","name":"Telegraph Road and Jersey Avenue","stop_id":"2324881"},"type":"Feature"},{"geometry":{"coordinates":[-118.08597,33.94743],"type":"Point"},"properties":{"kind":"stop","name":"Telegraph Road and Jersey Avenue - N/W Corner","stop_id":"2324882"},"type":"Feature"},{"geometry":{"coordinates":[-118.04892,33.94193],"type":"Point"},"properties":{"kind":"stop","name":"Telegraph Road and Laurel Avenue - N/W Corner","stop_id":"2324883"},"type":"Feature"},{"geometry":{"coordinates":[-118.07204,33.94171],"type":"Point"},"properties":{"kind":"stop","name":"Telegraph/Norwalk","stop_id":"2324884"},"type":"Feature"},{"geometry":{"coordinates":[-118.07315,33.94216],"type":"Point"},"properties":{"kind":"stop","name":"Telegraph/ Norwalk","stop_id":"2324885"},"type":"Feature"},{"geometry":{"coordinates":[-118.08913,33.94846],"type":"Point"},"properties":{"kind":"stop","name":"Orr and Day/Telegraph","stop_id":"2324886"},"type":"Feature"},{"geometry":{"coordinates":[-118.05115,33.94175],"type":"Point"},"properties":{"kind":"stop","name":"Telegraph Road and Painter Avenue","stop_id":"2324887"},"type":"Feature"},{"geometry":{"coordinates":[-118.05174,33.94198],"type":"Point"},"properties":{"kind":"stop","name":"Telegraph Road and Painter Avenue - N/W Corner","stop_id":"2324888"},"type":"Feature"},{"geometry":{"coordinates":[-118.08206,33.94554],"type":"Point"},"properties":{"kind":"stop","name":"Telegraph Road and Pioneer Boulevard","stop_id":"2324889"},"type":"Feature"},{"geometry":{"coordinates":[-118.08119,33.94553],"type":"Point"},"properties":{"kind":"stop","name":"Telegraph Road and Pioneer Boulevard - N/W Corner","stop_id":"2324890"},"type":"Feature"},{"geometry":{"coordinates":[-118.04825,33.94128],"type":"Point"},"properties":{"kind":"stop","name":"Telegraph/Carmenita Road (McDonalds)","stop_id":"2324891"},"type":"Feature"},{"geometry":{"coordinates":[-118.03113,34.07106],"type":"Point"},"properties":{"kind":"stop","name":"Valley Boulevard and Johnson Avenue","stop_id":"2324892"},"type":"Feature"},{"geometry":{"coordinates":[-118.02859,34.06911],"type":"Point"},"properties":{"kind":"stop","name":"Valley Boulevard and Peck Road","stop_id":"2324893"},"type":"Feature"},{"geometry":{"coordinates":[-118.04743,33.96734],"type":"Point"},"properties":{"kind":"stop","name":"Washington Boulevard and Lambert Road","stop_id":"2324894"},"type":"Feature"},{"geometry":{"coordinates":[-118.04426,33.9679],"type":"Point"},"properties":{"kind":"stop","name":"Washington Boulevard and Putnam Street","stop_id":"2324895"},"type":"Feature"},{"geometry":{"coordinates":[-118.11752,33.8887],"type":"Point"},"properties":{"kind":"stop","name":"Woodruff/Alondra","stop_id":"2324896"},"type":"Feature"},{"geometry":{"coordinates":[-118.11746,33.88281],"type":"Point"},"properties":{"kind":"stop","name":"Woodruff Avenue and Flora Vista Street- N/W Corner","stop_id":"2324897"},"type":"Feature"},{"geometry":{"coordinates":[-118.1168,33.90136],"type":"Point"},"properties":{"kind":"stop","name":"Woodruff Avenue and Rosecrans Avenue - S/W  Corner","stop_id":"2324898"},"type":"Feature"},{"geometry":{"coordinates":[-118.11676,33.89685],"type":"Point"},"properties":{"kind":"stop","name":"Woodruff Avenue and Somerset Boulevard-N/W  Corner","stop_id":"2324899"},"type":"Feature"},{"geometry":{"coordinates":[-118.11731,33.89388],"type":"Point"},"properties":{"kind":"stop","name":"Woodruff Avenue and Woodruff Avenue Pl.-N/W Corner","stop_id":"2324900"},"type":"Feature"},{"geometry":{"coordinates":[-118.02602,34.03106],"type":"Point"},"properties":{"kind":"stop","name":"Workman Mill Rd and Cambray Dr","stop_id":"2324901"},"type":"Feature"},{"geometry":{"coordinates":[-118.04636,34.01339],"type":"Point"},"properties":{"kind":"stop","name":"Workman Mill Road and Cliota Street- S/E Corner","stop_id":"2324902"},"type":"Feature"},{"geometry":{"coordinates":[-118.04447,34.01524],"type":"Point"},"properties":{"kind":"stop","name":"Workman Mill Road and Mission Mill Road- S/W Corner","stop_id":"2324903"},"type":"Feature"},{"geometry":{"coordinates":[-118.05537,34.00852],"type":"Point"},"properties":{"kind":"stop","name":"Workman Mill Road and Pioneer Boulevard- S/W Corner","stop_id":"2324904"},"type":"Feature"},{"geometry":{"coordinates":[-118.03755,34.02013],"type":"Point"},"properties":{"kind":"stop","name":"Rio Hondo College","stop_id":"2324905"},"type":"Feature"},{"geometry":{"coordinates":[-118.0407,34.01731],"type":"Point"},"properties":{"kind":"stop","name":"Workman Mill Road and Rose Hills (Main Gate)","stop_id":"2324906"},"type":"Feature"},{"geometry":{"coordinates":[-118.05583,34.00563],"type":"Point"},"properties":{"kind":"stop","name":"Workman Mill Road and Rose Hills Gate # 17","stop_id":"2324907"},"type":"Feature"},{"geometry":{"coordinates":[-118.0562,34.00507],"type":"Point"},"properties":{"kind":"stop","name":"Workman Mill Road and Rose Hills Gate # 19","stop_id":"2324908"},"type":"Feature"},{"geometry":{"coordinates":[-118.05599,34.00135],"type":"Point"},"properties":{"kind":"stop","name":"Workman Mill Road and Sierra Morena Avenue- S/E Corner","stop_id":"2324909"},"type":"Feature"},{"geometry":{"coordinates":[-118.0483,34.01151],"type":"Point"},"properties":{"kind":"stop","name":"Workman Mill Road and Spy Glass Hill Road- S/E Corner","stop_id":"2324910"},"type":"Feature"},{"geometry":{"coordinates":[-118.04681,34.01332],"type":"Point"},"properties":{"kind":"stop","name":"Workman Mill Road and Rose Hills Road- S/W Corner","stop_id":"2324911"},"type":"Feature"},{"geometry":{"coordinates":[-118.04408,34.01513],"type":"Point"},"properties":{"kind":"stop","name":"Workman Mill Road and E Mission Mill Road","stop_id":"2324912"},"type":"Feature"},{"geometry":{"coordinates":[-118.04599,34.0138],"type":"Point"},"properties":{"kind":"stop","name":"Workman Mill Road and Cliota Street","stop_id":"2324914"},"type":"Feature"},{"geometry":{"coordinates":[-118.05508,34.00842],"type":"Point"},"properties":{"kind":"stop","name":"Workman Mill Road and Pioneer Boulevard","stop_id":"2324915"},"type":"Feature"},{"geometry":{"coordinates":[-118.04784,34.01189],"type":"Point"},"properties":{"kind":"stop","name":"Workman Mill Road and Spy Glass Hill Road","stop_id":"2324921"},"type":"Feature"},{"geometry":{"coordinates":[-118.0386,34.01938],"type":"Point"},"properties":{"kind":"stop","name":"Rio Hondo College","stop_id":"2324922"},"type":"Feature"},{"geometry":{"coordinates":[-118.04181,34.01677],"type":"Point"},"properties":{"kind":"stop","name":"Workman Mill Road opposite Rose Hills Main Gate","stop_id":"2324923"},"type":"Feature"},{"geometry":{"coordinates":[-118.05629,34.00134],"type":"Point"},"properties":{"kind":"stop","name":"Workman Mill Road opposite Sierra Morena Avenue","stop_id":"2324924"},"type":"Feature"},{"geometry":{"coordinates":[-118.04856,34.01165],"type":"Point"},"properties":{"kind":"stop","name":"Workman Mill Road opposite Spy Glass Hill Road","stop_id":"2324925"},"type":"Feature"},{"geometry":{"coordinates":[-118.10381,33.91336],"type":"Point"},"properties":{"kind":"stop","name":"Green Line Station","stop_id":"2324926"},"type":"Feature"},{"geometry":{"coordinates":[-118.10381,33.9131],"type":"Point"},"properties":{"kind":"stop","name":"Green Line Station","stop_id":"2324927"},"type":"Feature"},{"geometry":{"coordinates":[-118.1038,33.91289],"type":"Point"},"properties":{"kind":"stop","name":"Green Line Station","stop_id":"2324965"},"type":"Feature"},{"geometry":{"coordinates":[-118.09046,33.94569],"type":"Point"},"properties":{"kind":"stop","name":"Orr and Day Road and Davenrich Street","stop_id":"2324966"},"type":"Feature"},{"geometry":{"coordinates":[-118.05573,33.90249],"type":"Point"},"properties":{"kind":"stop","name":"Rosecrans/Shoemaker","stop_id":"2326152"},"type":"Feature"},{"geometry":{"coordinates":[-118.06394,33.89557],"type":"Point"},"properties":{"kind":"stop","name":"Bloomfield Avenue and Excelsior Drive","stop_id":"2326306"},"type":"Feature"},{"geometry":{"coordinates":[-118.082,33.93498],"type":"Point"},"properties":{"kind":"stop","name":"Pioneer/Florence","stop_id":"2326307"},"type":"Feature"},{"geometry":{"coordinates":[-118.0638,33.91747],"type":"Point"},"properties":{"kind":"stop","name":"Bloomfield/Imperial","stop_id":"2326310"},"type":"Feature"},{"geometry":{"coordinates":[-118.06383,33.93154],"type":"Point"},"properties":{"kind":"stop","name":"Bloomfield Avenue and Lakeland Road","stop_id":"2326311"},"type":"Feature"},{"geometry":{"coordinates":[-118.06384,33.93584],"type":"Point"},"properties":{"kind":"stop","name":"Bloomfield Avenue and Florence Avenue","stop_id":"2326312"},"type":"Feature"},{"geometry":{"coordinates":[-118.04608,33.96426],"type":"Point"},"properties":{"kind":"stop","name":"Lambert Road and Santa Fe Springs Road","stop_id":"2326313"},"type":"Feature"},{"geometry":{"coordinates":[-118.04199,33.97352],"type":"Point"},"properties":{"kind":"stop","name":"Pickering Avenue and Mar Vista Street","stop_id":"2326314"},"type":"Feature"},{"geometry":{"coordinates":[-118.03257,33.97524],"type":"Point"},"properties":{"kind":"stop","name":"Painter Avenue and Penn Street","stop_id":"2326315"},"type":"Feature"},{"geometry":{"coordinates":[-118.03254,33.97953],"type":"Point"},"properties":{"kind":"stop","name":"Painter Avenue and Philadelphia Street","stop_id":"2326316"},"type":"Feature"},{"geometry":{"coordinates":[-118.04237,33.98823],"type":"Point"},"properties":{"kind":"stop","name":"Beverley Boulevard and Pickering Avenue","stop_id":"2326317"},"type":"Feature"},{"geometry":{"coordinates":[-118.04615,33.98823],"type":"Point"},"properties":{"kind":"stop","name":"Beverley Boulevard and Citrus Avenue","stop_id":"2326318"},"type":"Feature"},{"geometry":{"coordinates":[-118.05049,33.99167],"type":"Point"},"properties":{"kind":"stop","name":"Beverley Boulevard and Floral Drive","stop_id":"2326319"},"type":"Feature"},{"geometry":{"coordinates":[-118.03714,34.03057],"type":"Point"},"properties":{"kind":"stop","name":"Peck Road and Rooks Road","stop_id":"2326320"},"type":"Feature"},{"geometry":{"coordinates":[-118.03833,34.03662],"type":"Point"},"properties":{"kind":"stop","name":"Peck Road and Durfee Avenue","stop_id":"2326321"},"type":"Feature"},{"geometry":{"coordinates":[-118.0302,34.04622],"type":"Point"},"properties":{"kind":"stop","name":"Rush Street and Durfee Avenue","stop_id":"2326322"},"type":"Feature"},{"geometry":{"coordinates":[-118.03046,34.05208],"type":"Point"},"properties":{"kind":"stop","name":"Peck Road and Fineview Street","stop_id":"2326323"},"type":"Feature"},{"geometry":{"coordinates":[-118.03041,34.05881],"type":"Point"},"properties":{"kind":"stop","name":"Peck/Elliott","stop_id":"2326324"},"type":"Feature"},{"geometry":{"coordinates":[-118.03016,34.06573],"type":"Point"},"properties":{"kind":"stop","name":"Peck Road and Meeker Avenue","stop_id":"2326325"},"type":"Feature"},{"geometry":{"coordinates":[-118.02829,34.06921],"type":"Point"},"properties":{"kind":"stop","name":"Valley Boulevard and Peck Road","stop_id":"2326326"},"type":"Feature"},{"geometry":{"coordinates":[-118.03084,34.07118],"type":"Point"},"properties":{"kind":"stop","name":"Valley Boulevard and Johnson Avenue","stop_id":"2326327"},"type":"Feature"},{"geometry":{"coordinates":[-118.03339,34.0724],"type":"Point"},"properties":{"kind":"stop","name":"Ramona Boulevard and Valley Boulevard","stop_id":"2326328"},"type":"Feature"},{"geometry":{"coordinates":[-118.03638,34.07214],"type":"Point"},"properties":{"kind":"stop","name":"Ramona Boulevard and Tyler Avenue","stop_id":"2326329"},"type":"Feature"},{"geometry":{"coordinates":[-118.04008,34.07207],"type":"Point"},"properties":{"kind":"stop","name":"Ramona Boulevard and Lexington Avenue","stop_id":"2326330"},"type":"Feature"},{"geometry":{"coordinates":[-118.03071,34.06324],"type":"Point"},"properties":{"kind":"stop","name":"Peck Road and Garvey Avenue","stop_id":"2326458"},"type":"Feature"},{"geometry":{"coordinates":[-118.03285,34.04348],"type":"Point"},"properties":{"kind":"stop","name":"Durfee Avenue and Thienes Avenue","stop_id":"2326459"},"type":"Feature"},{"geometry":{"coordinates":[-118.03599,34.04092],"type":"Point"},"properties":{"kind":"stop","name":"Durfee Avenue and Michael Hunt Drive","stop_id":"2326460"},"type":"Feature"},{"geometry":{"coordinates":[-118.03756,33.98807],"type":"Point"},"properties":{"kind":"stop","name":"Beverly Boulevard and Greenleaf Avenue","stop_id":"2326461"},"type":"Feature"},{"geometry":{"coordinates":[-118.03746,33.98612],"type":"Point"},"properties":{"kind":"stop","name":"Greenleaf Avenue and Broadway","stop_id":"2326462"},"type":"Feature"},{"geometry":{"coordinates":[-118.03278,33.97739],"type":"Point"},"properties":{"kind":"stop","name":"Painter Avenue and Wardman Street","stop_id":"2326463"},"type":"Feature"},{"geometry":{"coordinates":[-118.03714,33.97378],"type":"Point"},"properties":{"kind":"stop","name":"Mar Vista Street/Greenleaf","stop_id":"2326464"},"type":"Feature"},{"geometry":{"coordinates":[-118.04216,33.97182],"type":"Point"},"properties":{"kind":"stop","name":"Pickering Avenue and Walnut Street","stop_id":"2326465"},"type":"Feature"},{"geometry":{"coordinates":[-118.04219,33.96925],"type":"Point"},"properties":{"kind":"stop","name":"Pickering Avenue and Whittier Boulevard","stop_id":"2326466"},"type":"Feature"},{"geometry":{"coordinates":[-118.04438,33.96812],"type":"Point"},"properties":{"kind":"stop","name":"Washington Boulevard and Putnam Street","stop_id":"2326467"},"type":"Feature"},{"geometry":{"coordinates":[-118.06004,33.94988],"type":"Point"},"properties":{"kind":"stop","name":"Santa Fe Springs Road and Los Nietos Road","stop_id":"2326468"},"type":"Feature"},{"geometry":{"coordinates":[-118.07093,33.91427],"type":"Point"},"properties":{"kind":"stop","name":"Civic Center Drive opposite AMC Theaters","stop_id":"2326469"},"type":"Feature"},{"geometry":{"coordinates":[-118.07896,33.91133],"type":"Point"},"properties":{"kind":"stop","name":"Firestone Boulevard and Paddison Avenue","stop_id":"2326470"},"type":"Feature"},{"geometry":{"coordinates":[-118.08264,33.91331],"type":"Point"},"properties":{"kind":"stop","name":"Firestone Boulevard and Pioneer Boulevard","stop_id":"2326471"},"type":"Feature"},{"geometry":{"coordinates":[-118.06396,33.88801],"type":"Point"},"properties":{"kind":"stop","name":"Bloomfield Avenue and Alondra Boulevard","stop_id":"2326835"},"type":"Feature"},{"geometry":{"coordinates":[-118.08199,33.93973],"type":"Point"},"properties":{"kind":"stop","name":"Pioneer Boulevard and Glenworth Street","stop_id":"2335771"},"type":"Feature"},{"geometry":{"coordinates":[-118.08168,33.93507],"type":"Point"},"properties":{"kind":"stop","name":"Pioneer Boulevard and Florence Avenue SE Corner","stop_id":"2430084"},"type":"Feature"},{"geometry":{"coordinates":[-118.08086,33.94484],"type":"Point"},"properties":{"kind":"stop","name":"Pioneer Boulevard and Telegraph Road SE corner","stop_id":"2430086"},"type":"Feature"},{"geometry":{"coordinates":[-118.03633,34.07244],"type":"Point"},"properties":{"kind":"stop","name":"Tyler Avenue & Ramona Boulevard","stop_id":"2579386"},"type":"Feature"},{"geometry":{"coordinates":[-118.03588,34.07246],"type":"Point"},"properties":{"kind":"stop","name":"Tyler Avenue and Ramona Boulevard (Temp)","stop_id":"2580745"},"type":"Feature"}],"type":"FeatureCollection"}
