{"features":[{"geometry":{"coordinates":[[-106.7473,32.27385],[-106.74696,32.27253],[-106.74799,32.27221],[-106.74884,32.27119],[-106.75036,32.27196],[-106.74915,32.27377],[-106.74965,32.27577],[-106.75404,32.27495],[-106.75459,32.27712],[-106.75692,32.27667],[-106.75765,32.2758],[-106.76146,32.27777],[-106.7611,32.27826],[-106.76074,32.27962],[-106.76166,32.28302],[-106.75837,32.28365],[-106.75781,32.28154],[-106.75687,32.28174],[-106.75571,32.2814],[-106.7551,32.27907],[-106.75074,32.27992],[-106.7496,32.27559],[-106.74785,32.27598],[-106.7473,32.27385]],"type":"LineString"},"properties":{"color":"#0008FF","color_name":"blue","kind":"route","label":"Blue Aggie Shuttle","long":"Blue Aggie Shuttle","route_id":"5582","text_color":"#FFFFFF","type_label":"Bus"},"type":"Feature"},{"geometry":{"coordinates":[[-106.74012,32.28192],[-106.75714,32.27869],[-106.75781,32.28154],[-106.75687,32.28174],[-106.75571,32.2814],[-106.7551,32.27907],[-106.74035,32.28188],[-106.7401,32.28093],[-106.73953,32.27991],[-106.73956,32.27886],[-106.73935,32.27797],[-106.73682,32.27935],[-106.73779,32.28236],[-106.74012,32.28192]],"type":"LineString"},"properties":{"color":"#00FF00","color_name":"green","kind":"route","label":"Green Aggie Shuttle","long":"Green Aggie Shuttle","route_id":"5583","text_color":"#FFFFFF","type_label":"Bus"},"type":"Feature"},{"geometry":{"coordinates":[[-106.7805,32.30539],[-106.78126,32.30531],[-106.78153,32.30579],[-106.7803,32.3057],[-106.77873,32.30606],[-106.78048,32.31317],[-106.78028,32.31372],[-106.77963,32.31409],[-106.77986,32.31439],[-106.78077,32.31764],[-106.7835,32.32785],[-106.7837,32.32899],[-106.78357,32.32987],[-106.78309,32.33092],[-106.77476,32.34189],[-106.77373,32.3414],[-106.77286,32.34142],[-106.76917,32.34397],[-106.76835,32.34413],[-106.76753,32.34386],[-106.75615,32.32771],[-106.75515,32.32802],[-106.76547,32.34314],[-106.76561,32.34393],[-106.76547,32.3474],[-106.76527,32.348],[-106.76383,32.35001],[-106.76359,32.35088],[-106.76527,32.3522],[-106.76728,32.35039],[-106.76815,32.34996],[-106.76905,32.34874],[-106.77117,32.3468],[-106.77487,32.34198],[-106.7771,32.34394],[-106.78279,32.35422],[-106.78302,32.35537],[-106.78298,32.35888],[-106.78327,32.35994],[-106.78767,32.36622],[-106.78399,32.36911],[-106.78133,32.37019],[-106.77594,32.3605],[-106.7752,32.3599],[-106.77293,32.3587],[-106.76537,32.35211],[-106.76728,32.35039],[-106.76815,32.34996],[-106.76905,32.34874],[-106.77191,32.34594],[-106.78294,32.33138],[-106.78361,32.33026],[-106.78379,32.32846],[-106.78,32.31446],[-106.78005,32.31397],[-106.78045,32.31354],[-106.78037,32.31233],[-106.77895,32.30684],[-106.7807,32.30662],[-106.78021,32.30554],[-106.7805,32.30539]],"type":"LineString"},"properties":{"color":"#FF7F0E","color_name":"orange","kind":"route","label":"Route 1","long":"Route 1","route_id":"5584","text_color":"#FFFFFF","type_label":"Bus"},"type":"Feature"},{"geometry":{"coordinates":[[-106.78124,32.3053],[-106.78153,32.30579],[-106.7803,32.3057],[-106.77661,32.30646],[-106.77842,32.31311],[-106.77741,32.31326],[-106.77519,32.3051],[-106.7742,32.30222],[-106.77384,32.30177],[-106.77381,32.3008],[-106.77411,32.30034],[-106.77454,32.30016],[-106.76727,32.29364],[-106.76268,32.29473],[-106.75642,32.28402],[-106.74625,32.28598],[-106.74329,32.28602],[-106.74159,32.28629],[-106.73673,32.2876],[-106.73416,32.28942],[-106.73607,32.29641],[-106.73606,32.29783],[-106.73856,32.30636],[-106.73922,32.30795],[-106.74183,32.31258],[-106.73892,32.31443],[-106.73715,32.31633],[-106.73691,32.31694],[-106.73716,32.31793],[-106.73354,32.31968],[-106.73112,32.32034],[-106.72993,32.32087],[-106.72753,32.32296],[-106.72346,32.32507],[-106.72161,32.32677],[-106.72636,32.33022],[-106.73026,32.33168],[-106.73165,32.33279],[-106.73229,32.33399],[-106.73265,32.33599],[-106.73406,32.33886],[-106.73419,32.33961],[-106.7341,32.34481],[-106.73442,32.34593],[-106.73591,32.34747],[-106.7391,32.34892],[-106.74022,32.35029],[-106.74054,32.35148],[-106.74051,32.35513],[-106.73512,32.35534],[-106.73515,32.35434],[-106.7354,32.35377],[-106.73611,32.35323],[-106.7369,32.35303],[-106.73862,32.35347],[-106.73875,32.35517],[-106.74076,32.35513],[-106.74075,32.35154],[-106.74047,32.35033],[-106.73933,32.34886],[-106.7384,32.34827],[-106.73599,32.34728],[-106.73519,32.34658],[-106.73462,32.34573],[-106.73431,32.34452],[-106.73442,32.33961],[-106.73429,32.33881],[-106.7329,32.33602],[-106.7325,32.33393],[-106.73187,32.33274],[-106.73033,32.33151],[-106.72783,32.33073],[-106.72646,32.3301],[-106.72191,32.32675],[-106.7237,32.32513],[-106.72744,32.32326],[-106.72954,32.32137],[-106.73037,32.32085],[-106.73376,32.31988],[-106.73948,32.31714],[-106.74285,32.3165],[-106.74399,32.31591],[-106.7448,32.31522],[-106.74221,32.31293],[-106.739,32.30717],[-106.7362,32.29781],[-106.73623,32.29637],[-106.73434,32.28942],[-106.73682,32.28773],[-106.7419,32.28637],[-106.7432,32.28616],[-106.74643,32.28608],[-106.75642,32.28402],[-106.76268,32.29473],[-106.76727,32.29364],[-106.77454,32.30016],[-106.77411,32.30034],[-106.77381,32.3008],[-106.77384,32.30177],[-106.7742,32.30222],[-106.77519,32.3051],[-106.77694,32.31162],[-106.778,32.31144],[-106.77684,32.30738],[-106.77926,32.30677],[-106.7807,32.30662],[-106.78021,32.30554],[-106.7803,32.3057],[-106.78035,32.3054],[-106.78124,32.30531]],"type":"LineString"},"properties":{"color":"#F5F906","color_name":"yellow","kind":"route","label":"Route 2","long":"Route 2","route_id":"5585","text_color":"#FFFFFF","type_label":"Bus"},"type":"Feature"},{"geometry":{"coordinates":[[-106.74519,32.31067],[-106.74559,32.31048],[-106.74578,32.31171],[-106.74538,32.31281],[-106.74469,32.31367],[-106.74426,32.31388],[-106.74359,32.31384],[-106.74269,32.31307],[-106.74241,32.31235],[-106.74195,32.31252],[-106.73892,32.31443],[-106.73715,32.31633],[-106.73691,32.31694],[-106.73716,32.31793],[-106.73354,32.31968],[-106.73154,32.32021],[-106.73157,32.32037],[-106.73209,32.3216],[-106.73287,32.32247],[-106.73994,32.3293],[-106.74171,32.33008],[-106.74532,32.33034],[-106.74685,32.33114],[-106.7545,32.34206],[-106.7549,32.34298],[-106.75496,32.3437],[-106.7545,32.34512],[-106.7537,32.34593],[-106.75089,32.34755],[-106.7501,32.34869],[-106.7499,32.34978],[-106.75014,32.35091],[-106.75108,32.35227],[-106.75511,32.35603],[-106.74924,32.36083],[-106.74843,32.36295],[-106.74707,32.36203],[-106.74521,32.36201],[-106.7443,32.36169],[-106.743,32.35966],[-106.74212,32.35899],[-106.7414,32.35885],[-106.73972,32.35891],[-106.73966,32.3623],[-106.7378,32.36664],[-106.73761,32.36793],[-106.73806,32.36947],[-106.73987,32.37192],[-106.73833,32.37354],[-106.73339,32.37754],[-106.73161,32.37874],[-106.72946,32.37984],[-106.72444,32.38162],[-106.72101,32.38281],[-106.71911,32.3832],[-106.71729,32.38382],[-106.71434,32.38514],[-106.70279,32.3891],[-106.70016,32.38976],[-106.70026,32.39057],[-106.72891,32.38054],[-106.73256,32.3787],[-106.73862,32.37389],[-106.74076,32.37241],[-106.73958,32.37129],[-106.73828,32.36939],[-106.73783,32.36793],[-106.738,32.36666],[-106.73988,32.36229],[-106.73992,32.35904],[-106.7414,32.35897],[-106.74234,32.35924],[-106.74392,32.36149],[-106.74441,32.36188],[-106.74518,32.36214],[-106.747,32.36214],[-106.74748,32.36232],[-106.74839,32.3631],[-106.7488,32.36258],[-106.74934,32.36081],[-106.75526,32.35591],[-106.75182,32.35286],[-106.75064,32.35142],[-106.75015,32.35043],[-106.75007,32.34976],[-106.75022,32.34883],[-106.75101,32.34767],[-106.75382,32.34606],[-106.75488,32.34488],[-106.75515,32.34409],[-106.75515,32.34319],[-106.75469,32.342],[-106.74687,32.33092],[-106.74531,32.33017],[-106.74176,32.32993],[-106.7402,32.32928],[-106.73259,32.322],[-106.73212,32.3214],[-106.73177,32.3204],[-106.73376,32.31988],[-106.73948,32.31714],[-106.74246,32.31663],[-106.74399,32.31591],[-106.7448,32.31522],[-106.74386,32.31442],[-106.74387,32.31423],[-106.74494,32.31341],[-106.74571,32.31203],[-106.74578,32.31123],[-106.7455,32.3102],[-106.74462,32.31059],[-106.74466,32.31076],[-106.74475,32.31088],[-106.74519,32.31067]],"type":"LineString"},"properties":{"color":"#7B4173","color_name":"purple","kind":"route","label":"Route 3","long":"Route 3","route_id":"5586","text_color":"#FFFFFF","type_label":"Bus"},"type":"Feature"},{"geometry":{"coordinates":[[-106.7805,32.30539],[-106.78124,32.30529],[-106.78153,32.30571],[-106.7803,32.3057],[-106.7807,32.30662],[-106.78718,32.30495],[-106.79274,32.30377],[-106.79045,32.29973],[-106.78434,32.29133],[-106.78565,32.29087],[-106.78645,32.28987],[-106.78664,32.28986],[-106.78705,32.29081],[-106.78833,32.292],[-106.79021,32.29028],[-106.79148,32.28876],[-106.79457,32.28453],[-106.79533,32.28312],[-106.7961,32.27887],[-106.79593,32.27754],[-106.79515,32.27628],[-106.7908,32.27112],[-106.77213,32.28029],[-106.76997,32.28058],[-106.76621,32.27492],[-106.7621,32.27684],[-106.76078,32.27897],[-106.76076,32.27975],[-106.76166,32.28302],[-106.76816,32.28189],[-106.77015,32.28066],[-106.77178,32.28042],[-106.77287,32.27999],[-106.79071,32.27117],[-106.79527,32.27656],[-106.79609,32.27834],[-106.79576,32.28131],[-106.79511,32.28362],[-106.79363,32.28581],[-106.79007,32.29022],[-106.78821,32.29189],[-106.78705,32.29081],[-106.78659,32.28968],[-106.78578,32.29078],[-106.78422,32.29141],[-106.79044,32.29997],[-106.79255,32.3037],[-106.78286,32.30607],[-106.78106,32.30568],[-106.7803,32.3057],[-106.78021,32.30554],[-106.7805,32.30539]],"type":"LineString"},"properties":{"color":"#000470","color_name":"black","kind":"route","label":"Route 4","long":"Route 4","route_id":"5587","text_color":"#FFFFFF","type_label":"Bus"},"type":"Feature"},{"geometry":{"coordinates":[[-106.7805,32.30539],[-106.78125,32.3053],[-106.78152,32.30562],[-106.78152,32.30578],[-106.7803,32.3057],[-106.7807,32.30662],[-106.78139,32.30979],[-106.78359,32.31641],[-106.78708,32.31539],[-106.8024,32.31186],[-106.8039,32.31164],[-106.80681,32.31168],[-106.81236,32.31054],[-106.81542,32.31083],[-106.81561,32.30971],[-106.81553,32.30877],[-106.81368,32.30415],[-106.81162,32.30444],[-106.80991,32.30529],[-106.80906,32.30459],[-106.80821,32.30456],[-106.80733,32.30331],[-106.80385,32.3051],[-106.80624,32.30997],[-106.8068,32.31155],[-106.80394,32.31152],[-106.80238,32.31174],[-106.798,32.31263],[-106.79575,32.31336],[-106.78819,32.31514],[-106.78759,32.313],[-106.78392,32.30581],[-106.78245,32.30603],[-106.78106,32.30568],[-106.7803,32.3057],[-106.78021,32.30554],[-106.7805,32.30539]],"type":"LineString"},"properties":{"color":"#8C564B","color_name":"brown","kind":"route","label":"Route 5","long":"Route 5","route_id":"5588","text_color":"#FFFFFF","type_label":"Bus"},"type":"Feature"},{"geometry":{"coordinates":[[-106.7805,32.30538],[-106.78106,32.30526],[-106.78141,32.30539],[-106.78153,32.30579],[-106.7803,32.3057],[-106.77961,32.30455],[-106.77793,32.30287],[-106.77886,32.29971],[-106.78013,32.298],[-106.78026,32.29804],[-106.78013,32.298],[-106.78028,32.29704],[-106.78597,32.29358],[-106.78193,32.28824],[-106.7809,32.28885],[-106.77629,32.28979],[-106.77295,32.29198],[-106.76493,32.2943],[-106.76243,32.29477],[-106.75978,32.29496],[-106.74445,32.29832],[-106.74507,32.30041],[-106.74546,32.30077],[-106.74532,32.3013],[-106.74624,32.30444],[-106.74996,32.30364],[-106.75051,32.30566],[-106.75293,32.3086],[-106.75526,32.31282],[-106.75176,32.31483],[-106.75121,32.31321],[-106.75487,32.31213],[-106.75602,32.31387],[-106.75756,32.3187],[-106.7626,32.32364],[-106.76299,32.32467],[-106.76054,32.32573],[-106.76314,32.3283],[-106.76378,32.33024],[-106.76445,32.33116],[-106.76598,32.33217],[-106.76673,32.33303],[-106.77892,32.32774],[-106.77972,32.32875],[-106.78768,32.32666],[-106.78836,32.32839],[-106.79595,32.3264],[-106.79981,32.32507],[-106.80209,32.3242],[-106.8004,32.32176],[-106.79736,32.31451],[-106.79577,32.3093],[-106.79269,32.30367],[-106.78286,32.30607],[-106.78106,32.30568],[-106.7803,32.3057],[-106.78021,32.30554],[-106.78027,32.30564],[-106.78028,32.30544],[-106.7805,32.30538]],"type":"LineString"},"properties":{"color":"#17BECF","color_name":"teal","kind":"route","label":"Route 6","long":"Route 6","route_id":"5589","text_color":"#FFFFFF","type_label":"Bus"},"type":"Feature"},{"geometry":{"coordinates":[[-106.78049,32.30538],[-106.78126,32.3053],[-106.78152,32.30563],[-106.78153,32.30579],[-106.7803,32.3057],[-106.7807,32.30662],[-106.78718,32.30495],[-106.7926,32.3038],[-106.79561,32.30935],[-106.79706,32.31379],[-106.8004,32.32176],[-106.80209,32.3242],[-106.79595,32.3264],[-106.78836,32.32839],[-106.78768,32.32666],[-106.77972,32.32875],[-106.77892,32.32774],[-106.76673,32.33303],[-106.76598,32.33217],[-106.76445,32.33116],[-106.76378,32.33024],[-106.76314,32.3283],[-106.76054,32.32573],[-106.76299,32.32467],[-106.7626,32.32364],[-106.75756,32.3187],[-106.75587,32.31356],[-106.75522,32.31282],[-106.75176,32.31483],[-106.75121,32.31321],[-106.75487,32.31213],[-106.75293,32.3086],[-106.75051,32.30566],[-106.74996,32.30364],[-106.74624,32.30444],[-106.74532,32.3013],[-106.74546,32.30077],[-106.74507,32.30041],[-106.74445,32.29832],[-106.75978,32.29496],[-106.76243,32.29477],[-106.76493,32.2943],[-106.77295,32.29198],[-106.77665,32.28966],[-106.78063,32.28892],[-106.78177,32.2885],[-106.78208,32.28857],[-106.78246,32.28901],[-106.78576,32.29353],[-106.78124,32.29645],[-106.78006,32.29695],[-106.77998,32.2977],[-106.77951,32.29858],[-106.78106,32.30054],[-106.78392,32.30581],[-106.78286,32.30607],[-106.78229,32.30601],[-106.78106,32.30568],[-106.7803,32.3057],[-106.78021,32.30554],[-106.78049,32.30538]],"type":"LineString"},"properties":{"color":"#227C22","color_name":"green","kind":"route","label":"Route 7","long":"Route 7","route_id":"5590","text_color":"#FFFFFF","type_label":"Bus"},"type":"Feature"},{"geometry":{"coordinates":[[-106.7805,32.30539],[-106.78125,32.3053],[-106.78153,32.30578],[-106.7803,32.3057],[-106.75964,32.30997],[-106.7578,32.31052],[-106.75398,32.31235],[-106.74665,32.31396],[-106.74471,32.31495],[-106.74441,32.31489],[-106.74254,32.3133],[-106.74195,32.31252],[-106.74241,32.31235],[-106.74269,32.31307],[-106.7433,32.31364],[-106.74372,32.31388],[-106.74433,32.31387],[-106.74538,32.31281],[-106.74579,32.31139],[-106.7455,32.3102],[-106.74462,32.31059],[-106.74467,32.31075],[-106.74477,32.31087],[-106.74559,32.31048],[-106.74467,32.3076],[-106.74419,32.30714],[-106.74432,32.30667],[-106.74172,32.29888],[-106.74298,32.29863],[-106.73997,32.28931],[-106.73992,32.28832],[-106.74019,32.2874],[-106.74086,32.28695],[-106.74181,32.2867],[-106.7432,32.28681],[-106.74341,32.2866],[-106.74344,32.28615],[-106.74643,32.28608],[-106.75277,32.28474],[-106.75335,32.2869],[-106.76222,32.29933],[-106.76547,32.31008],[-106.76495,32.31262],[-106.76559,32.31443],[-106.77775,32.32638],[-106.77972,32.32875],[-106.78089,32.32846],[-106.78164,32.33021],[-106.7814,32.33049],[-106.77775,32.32638],[-106.77432,32.32289],[-106.76573,32.31461],[-106.76495,32.31262],[-106.76548,32.31063],[-106.76538,32.30974],[-106.77926,32.30677],[-106.7807,32.30662],[-106.78021,32.30554],[-106.7805,32.30539]],"type":"LineString"},"properties":{"color":"#969696","color_name":"gray","kind":"route","label":"Route 8","long":"Route 8","route_id":"5591","text_color":"#FFFFFF","type_label":"Bus"},"type":"Feature"},{"geometry":{"coordinates":[-106.80557,32.3088],"type":"Point"},"properties":{"kind":"stop","name":"17th St. & Hadley","stop_id":"152951"},"type":"Feature"},{"geometry":{"coordinates":[-106.7824,32.31302],"type":"Point"},"properties":{"kind":"stop","name":"Alameda @ St. Andrew's Church","stop_id":"152952"},"type":"Feature"},{"geometry":{"coordinates":[-106.79115,32.30419],"type":"Point"},"properties":{"kind":"stop","name":"Amador & Gospel Rescue Mission","stop_id":"152953"},"type":"Feature"},{"geometry":{"coordinates":[-106.7668,32.30956],"type":"Point"},"properties":{"kind":"stop","name":"Amador & Chaparro","stop_id":"152954"},"type":"Feature"},{"geometry":{"coordinates":[-106.7771,32.30742],"type":"Point"},"properties":{"kind":"stop","name":"Amador & Main St.","stop_id":"152955"},"type":"Feature"},{"geometry":{"coordinates":[-106.7915,32.30391],"type":"Point"},"properties":{"kind":"stop","name":"Amador & McSwain","stop_id":"152956"},"type":"Feature"},{"geometry":{"coordinates":[-106.7849,32.3057],"type":"Point"},"properties":{"kind":"stop","name":"Amador & Mesilla","stop_id":"152957"},"type":"Feature"},{"geometry":{"coordinates":[-106.7727,32.3083],"type":"Point"},"properties":{"kind":"stop","name":"Amador & Tornillo","stop_id":"152958"},"type":"Feature"},{"geometry":{"coordinates":[-106.7958,32.28084],"type":"Point"},"properties":{"kind":"stop","name":"Avenida De Mesilla & Calle de Mercado","stop_id":"152959"},"type":"Feature"},{"geometry":{"coordinates":[-106.7941,32.28503],"type":"Point"},"properties":{"kind":"stop","name":"Avenida De Mesilla @ United Rentals","stop_id":"152960"},"type":"Feature"},{"geometry":{"coordinates":[-106.7962,32.27907],"type":"Point"},"properties":{"kind":"stop","name":"Avenida de Mesilla & Calle de El Paso","stop_id":"152961"},"type":"Feature"},{"geometry":{"coordinates":[-106.784,32.29485],"type":"Point"},"properties":{"kind":"stop","name":"Avenida de Mesilla & Roberts","stop_id":"152962"},"type":"Feature"},{"geometry":{"coordinates":[-106.7889,32.29165],"type":"Point"},"properties":{"kind":"stop","name":"Avenida de Mesilla @ Applebees","stop_id":"152963"},"type":"Feature"},{"geometry":{"coordinates":[-106.78176,32.29599],"type":"Point"},"properties":{"kind":"stop","name":"Avenida de Mesilla @ Barker Rd.","stop_id":"152964"},"type":"Feature"},{"geometry":{"coordinates":[-106.7847,32.29414],"type":"Point"},"properties":{"kind":"stop","name":"Avenida de Mesilla @ Domino's","stop_id":"152965"},"type":"Feature"},{"geometry":{"coordinates":[-106.7929,32.28693],"type":"Point"},"properties":{"kind":"stop","name":"Avenida de Mesilla @ Gadsden Plaza","stop_id":"152966"},"type":"Feature"},{"geometry":{"coordinates":[-106.7941,32.27534],"type":"Point"},"properties":{"kind":"stop","name":"Avenida de Mesilla @ Rio Grande Prep","stop_id":"152967"},"type":"Feature"},{"geometry":{"coordinates":[-106.7956,32.28272],"type":"Point"},"properties":{"kind":"stop","name":"Avenida de Mesilla @ Tierra Verde","stop_id":"152968"},"type":"Feature"},{"geometry":{"coordinates":[-106.7948,32.27581],"type":"Point"},"properties":{"kind":"stop","name":"Aveniida de Mesilla & Calle de Santiago","stop_id":"152969"},"type":"Feature"},{"geometry":{"coordinates":[-106.7168,32.38396],"type":"Point"},"properties":{"kind":"stop","name":"Bataan East & Mesa Grande","stop_id":"152970"},"type":"Feature"},{"geometry":{"coordinates":[-106.7085,32.38715],"type":"Point"},"properties":{"kind":"stop","name":"Bataan East @ Big Daddy's Flea Market","stop_id":"152971"},"type":"Feature"},{"geometry":{"coordinates":[-106.7026,32.38913],"type":"Point"},"properties":{"kind":"stop","name":"Bataan East & Porter","stop_id":"152972"},"type":"Feature"},{"geometry":{"coordinates":[-106.7298,32.3802],"type":"Point"},"properties":{"kind":"stop","name":"Bataan West & Jornada","stop_id":"152973"},"type":"Feature"},{"geometry":{"coordinates":[-106.718,32.38457],"type":"Point"},"properties":{"kind":"stop","name":"Bataan West & Mesa Grande","stop_id":"152974"},"type":"Feature"},{"geometry":{"coordinates":[-106.7093,32.38741],"type":"Point"},"properties":{"kind":"stop","name":"Bataan West & Mesa Road","stop_id":"152975"},"type":"Feature"},{"geometry":{"coordinates":[-106.7011,32.39043],"type":"Point"},"properties":{"kind":"stop","name":"Bataan West & Porter","stop_id":"152976"},"type":"Feature"},{"geometry":{"coordinates":[-106.7391,32.37364],"type":"Point"},"properties":{"kind":"stop","name":"Bataan West & Sonoma Ranch @ North American Moving & Storage","stop_id":"152977"},"type":"Feature"},{"geometry":{"coordinates":[-106.7744,32.29118],"type":"Point"},"properties":{"kind":"stop","name":"Boutz & Calle de Ninos","stop_id":"152978"},"type":"Feature"},{"geometry":{"coordinates":[-106.7786,32.28939],"type":"Point"},"properties":{"kind":"stop","name":"Boutz @ Borman Autoplex","stop_id":"152979"},"type":"Feature"},{"geometry":{"coordinates":[-106.7748,32.29068],"type":"Point"},"properties":{"kind":"stop","name":"Boutz @ Nissan of Las Cruces","stop_id":"152980"},"type":"Feature"},{"geometry":{"coordinates":[-106.7693,32.29298],"type":"Point"},"properties":{"kind":"stop","name":"Boutz @ Las Cruces High School","stop_id":"152981"},"type":"Feature"},{"geometry":{"coordinates":[-106.7789,32.2891],"type":"Point"},"properties":{"kind":"stop","name":"Boutz across from Borman Honda","stop_id":"152982"},"type":"Feature"},{"geometry":{"coordinates":[-106.7685,32.29341],"type":"Point"},"properties":{"kind":"stop","name":"Boutz across from Las Cruces High School","stop_id":"152983"},"type":"Feature"},{"geometry":{"coordinates":[-106.7371,32.35518],"type":"Point"},"properties":{"kind":"stop","name":"Calle Jitas @ DACC (M-F)","stop_id":"152984"},"type":"Feature"},{"geometry":{"coordinates":[-106.7743,32.30238],"type":"Point"},"properties":{"kind":"stop","name":"Campo & Arizona","stop_id":"152985"},"type":"Feature"},{"geometry":{"coordinates":[-106.7755,32.30621],"type":"Point"},"properties":{"kind":"stop","name":"Campo & Lohman OB","stop_id":"152986"},"type":"Feature"},{"geometry":{"coordinates":[-106.778,32.311],"type":"Point"},"properties":{"kind":"stop","name":"Church St. & Las Cruces","stop_id":"152987"},"type":"Feature"},{"geometry":{"coordinates":[-106.7782,32.31266],"type":"Point"},"properties":{"kind":"stop","name":"Church St. @ Post Office","stop_id":"152988"},"type":"Feature"},{"geometry":{"coordinates":[-106.8045,32.30473],"type":"Point"},"properties":{"kind":"stop","name":"Copper Loop @ Tresco","stop_id":"152989"},"type":"Feature"},{"geometry":{"coordinates":[-106.7813,32.36998],"type":"Point"},"properties":{"kind":"stop","name":"Del Rey & Engler","stop_id":"152990"},"type":"Feature"},{"geometry":{"coordinates":[-106.7692,32.35531],"type":"Point"},"properties":{"kind":"stop","name":"Del Rey & Mars (VA Clinic)","stop_id":"152991"},"type":"Feature"},{"geometry":{"coordinates":[-106.7713,32.35719],"type":"Point"},"properties":{"kind":"stop","name":"Del Rey & Mesilla Valley Hospital","stop_id":"152992"},"type":"Feature"},{"geometry":{"coordinates":[-106.766,32.3525],"type":"Point"},"properties":{"kind":"stop","name":"Del Rey & Plaza del Rey (Ashley Furn.)","stop_id":"152993"},"type":"Feature"},{"geometry":{"coordinates":[-106.775,32.35965],"type":"Point"},"properties":{"kind":"stop","name":"Del Rey & Settlers Bend","stop_id":"152994"},"type":"Feature"},{"geometry":{"coordinates":[-106.7779,32.3639],"type":"Point"},"properties":{"kind":"stop","name":"Del Rey South past Parkhill","stop_id":"152995"},"type":"Feature"},{"geometry":{"coordinates":[-106.7527,32.31427],"type":"Point"},"properties":{"kind":"stop","name":"Divot across from Walmart","stop_id":"152996"},"type":"Feature"},{"geometry":{"coordinates":[-106.7438,32.30471],"type":"Point"},"properties":{"kind":"stop","name":"Don Roser & Idaho","stop_id":"152997"},"type":"Feature"},{"geometry":{"coordinates":[-106.7421,32.29995],"type":"Point"},"properties":{"kind":"stop","name":"Don Roser & Missouri","stop_id":"152998"},"type":"Feature"},{"geometry":{"coordinates":[-106.772,32.29808],"type":"Point"},"properties":{"kind":"stop","name":"El Paseo @ Albertson's","stop_id":"152999"},"type":"Feature"},{"geometry":{"coordinates":[-106.7696,32.29556],"type":"Point"},"properties":{"kind":"stop","name":"El Paseo @ O'Reilly Auto","stop_id":"153000"},"type":"Feature"},{"geometry":{"coordinates":[-106.7727,32.29832],"type":"Point"},"properties":{"kind":"stop","name":"El Paseo @ Walgreens","stop_id":"153001"},"type":"Feature"},{"geometry":{"coordinates":[-106.7683,32.2947],"type":"Point"},"properties":{"kind":"stop","name":"El Paseo@Sonic","stop_id":"153002"},"type":"Feature"},{"geometry":{"coordinates":[-106.7846,32.36191],"type":"Point"},"properties":{"kind":"stop","name":"Elks & Chinook","stop_id":"153003"},"type":"Feature"},{"geometry":{"coordinates":[-106.778,32.34599],"type":"Point"},"properties":{"kind":"stop","name":"Elks & Ellendale","stop_id":"153004"},"type":"Feature"},{"geometry":{"coordinates":[-106.7805,32.35031],"type":"Point"},"properties":{"kind":"stop","name":"Elks & Heather Circle","stop_id":"153005"},"type":"Feature"},{"geometry":{"coordinates":[-106.7824,32.35377],"type":"Point"},"properties":{"kind":"stop","name":"Elks & Lantana","stop_id":"153006"},"type":"Feature"},{"geometry":{"coordinates":[-106.7755,32.34255],"type":"Point"},"properties":{"kind":"stop","name":"Elks & Lenox","stop_id":"153007"},"type":"Feature"},{"geometry":{"coordinates":[-106.7829,32.35815],"type":"Point"},"properties":{"kind":"stop","name":"Elks & Rio Bravo","stop_id":"153008"},"type":"Feature"},{"geometry":{"coordinates":[-106.787,32.36656],"type":"Point"},"properties":{"kind":"stop","name":"Engler & Elks","stop_id":"153009"},"type":"Feature"},{"geometry":{"coordinates":[-106.759,32.2884],"type":"Point"},"properties":{"kind":"stop","name":"Espina & Milton","stop_id":"153010"},"type":"Feature"},{"geometry":{"coordinates":[-106.7621,32.29383],"type":"Point"},"properties":{"kind":"stop","name":"Espina & Missouri","stop_id":"153011"},"type":"Feature"},{"geometry":{"coordinates":[-106.7579,32.28671],"type":"Point"},"properties":{"kind":"stop","name":"Espina & Monte Vista","stop_id":"153012"},"type":"Feature"},{"geometry":{"coordinates":[-106.7616,32.29281],"type":"Point"},"properties":{"kind":"stop","name":"Espina & Parkview","stop_id":"153013"},"type":"Feature"},{"geometry":{"coordinates":[-106.7577,32.286],"type":"Point"},"properties":{"kind":"stop","name":"Espina & Plain","stop_id":"153014"},"type":"Feature"},{"geometry":{"coordinates":[-106.7603,32.29062],"type":"Point"},"properties":{"kind":"stop","name":"Espina @ Boba Cafe","stop_id":"153015"},"type":"Feature"},{"geometry":{"coordinates":[-106.7603,32.2908],"type":"Point"},"properties":{"kind":"stop","name":"Espina across from Boba Cafe","stop_id":"153016"},"type":"Feature"},{"geometry":{"coordinates":[-106.7655,32.33192],"type":"Point"},"properties":{"kind":"stop","name":"Evelyn & June","stop_id":"153017"},"type":"Feature"},{"geometry":{"coordinates":[-106.7629,32.32787],"type":"Point"},"properties":{"kind":"stop","name":"Evelyn & Juniper","stop_id":"153018"},"type":"Feature"},{"geometry":{"coordinates":[-106.7632,32.32864],"type":"Point"},"properties":{"kind":"stop","name":"Evelyn & Louise","stop_id":"153019"},"type":"Feature"},{"geometry":{"coordinates":[-106.7668,32.33292],"type":"Point"},"properties":{"kind":"stop","name":"Evelyn & Madrid","stop_id":"153020"},"type":"Feature"},{"geometry":{"coordinates":[-106.7376,32.31576],"type":"Point"},"properties":{"kind":"stop","name":"Foothills & Horizon View","stop_id":"153021"},"type":"Feature"},{"geometry":{"coordinates":[-106.7397,32.31374],"type":"Point"},"properties":{"kind":"stop","name":"Foothills & Hotel Encanto","stop_id":"153022"},"type":"Feature"},{"geometry":{"coordinates":[-106.813,32.30415],"type":"Point"},"properties":{"kind":"stop","name":"Hadley & Motel","stop_id":"153023"},"type":"Feature"},{"geometry":{"coordinates":[-106.79591,32.3265],"type":"Point"},"properties":{"kind":"stop","name":"Hoagland & Carlyle IB","stop_id":"153024"},"type":"Feature"},{"geometry":{"coordinates":[-106.7904,32.3278],"type":"Point"},"properties":{"kind":"stop","name":"Hoagland & Del Mar","stop_id":"153025"},"type":"Feature"},{"geometry":{"coordinates":[-106.8003,32.32493],"type":"Point"},"properties":{"kind":"stop","name":"Hoagland & Embassy","stop_id":"153026"},"type":"Feature"},{"geometry":{"coordinates":[-106.8014,32.32436],"type":"Point"},"properties":{"kind":"stop","name":"Hoagland @ Mayfield High School","stop_id":"153027"},"type":"Feature"},{"geometry":{"coordinates":[-106.7906,32.32785],"type":"Point"},"properties":{"kind":"stop","name":"Hoagland before Rose","stop_id":"153028"},"type":"Feature"},{"geometry":{"coordinates":[-106.7464,32.30434],"type":"Point"},"properties":{"kind":"stop","name":"Idaho & La Fonda","stop_id":"153029"},"type":"Feature"},{"geometry":{"coordinates":[-106.7465,32.30444],"type":"Point"},"properties":{"kind":"stop","name":"Idaho & Stull","stop_id":"153030"},"type":"Feature"},{"geometry":{"coordinates":[-106.74465,32.29924],"type":"Point"},"properties":{"kind":"stop","name":"La Fonda & Missouri OB","stop_id":"153031"},"type":"Feature"},{"geometry":{"coordinates":[-106.7279,32.32306],"type":"Point"},"properties":{"kind":"stop","name":"Lohman & Mountain View Hospital (M-F)","stop_id":"153032"},"type":"Feature"},{"geometry":{"coordinates":[-106.77,32.30766],"type":"Point"},"properties":{"kind":"stop","name":"Lohman & Esperanza","stop_id":"153033"},"type":"Feature"},{"geometry":{"coordinates":[-106.7613,32.30951],"type":"Point"},"properties":{"kind":"stop","name":"Lohman & Olive","stop_id":"153034"},"type":"Feature"},{"geometry":{"coordinates":[-106.7324,32.32034],"type":"Point"},"properties":{"kind":"stop","name":"Lohman & Roadrunner","stop_id":"153035"},"type":"Feature"},{"geometry":{"coordinates":[-106.7566,32.31107],"type":"Point"},"properties":{"kind":"stop","name":"Lohman @ Bright Star Dental","stop_id":"153036"},"type":"Feature"},{"geometry":{"coordinates":[-106.7359,32.31888],"type":"Point"},"properties":{"kind":"stop","name":"Lohman @ Dunkin Donuts","stop_id":"153037"},"type":"Feature"},{"geometry":{"coordinates":[-106.7353,32.31875],"type":"Point"},"properties":{"kind":"stop","name":"Lohman @ Kelly Liquors (M-F)","stop_id":"153038"},"type":"Feature"},{"geometry":{"coordinates":[-106.7355,32.31868],"type":"Point"},"properties":{"kind":"stop","name":"Lohman @ Kelly's Liquor","stop_id":"153039"},"type":"Feature"},{"geometry":{"coordinates":[-106.7504,32.31315],"type":"Point"},"properties":{"kind":"stop","name":"Lohman @ McDonalds","stop_id":"153040"},"type":"Feature"},{"geometry":{"coordinates":[-106.7738,32.3069],"type":"Point"},"properties":{"kind":"stop","name":"Lohman @ Mesquite","stop_id":"153041"},"type":"Feature"},{"geometry":{"coordinates":[-106.7279,32.32255],"type":"Point"},"properties":{"kind":"stop","name":"Lohman across from Mtn View Hospital (M-F)","stop_id":"153042"},"type":"Feature"},{"geometry":{"coordinates":[-106.7402,32.31706],"type":"Point"},"properties":{"kind":"stop","name":"Lohman West across from Ross/Marshalls","stop_id":"153043"},"type":"Feature"},{"geometry":{"coordinates":[-106.7663,32.30843],"type":"Point"},"properties":{"kind":"stop","name":"Lohman at Chaparro","stop_id":"153044"},"type":"Feature"},{"geometry":{"coordinates":[-106.7324,32.32033],"type":"Point"},"properties":{"kind":"stop","name":"Lohman West & Roadrunner (M-F)","stop_id":"153045"},"type":"Feature"},{"geometry":{"coordinates":[-106.736,32.31889],"type":"Point"},"properties":{"kind":"stop","name":"Lohman West @ Dunkin Donuts (M-F)","stop_id":"153046"},"type":"Feature"},{"geometry":{"coordinates":[-106.7403,32.31706],"type":"Point"},"properties":{"kind":"stop","name":"Lohman across from Ross/Marshalls","stop_id":"153047"},"type":"Feature"},{"geometry":{"coordinates":[-106.78703,32.32691],"type":"Point"},"properties":{"kind":"stop","name":"Madrid & Alameda IB","stop_id":"153048"},"type":"Feature"},{"geometry":{"coordinates":[-106.77745,32.32852],"type":"Point"},"properties":{"kind":"stop","name":"Madrid & Apodaca Park","stop_id":"153049"},"type":"Feature"},{"geometry":{"coordinates":[-106.77181,32.33093],"type":"Point"},"properties":{"kind":"stop","name":"Madrid & Desert","stop_id":"153050"},"type":"Feature"},{"geometry":{"coordinates":[-106.7751,32.32933],"type":"Point"},"properties":{"kind":"stop","name":"Madrid & Sexton","stop_id":"153051"},"type":"Feature"},{"geometry":{"coordinates":[-106.7818,32.32833],"type":"Point"},"properties":{"kind":"stop","name":"Madrid & Solano across from Fiesta Foods","stop_id":"153052"},"type":"Feature"},{"geometry":{"coordinates":[-106.771,32.3311],"type":"Point"},"properties":{"kind":"stop","name":"Madrid @ Alta Tierra Apts.","stop_id":"153053"},"type":"Feature"},{"geometry":{"coordinates":[-106.7822,32.32805],"type":"Point"},"properties":{"kind":"stop","name":"Madrid @ Fiesta Foods","stop_id":"153054"},"type":"Feature"},{"geometry":{"coordinates":[-106.7777,32.3282],"type":"Point"},"properties":{"kind":"stop","name":"Madrid across from Apodaca Park","stop_id":"153055"},"type":"Feature"},{"geometry":{"coordinates":[-106.7782,32.30193],"type":"Point"},"properties":{"kind":"stop","name":"Main & Brown","stop_id":"153056"},"type":"Feature"},{"geometry":{"coordinates":[-106.768,32.27738],"type":"Point"},"properties":{"kind":"stop","name":"Main & Conway","stop_id":"153057"},"type":"Feature"},{"geometry":{"coordinates":[-106.7803,32.29794],"type":"Point"},"properties":{"kind":"stop","name":"Main @ Pueblo Plaza","stop_id":"153058"},"type":"Feature"},{"geometry":{"coordinates":[-106.7803,32.33504],"type":"Point"},"properties":{"kind":"stop","name":"Main St @ Dairy Queen","stop_id":"153059"},"type":"Feature"},{"geometry":{"coordinates":[-106.7811,32.31901],"type":"Point"},"properties":{"kind":"stop","name":"Main St. & Fleming","stop_id":"153060"},"type":"Feature"},{"geometry":{"coordinates":[-106.7822,32.32303],"type":"Point"},"properties":{"kind":"stop","name":"Main St. & Gallagher","stop_id":"153061"},"type":"Feature"},{"geometry":{"coordinates":[-106.7811,32.31812],"type":"Point"},"properties":{"kind":"stop","name":"Main St. & Greening","stop_id":"153062"},"type":"Feature"},{"geometry":{"coordinates":[-106.7834,32.33007],"type":"Point"},"properties":{"kind":"stop","name":"Main St. @ Century 21 Motel (Northbound)","stop_id":"153063"},"type":"Feature"},{"geometry":{"coordinates":[-106.78,32.31521],"type":"Point"},"properties":{"kind":"stop","name":"Main St. @ City Hall","stop_id":"153064"},"type":"Feature"},{"geometry":{"coordinates":[-106.782,32.32138],"type":"Point"},"properties":{"kind":"stop","name":"Main St. @ Coronado Plaza","stop_id":"153065"},"type":"Feature"},{"geometry":{"coordinates":[-106.7832,32.32693],"type":"Point"},"properties":{"kind":"stop","name":"Main St. @ Madrid (Fiesta Foods)","stop_id":"153066"},"type":"Feature"},{"geometry":{"coordinates":[-106.7838,32.32975],"type":"Point"},"properties":{"kind":"stop","name":"Main St. @ O'Reilly Auto","stop_id":"153067"},"type":"Feature"},{"geometry":{"coordinates":[-106.7762,32.34044],"type":"Point"},"properties":{"kind":"stop","name":"Main St. @ Sonic","stop_id":"153068"},"type":"Feature"},{"geometry":{"coordinates":[-106.7804,32.33432],"type":"Point"},"properties":{"kind":"stop","name":"Main St. across from Taco Bell","stop_id":"153069"},"type":"Feature"},{"geometry":{"coordinates":[-106.7832,32.32589],"type":"Point"},"properties":{"kind":"stop","name":"Main St. across from Viva Kia","stop_id":"153070"},"type":"Feature"},{"geometry":{"coordinates":[-106.7756,32.34069],"type":"Point"},"properties":{"kind":"stop","name":"Main St. NE @ Coldwell Banker","stop_id":"153071"},"type":"Feature"},{"geometry":{"coordinates":[-106.7826,32.30346],"type":"Point"},"properties":{"kind":"stop","name":"Melendres & El Molino","stop_id":"153072"},"type":"Feature"},{"geometry":{"coordinates":[-106.7798,32.2991],"type":"Point"},"properties":{"kind":"stop","name":"Melendres & Main St.","stop_id":"153073"},"type":"Feature"},{"geometry":{"coordinates":[-106.785,32.30758],"type":"Point"},"properties":{"kind":"stop","name":"Melendres & May","stop_id":"153074"},"type":"Feature"},{"geometry":{"coordinates":[-106.74538,32.31066],"type":"Point"},"properties":{"kind":"stop","name":"Mesilla Valley Mall (connects w/Route 3)","stop_id":"153075"},"type":"Feature"},{"geometry":{"coordinates":[-106.7809,32.3288],"type":"Point"},"properties":{"kind":"stop","name":"Mesquite & Madrid","stop_id":"153076"},"type":"Feature"},{"geometry":{"coordinates":[-106.7609,32.29475],"type":"Point"},"properties":{"kind":"stop","name":"Missouri & Alamo","stop_id":"153077"},"type":"Feature"},{"geometry":{"coordinates":[-106.76,32.29503],"type":"Point"},"properties":{"kind":"stop","name":"Missouri & Chaparro","stop_id":"153078"},"type":"Feature"},{"geometry":{"coordinates":[-106.7642,32.2946],"type":"Point"},"properties":{"kind":"stop","name":"Missouri & Espina","stop_id":"153079"},"type":"Feature"},{"geometry":{"coordinates":[-106.7556,32.29607],"type":"Point"},"properties":{"kind":"stop","name":"Missouri & Locust","stop_id":"153080"},"type":"Feature"},{"geometry":{"coordinates":[-106.751,32.29704],"type":"Point"},"properties":{"kind":"stop","name":"Missouri @ Conlee Elementary","stop_id":"153081"},"type":"Feature"},{"geometry":{"coordinates":[-106.7475,32.29778],"type":"Point"},"properties":{"kind":"stop","name":"Missouri @ Pizza Hut","stop_id":"153082"},"type":"Feature"},{"geometry":{"coordinates":[-106.7577,32.29542],"type":"Point"},"properties":{"kind":"stop","name":"Missouri @ Solano Square","stop_id":"153083"},"type":"Feature"},{"geometry":{"coordinates":[-106.7517,32.29671],"type":"Point"},"properties":{"kind":"stop","name":"Missouri across from Conlee Elementary","stop_id":"153084"},"type":"Feature"},{"geometry":{"coordinates":[-106.7659,32.29386],"type":"Point"},"properties":{"kind":"stop","name":"Missouri across from Wok-N-World","stop_id":"153085"},"type":"Feature"},{"geometry":{"coordinates":[-106.7642,32.2946],"type":"Point"},"properties":{"kind":"stop","name":"Missouri before Durazno","stop_id":"153086"},"type":"Feature"},{"geometry":{"coordinates":[-106.8156,32.31005],"type":"Point"},"properties":{"kind":"stop","name":"Motel & Picacho Plaza","stop_id":"153087"},"type":"Feature"},{"geometry":{"coordinates":[-106.8146,32.3063],"type":"Point"},"properties":{"kind":"stop","name":"Motel @ Government Complex","stop_id":"153088"},"type":"Feature"},{"geometry":{"coordinates":[-106.78118,32.30536],"type":"Point"},"properties":{"kind":"stop","name":"MVITT","stop_id":"153089"},"type":"Feature"},{"geometry":{"coordinates":[-106.7805,32.30539],"type":"Point"},"properties":{"kind":"stop","name":"MVITT (OUTBOUND)","stop_id":"153090"},"type":"Feature"},{"geometry":{"coordinates":[-106.74537,32.31065],"type":"Point"},"properties":{"kind":"stop","name":"Mesilla Valley Mall","stop_id":"153091"},"type":"Feature"},{"geometry":{"coordinates":[-106.7452,32.3107],"type":"Point"},"properties":{"kind":"stop","name":"MVM (OUTBOUND)","stop_id":"153092"},"type":"Feature"},{"geometry":{"coordinates":[-106.80606,32.31166],"type":"Point"},"properties":{"kind":"stop","name":"Picacho & 17th St. IB","stop_id":"153093"},"type":"Feature"},{"geometry":{"coordinates":[-106.7952,32.31345],"type":"Point"},"properties":{"kind":"stop","name":"Picacho & 5th St","stop_id":"153094"},"type":"Feature"},{"geometry":{"coordinates":[-106.7897,32.3149],"type":"Point"},"properties":{"kind":"stop","name":"Picacho & Mesilla","stop_id":"153095"},"type":"Feature"},{"geometry":{"coordinates":[-106.7855,32.31594],"type":"Point"},"properties":{"kind":"stop","name":"Picacho & Reymond","stop_id":"153096"},"type":"Feature"},{"geometry":{"coordinates":[-106.796,32.31344],"type":"Point"},"properties":{"kind":"stop","name":"Picacho & Valley","stop_id":"153097"},"type":"Feature"},{"geometry":{"coordinates":[-106.8013,32.31216],"type":"Point"},"properties":{"kind":"stop","name":"Picacho @ ABC Paint","stop_id":"153098"},"type":"Feature"},{"geometry":{"coordinates":[-106.8004,32.31213],"type":"Point"},"properties":{"kind":"stop","name":"Picacho @ Diersen Charities","stop_id":"153099"},"type":"Feature"},{"geometry":{"coordinates":[-106.7889,32.31491],"type":"Point"},"properties":{"kind":"stop","name":"Picacho @ Lions Park","stop_id":"153100"},"type":"Feature"},{"geometry":{"coordinates":[-106.81,32.3111],"type":"Point"},"properties":{"kind":"stop","name":"Picacho @ Peddlers Pavillion","stop_id":"153101"},"type":"Feature"},{"geometry":{"coordinates":[-106.7414,32.35882],"type":"Point"},"properties":{"kind":"stop","name":"Rinconada & Sonoma Ranch","stop_id":"153102"},"type":"Feature"},{"geometry":{"coordinates":[-106.7464,32.36195],"type":"Point"},"properties":{"kind":"stop","name":"Rinconada @ Walmart","stop_id":"153103"},"type":"Feature"},{"geometry":{"coordinates":[-106.7458,32.36222],"type":"Point"},"properties":{"kind":"stop","name":"Rinconada across from Walmart","stop_id":"153104"},"type":"Feature"},{"geometry":{"coordinates":[-106.7516,32.33784],"type":"Point"},"properties":{"kind":"stop","name":"Roadrunner & Calais","stop_id":"153105"},"type":"Feature"},{"geometry":{"coordinates":[-106.7341,32.32372],"type":"Point"},"properties":{"kind":"stop","name":"Roadrunner & Camino Coyote","stop_id":"153106"},"type":"Feature"},{"geometry":{"coordinates":[-106.7526,32.34679],"type":"Point"},"properties":{"kind":"stop","name":"Roadrunner & Coventry","stop_id":"153107"},"type":"Feature"},{"geometry":{"coordinates":[-106.7339,32.32316],"type":"Point"},"properties":{"kind":"stop","name":"Roadrunner & Foothills/Caliches","stop_id":"153108"},"type":"Feature"},{"geometry":{"coordinates":[-106.7504,32.35098],"type":"Point"},"properties":{"kind":"stop","name":"Roadrunner & Morning Star","stop_id":"153109"},"type":"Feature"},{"geometry":{"coordinates":[-106.75429,32.35544],"type":"Point"},"properties":{"kind":"stop","name":"Roadrunner & Northrise OB","stop_id":"153110"},"type":"Feature"},{"geometry":{"coordinates":[-106.7515,32.34711],"type":"Point"},"properties":{"kind":"stop","name":"Roadrunner & Rolling Hills","stop_id":"153111"},"type":"Feature"},{"geometry":{"coordinates":[-106.7465,32.33092],"type":"Point"},"properties":{"kind":"stop","name":"Roadrunner & Stagecoach","stop_id":"153112"},"type":"Feature"},{"geometry":{"coordinates":[-106.7508,32.35201],"type":"Point"},"properties":{"kind":"stop","name":"Roadrunner @ Camino Real Middle School","stop_id":"153113"},"type":"Feature"},{"geometry":{"coordinates":[-106.7383,32.32777],"type":"Point"},"properties":{"kind":"stop","name":"Roadrunner @ Desert Hills Elementary","stop_id":"153114"},"type":"Feature"},{"geometry":{"coordinates":[-106.7364,32.32556],"type":"Point"},"properties":{"kind":"stop","name":"Roadrunner @ Solstice Senior Living","stop_id":"153115"},"type":"Feature"},{"geometry":{"coordinates":[-106.7502,32.3354],"type":"Point"},"properties":{"kind":"stop","name":"Roadrunner @ Veterans Park","stop_id":"153116"},"type":"Feature"},{"geometry":{"coordinates":[-106.7545,32.34211],"type":"Point"},"properties":{"kind":"stop","name":"Roadrunner across Copperstone Apts","stop_id":"153117"},"type":"Feature"},{"geometry":{"coordinates":[-106.7521,32.35312],"type":"Point"},"properties":{"kind":"stop","name":"Roadrunner across Cuestas Apts.","stop_id":"153118"},"type":"Feature"},{"geometry":{"coordinates":[-106.7497,32.33525],"type":"Point"},"properties":{"kind":"stop","name":"Roadrunner across Veterans Park","stop_id":"153119"},"type":"Feature"},{"geometry":{"coordinates":[-106.754,32.341],"type":"Point"},"properties":{"kind":"stop","name":"Roarunner @ Copperstone Apts","stop_id":"153120"},"type":"Feature"},{"geometry":{"coordinates":[-106.7394,32.32847],"type":"Point"},"properties":{"kind":"stop","name":"Roadrunner & Golf Club","stop_id":"153121"},"type":"Feature"},{"geometry":{"coordinates":[-106.7655,32.31104],"type":"Point"},"properties":{"kind":"stop","name":"Solano & Bowman","stop_id":"153122"},"type":"Feature"},{"geometry":{"coordinates":[-106.7627,32.30096],"type":"Point"},"properties":{"kind":"stop","name":"Solano & California","stop_id":"153123"},"type":"Feature"},{"geometry":{"coordinates":[-106.767,32.31569],"type":"Point"},"properties":{"kind":"stop","name":"Solano & Court","stop_id":"153124"},"type":"Feature"},{"geometry":{"coordinates":[-106.7678,32.31685],"type":"Point"},"properties":{"kind":"stop","name":"Solano & Hadley (LC Aquatic Center)","stop_id":"153125"},"type":"Feature"},{"geometry":{"coordinates":[-106.7739,32.32281],"type":"Point"},"properties":{"kind":"stop","name":"Solano & Juniper (Family Dollar)","stop_id":"153126"},"type":"Feature"},{"geometry":{"coordinates":[-106.7654,32.31061],"type":"Point"},"properties":{"kind":"stop","name":"Solano & Lohman","stop_id":"153127"},"type":"Feature"},{"geometry":{"coordinates":[-106.7779,32.32643],"type":"Point"},"properties":{"kind":"stop","name":"Solano & Madrid","stop_id":"153128"},"type":"Feature"},{"geometry":{"coordinates":[-106.7587,32.29456],"type":"Point"},"properties":{"kind":"stop","name":"Solano & Missouri (Fiesta Foods)","stop_id":"153129"},"type":"Feature"},{"geometry":{"coordinates":[-106.7607,32.29729],"type":"Point"},"properties":{"kind":"stop","name":"Solano & Montanas Charter School","stop_id":"153130"},"type":"Feature"},{"geometry":{"coordinates":[-106.7777,32.32647],"type":"Point"},"properties":{"kind":"stop","name":"Solano & Oasis","stop_id":"153131"},"type":"Feature"},{"geometry":{"coordinates":[-106.7555,32.29002],"type":"Point"},"properties":{"kind":"stop","name":"Solano & Panlener (Church of Christ)","stop_id":"153132"},"type":"Feature"},{"geometry":{"coordinates":[-106.7711,32.31979],"type":"Point"},"properties":{"kind":"stop","name":"Solano & Pinon","stop_id":"153133"},"type":"Feature"},{"geometry":{"coordinates":[-106.7708,32.31979],"type":"Point"},"properties":{"kind":"stop","name":"Solano & Spruce (Health Center)","stop_id":"153134"},"type":"Feature"},{"geometry":{"coordinates":[-106.7529,32.28569],"type":"Point"},"properties":{"kind":"stop","name":"Solano @ Newman Center","stop_id":"153135"},"type":"Feature"},{"geometry":{"coordinates":[-106.7743,32.32285],"type":"Point"},"properties":{"kind":"stop","name":"Solano @ Washington Elementary","stop_id":"153136"},"type":"Feature"},{"geometry":{"coordinates":[-106.764,32.30547],"type":"Point"},"properties":{"kind":"stop","name":"Solano past Colorado","stop_id":"153137"},"type":"Feature"},{"geometry":{"coordinates":[-106.7405,32.35287],"type":"Point"},"properties":{"kind":"stop","name":"Sonoma Ranch and Morning Star (M-F)","stop_id":"153138"},"type":"Feature"},{"geometry":{"coordinates":[-106.73445,32.3391],"type":"Point"},"properties":{"kind":"stop","name":"Sonoma Ranch & Rock Springs Rd (M-F) IB","stop_id":"153139"},"type":"Feature"},{"geometry":{"coordinates":[-106.7368,32.34766],"type":"Point"},"properties":{"kind":"stop","name":"Sonoma Ranch & Sedona Hills (M-F)","stop_id":"153140"},"type":"Feature"},{"geometry":{"coordinates":[-106.7343,32.34576],"type":"Point"},"properties":{"kind":"stop","name":"Sonoma Ranch & Sonora Springs (M-F)","stop_id":"153141"},"type":"Feature"},{"geometry":{"coordinates":[-106.7395,32.37161],"type":"Point"},"properties":{"kind":"stop","name":"Sonoma Ranch @ Baatan East","stop_id":"153142"},"type":"Feature"},{"geometry":{"coordinates":[-106.7265,32.33034],"type":"Point"},"properties":{"kind":"stop","name":"Sonoma Ranch @ Fire Station 8 (M-F)","stop_id":"153143"},"type":"Feature"},{"geometry":{"coordinates":[-106.7389,32.37012],"type":"Point"},"properties":{"kind":"stop","name":"Sonoma Ranch @ Fitness One","stop_id":"153144"},"type":"Feature"},{"geometry":{"coordinates":[-106.7226,32.32755],"type":"Point"},"properties":{"kind":"stop","name":"Sonoma Ranch @ Walmart (M-F)","stop_id":"153145"},"type":"Feature"},{"geometry":{"coordinates":[-106.7327,32.3343],"type":"Point"},"properties":{"kind":"stop","name":"Sonoma Ranch across from Bella Sierra (M-F)","stop_id":"153146"},"type":"Feature"},{"geometry":{"coordinates":[-106.7225,32.32707],"type":"Point"},"properties":{"kind":"stop","name":"Sonoma Ranch across from Walmart (M-F)","stop_id":"153147"},"type":"Feature"},{"geometry":{"coordinates":[-106.7284,32.33084],"type":"Point"},"properties":{"kind":"stop","name":"Sonoma Ranch past La Camelia (M-F)","stop_id":"153148"},"type":"Feature"},{"geometry":{"coordinates":[-106.73397,32.3388],"type":"Point"},"properties":{"kind":"stop","name":"Sonoma Ranch & Rock Springs Rd. (M-F) OB","stop_id":"153149"},"type":"Feature"},{"geometry":{"coordinates":[-106.7358,32.29468],"type":"Point"},"properties":{"kind":"stop","name":"Telshor & Buena Vida Court","stop_id":"153150"},"type":"Feature"},{"geometry":{"coordinates":[-106.7654,32.347],"type":"Point"},"properties":{"kind":"stop","name":"Telshor & Commerce (Starbucks)","stop_id":"153151"},"type":"Feature"},{"geometry":{"coordinates":[-106.7365,32.29845],"type":"Point"},"properties":{"kind":"stop","name":"Telshor & Fairway","stop_id":"153152"},"type":"Feature"},{"geometry":{"coordinates":[-106.7378,32.30415],"type":"Point"},"properties":{"kind":"stop","name":"Telshor & Hillrise","stop_id":"153153"},"type":"Feature"},{"geometry":{"coordinates":[-106.7368,32.30057],"type":"Point"},"properties":{"kind":"stop","name":"Telshor & Missouri","stop_id":"153154"},"type":"Feature"},{"geometry":{"coordinates":[-106.7556,32.32884],"type":"Point"},"properties":{"kind":"stop","name":"Telshor & Spruce","stop_id":"153155"},"type":"Feature"},{"geometry":{"coordinates":[-106.765,32.34238],"type":"Point"},"properties":{"kind":"stop","name":"Telshor & Summit Court (Social Security Admin.)","stop_id":"153156"},"type":"Feature"},{"geometry":{"coordinates":[-106.739,32.30686],"type":"Point"},"properties":{"kind":"stop","name":"Telshor @ Doral Court","stop_id":"153157"},"type":"Feature"},{"geometry":{"coordinates":[-106.7354,32.29423],"type":"Point"},"properties":{"kind":"stop","name":"Telshor @ Good Samaritan Society","stop_id":"153158"},"type":"Feature"},{"geometry":{"coordinates":[-106.7397,32.31373],"type":"Point"},"properties":{"kind":"stop","name":"Foothills @ Hotel Encanto","stop_id":"153159"},"type":"Feature"},{"geometry":{"coordinates":[-106.735,32.29161],"type":"Point"},"properties":{"kind":"stop","name":"Telshor @ Memorial Medical Center","stop_id":"153160"},"type":"Feature"},{"geometry":{"coordinates":[-106.7599,32.33505],"type":"Point"},"properties":{"kind":"stop","name":"Telshor @ Planet Fitness","stop_id":"153161"},"type":"Feature"},{"geometry":{"coordinates":[-106.7347,32.29185],"type":"Point"},"properties":{"kind":"stop","name":"Telshor @ SunView Imaging","stop_id":"153162"},"type":"Feature"},{"geometry":{"coordinates":[-106.7385,32.30655],"type":"Point"},"properties":{"kind":"stop","name":"Telshor @ Telshor Apartments","stop_id":"153163"},"type":"Feature"},{"geometry":{"coordinates":[-106.7409,32.31112],"type":"Point"},"properties":{"kind":"stop","name":"Telshor @ Telshor Tower Plaza","stop_id":"153164"},"type":"Feature"},{"geometry":{"coordinates":[-106.7375,32.30194],"type":"Point"},"properties":{"kind":"stop","name":"Telshor past Claude Dove","stop_id":"153165"},"type":"Feature"},{"geometry":{"coordinates":[-106.7434,32.31396],"type":"Point"},"properties":{"kind":"stop","name":"Telshor South @ Mesilla Valley Mall","stop_id":"153166"},"type":"Feature"},{"geometry":{"coordinates":[-106.766,32.34171],"type":"Point"},"properties":{"kind":"stop","name":"Triviz & Bugatti","stop_id":"153167"},"type":"Feature"},{"geometry":{"coordinates":[-106.7428,32.2977],"type":"Point"},"properties":{"kind":"stop","name":"Triviz & John St.","stop_id":"153168"},"type":"Feature"},{"geometry":{"coordinates":[-106.7412,32.29301],"type":"Point"},"properties":{"kind":"stop","name":"Triviz @ Omni Apartments","stop_id":"153169"},"type":"Feature"},{"geometry":{"coordinates":[-106.75759,32.32954],"type":"Point"},"properties":{"kind":"stop","name":"Triviz & Redwood","stop_id":"153170"},"type":"Feature"},{"geometry":{"coordinates":[-106.74,32.289],"type":"Point"},"properties":{"kind":"stop","name":"Triviz & Wisconsin","stop_id":"153171"},"type":"Feature"},{"geometry":{"coordinates":[-106.7703,32.34322],"type":"Point"},"properties":{"kind":"stop","name":"Triviz @ Lowe's Home Improvement","stop_id":"153172"},"type":"Feature"},{"geometry":{"coordinates":[-106.7606,32.33395],"type":"Point"},"properties":{"kind":"stop","name":"Triviz past Madrid","stop_id":"153173"},"type":"Feature"},{"geometry":{"coordinates":[-106.7654,32.27527],"type":"Point"},"properties":{"kind":"stop","name":"Union & Oak","stop_id":"153174"},"type":"Feature"},{"geometry":{"coordinates":[-106.7611,32.27822],"type":"Point"},"properties":{"kind":"stop","name":"Union & Stewart","stop_id":"153175"},"type":"Feature"},{"geometry":{"coordinates":[-106.7627,32.27644],"type":"Point"},"properties":{"kind":"stop","name":"Union @ The Verge Apartments","stop_id":"153176"},"type":"Feature"},{"geometry":{"coordinates":[-106.78398,32.27472],"type":"Point"},"properties":{"kind":"stop","name":"University @ Zia Middle School","stop_id":"153177"},"type":"Feature"},{"geometry":{"coordinates":[-106.79011,32.27135],"type":"Point"},"properties":{"kind":"stop","name":"University & Avenida de Mesilla OB","stop_id":"153178"},"type":"Feature"},{"geometry":{"coordinates":[-106.78932,32.27191],"type":"Point"},"properties":{"kind":"stop","name":"University & Avenida de Mesilla IB","stop_id":"153179"},"type":"Feature"},{"geometry":{"coordinates":[-106.77413,32.27933],"type":"Point"},"properties":{"kind":"stop","name":"University & Bowman OB","stop_id":"153180"},"type":"Feature"},{"geometry":{"coordinates":[-106.78372,32.27463],"type":"Point"},"properties":{"kind":"stop","name":"University & McDowell Rd","stop_id":"153181"},"type":"Feature"},{"geometry":{"coordinates":[-106.7629,32.28281],"type":"Point"},"properties":{"kind":"stop","name":"University & El Paseo","stop_id":"153182"},"type":"Feature"},{"geometry":{"coordinates":[-106.7553,32.28415],"type":"Point"},"properties":{"kind":"stop","name":"University & Espina/NMSU Music Building","stop_id":"153183"},"type":"Feature"},{"geometry":{"coordinates":[-106.754,32.28462],"type":"Point"},"properties":{"kind":"stop","name":"University & Haggerty","stop_id":"153184"},"type":"Feature"},{"geometry":{"coordinates":[-106.7496,32.28546],"type":"Point"},"properties":{"kind":"stop","name":"University & Jordan","stop_id":"153185"},"type":"Feature"},{"geometry":{"coordinates":[-106.7464,32.28588],"type":"Point"},"properties":{"kind":"stop","name":"University & Locust/NMSU Garcia Hall","stop_id":"153186"},"type":"Feature"},{"geometry":{"coordinates":[-106.7659,32.28233],"type":"Point"},"properties":{"kind":"stop","name":"University @ IHOP","stop_id":"153187"},"type":"Feature"},{"geometry":{"coordinates":[-106.7454,32.28626],"type":"Point"},"properties":{"kind":"stop","name":"University @ Pan Am Plaza","stop_id":"153188"},"type":"Feature"},{"geometry":{"coordinates":[-106.7515,32.28487],"type":"Point"},"properties":{"kind":"stop","name":"University @ Solano/NMSU Art Department","stop_id":"153189"},"type":"Feature"},{"geometry":{"coordinates":[-106.7688,32.28168],"type":"Point"},"properties":{"kind":"stop","name":"University @ Whataburger","stop_id":"153190"},"type":"Feature"},{"geometry":{"coordinates":[-106.7453,32.28627],"type":"Point"},"properties":{"kind":"stop","name":"University @ Pan Am Plaza","stop_id":"153191"},"type":"Feature"},{"geometry":{"coordinates":[-106.7872,32.29509],"type":"Point"},"properties":{"kind":"stop","name":"Valley & Aspen St.","stop_id":"153192"},"type":"Feature"},{"geometry":{"coordinates":[-106.793,32.30458],"type":"Point"},"properties":{"kind":"stop","name":"Valley & Amador","stop_id":"153193"},"type":"Feature"},{"geometry":{"coordinates":[-106.7864,32.29449],"type":"Point"},"properties":{"kind":"stop","name":"Valley & Avenida De Mesilla","stop_id":"153194"},"type":"Feature"},{"geometry":{"coordinates":[-106.7886,32.29752],"type":"Point"},"properties":{"kind":"stop","name":"Valley & Brown","stop_id":"153195"},"type":"Feature"},{"geometry":{"coordinates":[-106.7898,32.29871],"type":"Point"},"properties":{"kind":"stop","name":"Valley & Brown St.","stop_id":"153196"},"type":"Feature"},{"geometry":{"coordinates":[-106.7956,32.3096],"type":"Point"},"properties":{"kind":"stop","name":"Valley & Hadley","stop_id":"153197"},"type":"Feature"},{"geometry":{"coordinates":[-106.7997,32.32047],"type":"Point"},"properties":{"kind":"stop","name":"Valley & McClure","stop_id":"153198"},"type":"Feature"},{"geometry":{"coordinates":[-106.7975,32.31531],"type":"Point"},"properties":{"kind":"stop","name":"Valley & Parker","stop_id":"153199"},"type":"Feature"},{"geometry":{"coordinates":[-106.7836,32.29067],"type":"Point"},"properties":{"kind":"stop","name":"Valley & Rigby","stop_id":"153200"},"type":"Feature"},{"geometry":{"coordinates":[-106.7974,32.31452],"type":"Point"},"properties":{"kind":"stop","name":"Valley @ Camunez Park","stop_id":"153201"},"type":"Feature"},{"geometry":{"coordinates":[-106.7842,32.29095],"type":"Point"},"properties":{"kind":"stop","name":"Valley @ Matress Firm","stop_id":"153202"},"type":"Feature"},{"geometry":{"coordinates":[-106.7996,32.3195],"type":"Point"},"properties":{"kind":"stop","name":"Valley @ Robledo Ridge Housing","stop_id":"153203"},"type":"Feature"},{"geometry":{"coordinates":[-106.7957,32.30898],"type":"Point"},"properties":{"kind":"stop","name":"Valley @ Save Mart","stop_id":"153204"},"type":"Feature"},{"geometry":{"coordinates":[-106.7922,32.30256],"type":"Point"},"properties":{"kind":"stop","name":"Valley @ Southwest Trade Center","stop_id":"153205"},"type":"Feature"},{"geometry":{"coordinates":[-106.7907,32.30059],"type":"Point"},"properties":{"kind":"stop","name":"Valley across from Childrens Garden","stop_id":"153206"},"type":"Feature"},{"geometry":{"coordinates":[-106.78681,32.29041],"type":"Point"},"properties":{"kind":"stop","name":"Walmart OB","stop_id":"153207"},"type":"Feature"},{"geometry":{"coordinates":[-106.7525,32.30815],"type":"Point"},"properties":{"kind":"stop","name":"Walnut & Nevada","stop_id":"153208"},"type":"Feature"},{"geometry":{"coordinates":[-106.76123,32.32238],"type":"Point"},"properties":{"kind":"stop","name":"Walnut & Capitan IB","stop_id":"153209"},"type":"Feature"},{"geometry":{"coordinates":[-106.75916,32.32036],"type":"Point"},"properties":{"kind":"stop","name":"Walnut & Defiance IB","stop_id":"153210"},"type":"Feature"},{"geometry":{"coordinates":[-106.7543,32.31118],"type":"Point"},"properties":{"kind":"stop","name":"Walnut @ Speedway","stop_id":"153211"},"type":"Feature"},{"geometry":{"coordinates":[-106.7572,32.31792],"type":"Point"},"properties":{"kind":"stop","name":"Walnut & Hadley","stop_id":"153212"},"type":"Feature"},{"geometry":{"coordinates":[-106.7539,32.31023],"type":"Point"},"properties":{"kind":"stop","name":"Walnut & La Casa","stop_id":"153213"},"type":"Feature"},{"geometry":{"coordinates":[-106.75034,32.30545],"type":"Point"},"properties":{"kind":"stop","name":"Walnut & Lester OB","stop_id":"153214"},"type":"Feature"},{"geometry":{"coordinates":[-106.7583,32.31939],"type":"Point"},"properties":{"kind":"stop","name":"Walnut & McRae","stop_id":"153215"},"type":"Feature"},{"geometry":{"coordinates":[-106.7798,32.30978],"type":"Point"},"properties":{"kind":"stop","name":"Water & Griggs (El Paso Electric)","stop_id":"153216"},"type":"Feature"},{"geometry":{"coordinates":[-106.7806,32.31335],"type":"Point"},"properties":{"kind":"stop","name":"Water & Mountain","stop_id":"153217"},"type":"Feature"},{"geometry":{"coordinates":[-106.7798,32.31038],"type":"Point"},"properties":{"kind":"stop","name":"Water St & Las Cruces (Across from El Paso Electric)","stop_id":"153218"},"type":"Feature"},{"geometry":{"coordinates":[-106.7737,32.30114],"type":"Point"},"properties":{"kind":"stop","name":"Wyatt & Arizona","stop_id":"153219"},"type":"Feature"},{"geometry":{"coordinates":[-106.74014,32.28201],"type":"Point"},"properties":{"kind":"stop","name":"Pan Am","stop_id":"153220"},"type":"Feature"},{"geometry":{"coordinates":[-106.74492,32.28107],"type":"Point"},"properties":{"kind":"stop","name":"Chamisa Village","stop_id":"153221"},"type":"Feature"},{"geometry":{"coordinates":[-106.74723,32.28068],"type":"Point"},"properties":{"kind":"stop","name":"Across from Activity Center","stop_id":"153222"},"type":"Feature"},{"geometry":{"coordinates":[-106.75035,32.27998],"type":"Point"},"properties":{"kind":"stop","name":"Stewart/Williams","stop_id":"153223"},"type":"Feature"},{"geometry":{"coordinates":[-106.75351,32.27947],"type":"Point"},"properties":{"kind":"stop","name":"Stewart & Sweet - Engineering","stop_id":"153224"},"type":"Feature"},{"geometry":{"coordinates":[-106.75627,32.28142],"type":"Point"},"properties":{"kind":"stop","name":"Gerald Thomas","stop_id":"153225"},"type":"Feature"},{"geometry":{"coordinates":[-106.75481,32.27903],"type":"Point"},"properties":{"kind":"stop","name":"Espina & Stewart","stop_id":"153226"},"type":"Feature"},{"geometry":{"coordinates":[-106.75235,32.27952],"type":"Point"},"properties":{"kind":"stop","name":"O'Donnel Hall","stop_id":"153227"},"type":"Feature"},{"geometry":{"coordinates":[-106.74719,32.28051],"type":"Point"},"properties":{"kind":"stop","name":"Activity Center","stop_id":"153228"},"type":"Feature"},{"geometry":{"coordinates":[-106.74488,32.28094],"type":"Point"},"properties":{"kind":"stop","name":"Across from Chamisa Village","stop_id":"153229"},"type":"Feature"},{"geometry":{"coordinates":[-106.73941,32.27826],"type":"Point"},"properties":{"kind":"stop","name":"Arrowhead & Wells","stop_id":"153230"},"type":"Feature"},{"geometry":{"coordinates":[-106.74739,32.27384],"type":"Point"},"properties":{"kind":"stop","name":"Research/Standley","stop_id":"153231"},"type":"Feature"},{"geometry":{"coordinates":[-106.74876,32.27146],"type":"Point"},"properties":{"kind":"stop","name":"Center & Sam Steel Way","stop_id":"153232"},"type":"Feature"},{"geometry":{"coordinates":[-106.74916,32.27349],"type":"Point"},"properties":{"kind":"stop","name":"Williams & Standley (Aggie Express)","stop_id":"153233"},"type":"Feature"},{"geometry":{"coordinates":[-106.74932,32.27496],"type":"Point"},"properties":{"kind":"stop","name":"Williams & Wells","stop_id":"153234"},"type":"Feature"},{"geometry":{"coordinates":[-106.75055,32.27568],"type":"Point"},"properties":{"kind":"stop","name":"Wells & Williams","stop_id":"153235"},"type":"Feature"},{"geometry":{"coordinates":[-106.75321,32.27519],"type":"Point"},"properties":{"kind":"stop","name":"Wells & Wooten","stop_id":"153236"},"type":"Feature"},{"geometry":{"coordinates":[-106.75513,32.27709],"type":"Point"},"properties":{"kind":"stop","name":"Gregg & Espina (DACC)","stop_id":"153237"},"type":"Feature"},{"geometry":{"coordinates":[-106.761,32.27822],"type":"Point"},"properties":{"kind":"stop","name":"Union/Stewart","stop_id":"153238"},"type":"Feature"},{"geometry":{"coordinates":[-106.7599,32.28323],"type":"Point"},"properties":{"kind":"stop","name":"University","stop_id":"153239"},"type":"Feature"},{"geometry":{"coordinates":[-106.75483,32.27902],"type":"Point"},"properties":{"kind":"stop","name":"Stewart & Espina","stop_id":"153240"},"type":"Feature"},{"geometry":{"coordinates":[-106.75072,32.27939],"type":"Point"},"properties":{"kind":"stop","name":"Williams/O'Donnell Hall","stop_id":"153241"},"type":"Feature"},{"geometry":{"coordinates":[-106.76568,32.34642],"type":"Point"},"properties":{"kind":"stop","name":"Sams Club","stop_id":"160939"},"type":"Feature"},{"geometry":{"coordinates":[-106.75729,32.32935],"type":"Point"},"properties":{"kind":"stop","name":"Triviz & Redwood 2","stop_id":"160940"},"type":"Feature"},{"geometry":{"coordinates":[-106.74057,32.3591],"type":"Point"},"properties":{"kind":"stop","name":"Rinconada & Sonoma Ranch","stop_id":"191114"},"type":"Feature"},{"geometry":{"coordinates":[-106.73777,32.36668],"type":"Point"},"properties":{"kind":"stop","name":"Sonoma Ranch @ Gutierrez Orthodontics","stop_id":"191140"},"type":"Feature"},{"geometry":{"coordinates":[-106.7382,32.36644],"type":"Point"},"properties":{"kind":"stop","name":"Sonoma Ranch & Baltic Green","stop_id":"191141"},"type":"Feature"},{"geometry":{"coordinates":[-106.77907,32.33596],"type":"Point"},"properties":{"kind":"stop","name":"Main St @ Samaritan","stop_id":"193957"},"type":"Feature"},{"geometry":{"coordinates":[-106.73188,32.33332],"type":"Point"},"properties":{"kind":"stop","name":"Sonoma Ranch past Sonoma Springs","stop_id":"216297"},"type":"Feature"},{"geometry":{"coordinates":[-106.75405,32.34088],"type":"Point"},"properties":{"kind":"stop","name":"Roadrunner @ Copperstone Apts","stop_id":"216334"},"type":"Feature"},{"geometry":{"coordinates":[-106.74453,32.32999],"type":"Point"},"properties":{"kind":"stop","name":"Roadrunner & Stagecoach IB","stop_id":"216335"},"type":"Feature"},{"geometry":{"coordinates":[-106.73441,32.34327],"type":"Point"},"properties":{"kind":"stop","name":"Sonoma Ranch past Sonora Springs Blvd","stop_id":"216338"},"type":"Feature"},{"geometry":{"coordinates":[-106.77535,32.30617],"type":"Point"},"properties":{"kind":"stop","name":"Campo & Lohman IB","stop_id":"216339"},"type":"Feature"},{"geometry":{"coordinates":[-106.80622,32.31178],"type":"Point"},"properties":{"kind":"stop","name":"Picacho & 17th OB","stop_id":"220307"},"type":"Feature"},{"geometry":{"coordinates":[-106.75476,32.35547],"type":"Point"},"properties":{"kind":"stop","name":"Roadrunner & Northrise IB","stop_id":"220308"},"type":"Feature"},{"geometry":{"coordinates":[-106.78683,32.28984],"type":"Point"},"properties":{"kind":"stop","name":"Walmart IB","stop_id":"220309"},"type":"Feature"},{"geometry":{"coordinates":[-106.74461,32.2986],"type":"Point"},"properties":{"kind":"stop","name":"La Fonda & Missouri IB","stop_id":"220315"},"type":"Feature"},{"geometry":{"coordinates":[-106.75042,32.30522],"type":"Point"},"properties":{"kind":"stop","name":"Walnut & Lester IB","stop_id":"220316"},"type":"Feature"},{"geometry":{"coordinates":[-106.76001,32.32101],"type":"Point"},"properties":{"kind":"stop","name":"Walnut & Defiance OB","stop_id":"220317"},"type":"Feature"},{"geometry":{"coordinates":[-106.76132,32.32229],"type":"Point"},"properties":{"kind":"stop","name":"Walnut & Capitan OB","stop_id":"220318"},"type":"Feature"},{"geometry":{"coordinates":[-106.7857,32.32712],"type":"Point"},"properties":{"kind":"stop","name":"Madrid & Alameda OB","stop_id":"220319"},"type":"Feature"},{"geometry":{"coordinates":[-106.79502,32.32658],"type":"Point"},"properties":{"kind":"stop","name":"Hoagland & Carlyle OB","stop_id":"220320"},"type":"Feature"},{"geometry":{"coordinates":[-106.77471,32.27915],"type":"Point"},"properties":{"kind":"stop","name":"University & Bowman IB","stop_id":"222468"},"type":"Feature"}],"type":"FeatureCollection"}
