{"features":[{"geometry":{"coordinates":[[-108.56417,39.06314],[-108.56365,39.06327],[-108.56358,39.06346],[-108.56435,39.06349],[-108.56449,39.06535],[-108.57068,39.06544],[-108.57082,39.06562],[-108.57071,39.06735],[-108.561,39.0672],[-108.55239,39.06731],[-108.5523,39.10145],[-108.55199,39.10179],[-108.54514,39.10586],[-108.54417,39.10677],[-108.54059,39.11125],[-108.54035,39.11125],[-108.53912,39.11223],[-108.53055,39.117],[-108.52944,39.11814],[-108.52942,39.11915],[-108.52923,39.11939],[-108.52793,39.11994],[-108.52755,39.1204],[-108.52759,39.12088],[-108.53171,39.1233],[-108.53346,39.1208],[-108.53673,39.12088],[-108.53669,39.12171],[-108.53643,39.12228],[-108.53662,39.12496],[-108.53648,39.12229],[-108.5368,39.12162],[-108.5368,39.12077],[-108.53413,39.12076],[-108.53309,39.12047],[-108.53123,39.11857],[-108.53018,39.11808],[-108.53008,39.11777],[-108.5303,39.11741],[-108.53114,39.11672],[-108.53941,39.11232],[-108.54061,39.11145],[-108.54518,39.10599],[-108.5507,39.10259],[-108.55249,39.10176],[-108.55251,39.06732],[-108.57094,39.06737],[-108.57099,39.06564],[-108.57006,39.0646],[-108.56939,39.06437],[-108.56449,39.06439],[-108.56436,39.0634],[-108.56367,39.06341],[-108.56349,39.06318],[-108.56361,39.06298],[-108.56416,39.06313]],"type":"LineString"},"properties":{"color":"#F28100","color_name":"orange","kind":"route","label":"1","long":"Route 1 Airport","route_id":"R1","text_color":"#000000","type_label":"Bus"},"type":"Feature"},{"geometry":{"coordinates":[[-108.46024,39.08595],[-108.46056,39.08582],[-108.46045,39.08569],[-108.45959,39.08587],[-108.45962,39.0863],[-108.45942,39.08668],[-108.4581,39.08762],[-108.45759,39.08756],[-108.4571,39.08693],[-108.45717,39.08647],[-108.45899,39.0844],[-108.45946,39.08333],[-108.45948,39.07726],[-108.45017,39.07727],[-108.45014,39.08447],[-108.44086,39.0845],[-108.44079,39.07007],[-108.45962,39.07011],[-108.45959,39.06301],[-108.45991,39.06282],[-108.51503,39.0629],[-108.51508,39.07728],[-108.50582,39.07727],[-108.50582,39.08453],[-108.49774,39.0846],[-108.49661,39.08454],[-108.49655,39.07004],[-108.4502,39.07],[-108.45021,39.06355],[-108.45024,39.06317],[-108.45054,39.06286],[-108.45553,39.06279],[-108.45936,39.06296],[-108.45933,39.08306],[-108.45893,39.0842],[-108.45696,39.08667],[-108.45721,39.08741],[-108.45797,39.08798],[-108.45998,39.08646],[-108.45958,39.08596],[-108.46022,39.08596]],"type":"LineString"},"properties":{"color":"#F28100","color_name":"orange","kind":"route","label":"10","long":"Route 10 Clifton","route_id":"R10","text_color":"#000000","type_label":"Bus"},"type":"Feature"},{"geometry":{"coordinates":[[-108.56381,39.06305],[-108.56425,39.06314],[-108.56359,39.06345],[-108.56437,39.06351],[-108.56443,39.06532],[-108.57048,39.06536],[-108.57079,39.06549],[-108.57089,39.06829],[-108.57214,39.06837],[-108.57214,39.0693],[-108.57306,39.06931],[-108.57323,39.07034],[-108.57913,39.06817],[-108.58593,39.06615],[-108.5866,39.06708],[-108.58856,39.06748],[-108.58897,39.06743],[-108.58898,39.06729],[-108.58797,39.06733],[-108.58661,39.06701],[-108.58596,39.06595],[-108.57862,39.06815],[-108.57312,39.07018],[-108.57329,39.07269],[-108.57386,39.07336],[-108.57445,39.07297],[-108.57722,39.07296],[-108.57724,39.07433],[-108.57761,39.075],[-108.58014,39.07484],[-108.58015,39.07816],[-108.58042,39.07848],[-108.58254,39.07833],[-108.58323,39.07853],[-108.58364,39.07902],[-108.58368,39.07956],[-108.58461,39.07958],[-108.58473,39.08066],[-108.58523,39.08103],[-108.58943,39.0811],[-108.59043,39.08188],[-108.59404,39.08378],[-108.59415,39.08469],[-108.59321,39.08594],[-108.5932,39.08636],[-108.59388,39.08639],[-108.59418,39.08619],[-108.59345,39.08585],[-108.59413,39.08515],[-108.5986,39.0875],[-108.59875,39.09284],[-108.59848,39.09293],[-108.59844,39.09351],[-108.59773,39.09337],[-108.59753,39.09346],[-108.59756,39.09372],[-108.59883,39.09367],[-108.5989,39.09053],[-108.59931,39.09062],[-108.59952,39.09035],[-108.60017,39.09079],[-108.6008,39.09035],[-108.6015,39.09082],[-108.60279,39.0898],[-108.60159,39.08945],[-108.6008,39.08948],[-108.60067,39.08903],[-108.60096,39.08839],[-108.60087,39.08821],[-108.59918,39.08743],[-108.59907,39.08704],[-108.59845,39.08701],[-108.59462,39.08498],[-108.59422,39.0846],[-108.59408,39.08376],[-108.59045,39.08186],[-108.58947,39.08107],[-108.58527,39.08096],[-108.5848,39.08063],[-108.5847,39.07951],[-108.58378,39.07949],[-108.58363,39.07883],[-108.58321,39.07842],[-108.58032,39.07824],[-108.58021,39.07478],[-108.57763,39.07493],[-108.57731,39.07433],[-108.57729,39.0729],[-108.57443,39.07291],[-108.57385,39.07328],[-108.57334,39.07267],[-108.57324,39.07013],[-108.57217,39.07022],[-108.5722,39.0683],[-108.57098,39.06824],[-108.57097,39.06557],[-108.56995,39.06455],[-108.56458,39.06435],[-108.56444,39.06344],[-108.56367,39.06342],[-108.56344,39.06312],[-108.56378,39.06305]],"type":"LineString"},"properties":{"color":"#4CE600","color_name":"green","kind":"route","label":"11","long":"Route 11 Shopping Malls","route_id":"R11","text_color":"#000000","type_label":"Bus"},"type":"Feature"},{"geometry":{"coordinates":[[-108.46029,39.08593],[-108.46057,39.08586],[-108.4604,39.08572],[-108.45954,39.08594],[-108.45998,39.08654],[-108.45807,39.08803],[-108.45852,39.08834],[-108.45925,39.08846],[-108.45945,39.08869],[-108.45944,39.09186],[-108.54222,39.09188],[-108.54296,39.09191],[-108.543,39.09403],[-108.54384,39.09393],[-108.54638,39.09415],[-108.54776,39.09369],[-108.54779,39.09188],[-108.58622,39.09197],[-108.59821,39.09181],[-108.5987,39.09189],[-108.59869,39.09287],[-108.5985,39.09294],[-108.59843,39.09355],[-108.59762,39.09343],[-108.59753,39.09369],[-108.59771,39.09374],[-108.59881,39.09369],[-108.59871,39.09177],[-108.45953,39.09176],[-108.45947,39.08843],[-108.46057,39.08726],[-108.46047,39.08684],[-108.45959,39.08597],[-108.46027,39.08592]],"type":"LineString"},"properties":{"color":"#005CE6","color_name":"blue","kind":"route","label":"2","long":"Route 2 Patterson","route_id":"R2","text_color":"#000000","type_label":"Bus"},"type":"Feature"},{"geometry":{"coordinates":[[-108.56362,39.06301],[-108.56416,39.06302],[-108.56424,39.06316],[-108.56367,39.0634],[-108.56097,39.0634],[-108.56103,39.08463],[-108.4743,39.08448],[-108.47324,39.08444],[-108.47325,39.08363],[-108.47299,39.08285],[-108.46175,39.08561],[-108.46003,39.08636],[-108.4596,39.08596],[-108.46017,39.08601],[-108.46053,39.08585],[-108.4605,39.08571],[-108.45967,39.08588],[-108.45989,39.08637],[-108.46035,39.08677],[-108.46189,39.08592],[-108.46726,39.0846],[-108.53372,39.08473],[-108.54251,39.08461],[-108.5425,39.08641],[-108.54773,39.08642],[-108.54773,39.08464],[-108.56105,39.08465],[-108.56105,39.06345],[-108.56367,39.06345],[-108.56344,39.06309],[-108.56363,39.06302]],"type":"LineString"},"properties":{"color":"#66CCC5","color_name":"gray","kind":"route","label":"3","long":"Route 3 Orchard Avenue","route_id":"R3","text_color":"#000000","type_label":"Bus"},"type":"Feature"},{"geometry":{"coordinates":[[-108.46039,39.08591],[-108.46052,39.08572],[-108.4596,39.08589],[-108.45963,39.08635],[-108.45934,39.08677],[-108.45467,39.0906],[-108.45341,39.09155],[-108.45294,39.09167],[-108.45048,39.09169],[-108.4503,39.09156],[-108.45008,39.08813],[-108.44084,39.0903],[-108.44084,39.09173],[-108.43737,39.0917],[-108.43508,39.09108],[-108.4336,39.09095],[-108.43021,39.09228],[-108.42245,39.09415],[-108.42246,39.09169],[-108.41312,39.09172],[-108.41311,39.09637],[-108.40861,39.09737],[-108.40832,39.09726],[-108.40832,39.09703],[-108.40731,39.09703],[-108.4073,39.09773],[-108.37205,39.10608],[-108.36943,39.10607],[-108.36933,39.10564],[-108.36919,39.10605],[-108.3684,39.1061],[-108.36049,39.10595],[-108.36044,39.10294],[-108.35822,39.10218],[-108.35814,39.10188],[-108.35767,39.10156],[-108.35603,39.10108],[-108.35587,39.10128],[-108.35577,39.1052],[-108.35624,39.10532],[-108.35627,39.10594],[-108.35564,39.10598],[-108.35559,39.1069],[-108.3521,39.1069],[-108.35208,39.11028],[-108.34851,39.11025],[-108.34851,39.1123],[-108.3494,39.11212],[-108.36024,39.11222],[-108.36031,39.10613],[-108.36928,39.10614],[-108.36933,39.10564],[-108.36944,39.10616],[-108.37207,39.10612],[-108.40826,39.09751],[-108.40825,39.09706],[-108.40731,39.09703],[-108.4073,39.09773],[-108.40389,39.09854],[-108.40385,39.09257],[-108.40519,39.09176],[-108.42242,39.09173],[-108.4224,39.0942],[-108.43022,39.09231],[-108.4328,39.09118],[-108.43362,39.09099],[-108.43436,39.09098],[-108.43682,39.09164],[-108.43816,39.09179],[-108.45351,39.09176],[-108.46005,39.08649],[-108.45964,39.08593],[-108.46036,39.0859]],"type":"LineString"},"properties":{"color":"#A800E6","color_name":"purple","kind":"route","label":"4","long":"Route 4 Palisade","route_id":"R4","text_color":"#000000","type_label":"Bus"},"type":"Feature"},{"geometry":{"coordinates":[[-108.56364,39.06322],[-108.5637,39.06345],[-108.56437,39.06354],[-108.56453,39.06537],[-108.57043,39.06536],[-108.57079,39.06549],[-108.57081,39.07025],[-108.57117,39.07115],[-108.57082,39.07149],[-108.57075,39.07734],[-108.50584,39.07731],[-108.50586,39.0918],[-108.51524,39.09176],[-108.51522,39.07829],[-108.51537,39.0774],[-108.57087,39.07743],[-108.57091,39.07188],[-108.57098,39.07152],[-108.5714,39.07109],[-108.57099,39.07015],[-108.57094,39.0655],[-108.56992,39.06453],[-108.56954,39.06438],[-108.56459,39.06435],[-108.56442,39.06347],[-108.56365,39.06341],[-108.56343,39.06311],[-108.56364,39.06297],[-108.56426,39.06311],[-108.56413,39.06327],[-108.56366,39.06322]],"type":"LineString"},"properties":{"color":"#FF3838","color_name":"red","kind":"route","label":"5","long":"Route 5 Midtown","route_id":"R5","text_color":"#000000","type_label":"Bus"},"type":"Feature"},{"geometry":{"coordinates":[[-108.56408,39.06305],[-108.56421,39.06324],[-108.56359,39.06343],[-108.56102,39.06341],[-108.56098,39.06534],[-108.56455,39.06533],[-108.56455,39.05649],[-108.56665,39.05302],[-108.56706,39.05155],[-108.56688,39.05006],[-108.56604,39.04863],[-108.55625,39.04839],[-108.54308,39.04836],[-108.54305,39.04115],[-108.52461,39.04111],[-108.52461,39.03491],[-108.52521,39.03394],[-108.51826,39.03106],[-108.51537,39.03011],[-108.51524,39.0309],[-108.5153,39.04335],[-108.51504,39.0628],[-108.51508,39.07728],[-108.50582,39.07727],[-108.50581,39.08459],[-108.51523,39.08463],[-108.51516,39.05959],[-108.51534,39.04116],[-108.53693,39.04117],[-108.53666,39.04002],[-108.5377,39.03955],[-108.53835,39.03953],[-108.53855,39.04117],[-108.54298,39.04118],[-108.54303,39.04843],[-108.55236,39.04844],[-108.55232,39.04308],[-108.55696,39.04482],[-108.55697,39.04852],[-108.56587,39.04869],[-108.56677,39.05024],[-108.56693,39.05155],[-108.5665,39.05302],[-108.56445,39.05648],[-108.56438,39.06342],[-108.56367,39.06342],[-108.56349,39.06313],[-108.56405,39.06305]],"type":"LineString"},"properties":{"color":"#005CE6","color_name":"blue","kind":"route","label":"6","long":"Route 6 Orchard Mesa","route_id":"R6","text_color":"#000000","type_label":"Bus"},"type":"Feature"},{"geometry":{"coordinates":[[-108.56403,39.06324],[-108.56363,39.0634],[-108.56436,39.06356],[-108.56437,39.07729],[-108.56101,39.07744],[-108.56094,39.08816],[-108.55824,39.08821],[-108.55679,39.09],[-108.56113,39.09003],[-108.5616,39.0912],[-108.56166,39.09188],[-108.57097,39.09184],[-108.57095,39.08101],[-108.58014,39.08103],[-108.58015,39.09482],[-108.58133,39.09482],[-108.58144,39.0968],[-108.58948,39.09687],[-108.58948,39.09552],[-108.59882,39.09546],[-108.5987,39.09286],[-108.59852,39.09293],[-108.59844,39.09358],[-108.59755,39.09345],[-108.59754,39.09546],[-108.58945,39.09549],[-108.58945,39.09682],[-108.58169,39.09682],[-108.58139,39.09662],[-108.58139,39.09477],[-108.5802,39.09477],[-108.58013,39.09188],[-108.56411,39.09175],[-108.56399,39.09134],[-108.56471,39.09122],[-108.56481,39.09078],[-108.5634,39.08913],[-108.56097,39.08995],[-108.55685,39.08993],[-108.55823,39.08826],[-108.56105,39.08821],[-108.56112,39.07749],[-108.56616,39.07734],[-108.56616,39.06447],[-108.56452,39.06436],[-108.56443,39.06344],[-108.56369,39.0634],[-108.56346,39.06316],[-108.56364,39.06297],[-108.56399,39.063],[-108.56419,39.06306],[-108.56406,39.06323]],"type":"LineString"},"properties":{"color":"#A800E6","color_name":"purple","kind":"route","label":"7","long":"Route 7 College Connector","route_id":"R7","text_color":"#000000","type_label":"Bus"},"type":"Feature"},{"geometry":{"coordinates":[[-108.5984,39.09355],[-108.59751,39.09343],[-108.59753,39.09375],[-108.59876,39.09369],[-108.59888,39.09224],[-108.59911,39.09217],[-108.59939,39.09242],[-108.59978,39.09389],[-108.60081,39.09467],[-108.6014,39.09485],[-108.60575,39.09478],[-108.60584,39.09532],[-108.6063,39.09579],[-108.60632,39.09729],[-108.60615,39.09769],[-108.6055,39.09826],[-108.60538,39.09909],[-108.60812,39.09922],[-108.60821,39.10632],[-108.62632,39.10631],[-108.62672,39.10648],[-108.62762,39.10632],[-108.63627,39.10633],[-108.63673,39.10606],[-108.64115,39.10833],[-108.64331,39.11112],[-108.6444,39.11233],[-108.64537,39.11308],[-108.64655,39.11327],[-108.65029,39.1133],[-108.65178,39.11374],[-108.70731,39.14217],[-108.71118,39.14482],[-108.71598,39.14667],[-108.71968,39.14858],[-108.71973,39.16435],[-108.73839,39.16434],[-108.73833,39.15886],[-108.73607,39.15878],[-108.73597,39.15815],[-108.73613,39.15755],[-108.73745,39.15513],[-108.73794,39.15476],[-108.73816,39.15377],[-108.73837,39.15355],[-108.73824,39.15329],[-108.73825,39.15051],[-108.73555,39.15057],[-108.73515,39.15077],[-108.73487,39.15127],[-108.73497,39.15308],[-108.73476,39.15399],[-108.73679,39.15417],[-108.73742,39.15475],[-108.73597,39.15751],[-108.73573,39.15879],[-108.73483,39.15883],[-108.73482,39.15705],[-108.73019,39.15705],[-108.73018,39.15886],[-108.71976,39.15887],[-108.71975,39.14894],[-108.71993,39.14859],[-108.71614,39.14665],[-108.71125,39.14482],[-108.70733,39.14214],[-108.65114,39.11324],[-108.6502,39.11305],[-108.64645,39.11311],[-108.64464,39.11274],[-108.64402,39.11219],[-108.64341,39.11081],[-108.64165,39.10855],[-108.63682,39.10596],[-108.63595,39.10631],[-108.62709,39.10631],[-108.6267,39.10615],[-108.60826,39.10628],[-108.60816,39.09909],[-108.60549,39.099],[-108.60563,39.0982],[-108.60627,39.09767],[-108.60639,39.09733],[-108.60638,39.09576],[-108.60586,39.09517],[-108.60581,39.09467],[-108.60206,39.09475],[-108.60087,39.09457],[-108.59991,39.09386],[-108.59955,39.09242],[-108.59874,39.09188],[-108.59872,39.09287],[-108.59852,39.09293],[-108.5984,39.09356]],"type":"LineString"},"properties":{"color":"#FF3838","color_name":"red","kind":"route","label":"8","long":"Route 8 Fruita","route_id":"R8","text_color":"#000000","type_label":"Bus"},"type":"Feature"},{"geometry":{"coordinates":[[-108.56391,39.06321],[-108.56364,39.06344],[-108.56439,39.06354],[-108.56444,39.07033],[-108.53742,39.07009],[-108.53736,39.07549],[-108.53826,39.07587],[-108.53833,39.07732],[-108.50098,39.07726],[-108.5004,39.07718],[-108.49998,39.07689],[-108.4992,39.07732],[-108.49781,39.0777],[-108.49331,39.07786],[-108.48791,39.07906],[-108.47828,39.08158],[-108.46168,39.08554],[-108.45996,39.08629],[-108.45967,39.08593],[-108.46021,39.08605],[-108.46058,39.08576],[-108.45962,39.08588],[-108.46005,39.08648],[-108.46252,39.08548],[-108.49317,39.07803],[-108.4977,39.07786],[-108.50041,39.07736],[-108.53838,39.07738],[-108.53837,39.07592],[-108.53742,39.0754],[-108.53748,39.07015],[-108.56614,39.07035],[-108.56613,39.0644],[-108.56458,39.06438],[-108.5644,39.06342],[-108.56373,39.0634],[-108.56347,39.06316],[-108.56351,39.063],[-108.56398,39.06297],[-108.56424,39.0632],[-108.56394,39.06321]],"type":"LineString"},"properties":{"color":"#996600","color_name":"brown","kind":"route","label":"9","long":"Route 9 North Avenue","route_id":"R9","text_color":"#000000","type_label":"Bus"},"type":"Feature"},{"geometry":{"coordinates":[-108.593,39.09179],"type":"Point"},"properties":{"kind":"stop","name":"Patterson Road east of Commerce Street","stop_id":"S1"},"type":"Feature"},{"geometry":{"coordinates":[-108.49985,39.09168],"type":"Point"},"properties":{"kind":"stop","name":"Patterson Road east of Placer Street","stop_id":"S10"},"type":"Feature"},{"geometry":{"coordinates":[-108.55113,39.08454],"type":"Point"},"properties":{"kind":"stop","name":"Orchard Avenue east of 12th Street (True Value)","stop_id":"S101"},"type":"Feature"},{"geometry":{"coordinates":[-108.57539,39.08102],"type":"Point"},"properties":{"kind":"stop","name":"Independent Avenue east of Poplar Drive","stop_id":"S102"},"type":"Feature"},{"geometry":{"coordinates":[-108.57156,39.08102],"type":"Point"},"properties":{"kind":"stop","name":"Independent Avenue west of 1st Street","stop_id":"S104"},"type":"Feature"},{"geometry":{"coordinates":[-108.58501,39.09182],"type":"Point"},"properties":{"kind":"stop","name":"Patterson Road east of Northgate Drive","stop_id":"S105"},"type":"Feature"},{"geometry":{"coordinates":[-108.46177,39.09193],"type":"Point"},"properties":{"kind":"stop","name":"Patterson Road west of 32 Road","stop_id":"S11"},"type":"Feature"},{"geometry":{"coordinates":[-108.5647,39.07752],"type":"Point"},"properties":{"kind":"stop","name":"North Avenue west of 5th Street","stop_id":"S110"},"type":"Feature"},{"geometry":{"coordinates":[-108.56407,39.07729],"type":"Point"},"properties":{"kind":"stop","name":"North Avenue east of 5th Street","stop_id":"S111"},"type":"Feature"},{"geometry":{"coordinates":[-108.56189,39.07752],"type":"Point"},"properties":{"kind":"stop","name":"North Avenue west of 7th Street","stop_id":"S112"},"type":"Feature"},{"geometry":{"coordinates":[-108.55222,39.09051],"type":"Point"},"properties":{"kind":"stop","name":"12th Street north of Wellington Avenue","stop_id":"S114"},"type":"Feature"},{"geometry":{"coordinates":[-108.54365,39.08647],"type":"Point"},"properties":{"kind":"stop","name":"Walnut Avenue west of 19th Street (Walnut Park Apartments)","stop_id":"S116"},"type":"Feature"},{"geometry":{"coordinates":[-108.53654,39.07725],"type":"Point"},"properties":{"kind":"stop","name":"North Avenue east of 23rd Street (Teller Arms)","stop_id":"S117"},"type":"Feature"},{"geometry":{"coordinates":[-108.57103,39.08412],"type":"Point"},"properties":{"kind":"stop","name":"1st Street south of Orchard Avenue (West Middle School)","stop_id":"S118"},"type":"Feature"},{"geometry":{"coordinates":[-108.53128,39.07726],"type":"Point"},"properties":{"kind":"stop","name":"North Avenue east of 28 Road","stop_id":"S119"},"type":"Feature"},{"geometry":{"coordinates":[-108.49595,39.09169],"type":"Point"},"properties":{"kind":"stop","name":"Patterson Road east of 30 Road","stop_id":"S12"},"type":"Feature"},{"geometry":{"coordinates":[-108.5342,39.07749],"type":"Point"},"properties":{"kind":"stop","name":"North Avenue west of 28 Road (Red Cliff Pointe)","stop_id":"S120"},"type":"Feature"},{"geometry":{"coordinates":[-108.52704,39.07747],"type":"Point"},"properties":{"kind":"stop","name":"North Avenue east of 28 \u00bc Road (East Gate Shopping Center)","stop_id":"S121"},"type":"Feature"},{"geometry":{"coordinates":[-108.52851,39.07724],"type":"Point"},"properties":{"kind":"stop","name":"North Avenue east of 28 \u00bc Road (Solaris Square)","stop_id":"S122"},"type":"Feature"},{"geometry":{"coordinates":[-108.52303,39.07722],"type":"Point"},"properties":{"kind":"stop","name":"North Avenue east of 28 \u00bd Road (Homeward Bound)","stop_id":"S123"},"type":"Feature"},{"geometry":{"coordinates":[-108.51929,39.07718],"type":"Point"},"properties":{"kind":"stop","name":"North Avenue east of 28 \u00be Road (Walmart)","stop_id":"S124"},"type":"Feature"},{"geometry":{"coordinates":[-108.50986,39.07743],"type":"Point"},"properties":{"kind":"stop","name":"North Avenue east of 29 \u00bc Road","stop_id":"S125"},"type":"Feature"},{"geometry":{"coordinates":[-108.52152,39.07747],"type":"Point"},"properties":{"kind":"stop","name":"North Avenue west of 28 \u00be Road (Texas Road House)","stop_id":"S127"},"type":"Feature"},{"geometry":{"coordinates":[-108.53445,39.08469],"type":"Point"},"properties":{"kind":"stop","name":"Orchard Ave east of 26th Street (Rocket Park)","stop_id":"S128"},"type":"Feature"},{"geometry":{"coordinates":[-108.5314,39.08476],"type":"Point"},"properties":{"kind":"stop","name":"Orchard Avenue east of Court Road","stop_id":"S129"},"type":"Feature"},{"geometry":{"coordinates":[-108.49152,39.0917],"type":"Point"},"properties":{"kind":"stop","name":"Patterson Road west of McMullin Drive","stop_id":"S13"},"type":"Feature"},{"geometry":{"coordinates":[-108.52847,39.08475],"type":"Point"},"properties":{"kind":"stop","name":"Orchard Avenue east of 28 \u00bc Road","stop_id":"S130"},"type":"Feature"},{"geometry":{"coordinates":[-108.52834,39.0846],"type":"Point"},"properties":{"kind":"stop","name":"Orchard Avenue east of 28 \u00bc Road (Columbine Park)","stop_id":"S131"},"type":"Feature"},{"geometry":{"coordinates":[-108.53516,39.08451],"type":"Point"},"properties":{"kind":"stop","name":"Orchard Ave west of 26th Street (Rocket Park)","stop_id":"S132"},"type":"Feature"},{"geometry":{"coordinates":[-108.52025,39.08467],"type":"Point"},"properties":{"kind":"stop","name":"Orchard Avenue west of 28 \u00be Road","stop_id":"S134"},"type":"Feature"},{"geometry":{"coordinates":[-108.54459,39.10626],"type":"Point"},"properties":{"kind":"stop","name":"Horizon Drive north of G Road","stop_id":"S136"},"type":"Feature"},{"geometry":{"coordinates":[-108.54484,39.10642],"type":"Point"},"properties":{"kind":"stop","name":"Horizon Drive east of G Road","stop_id":"S137"},"type":"Feature"},{"geometry":{"coordinates":[-108.54326,39.10786],"type":"Point"},"properties":{"kind":"stop","name":"Horizon Drive at Denny's","stop_id":"S138"},"type":"Feature"},{"geometry":{"coordinates":[-108.5436,39.10786],"type":"Point"},"properties":{"kind":"stop","name":"Horizon Drive at Applebee's","stop_id":"S139"},"type":"Feature"},{"geometry":{"coordinates":[-108.4872,39.09168],"type":"Point"},"properties":{"kind":"stop","name":"Patterson Road west of Shoshone Street","stop_id":"S14"},"type":"Feature"},{"geometry":{"coordinates":[-108.52485,39.08475],"type":"Point"},"properties":{"kind":"stop","name":"Orchard Avenue west of 28 \u00bd Road","stop_id":"S140"},"type":"Feature"},{"geometry":{"coordinates":[-108.52416,39.08461],"type":"Point"},"properties":{"kind":"stop","name":"Orchard Avenue east of 28 \u00bd Road","stop_id":"S141"},"type":"Feature"},{"geometry":{"coordinates":[-108.54121,39.1104],"type":"Point"},"properties":{"kind":"stop","name":"Horizon Drive at Taco Bell","stop_id":"S142"},"type":"Feature"},{"geometry":{"coordinates":[-108.54153,39.11048],"type":"Point"},"properties":{"kind":"stop","name":"Horizon Drive at Freddy's","stop_id":"S144"},"type":"Feature"},{"geometry":{"coordinates":[-108.53761,39.11297],"type":"Point"},"properties":{"kind":"stop","name":"Horizon Drive at Wendy's","stop_id":"S145"},"type":"Feature"},{"geometry":{"coordinates":[-108.5382,39.11299],"type":"Point"},"properties":{"kind":"stop","name":"Horizon Drive at Clarion Inn","stop_id":"S146"},"type":"Feature"},{"geometry":{"coordinates":[-108.55248,39.08521],"type":"Point"},"properties":{"kind":"stop","name":"12th Street south of Walnut Avenue","stop_id":"S148"},"type":"Feature"},{"geometry":{"coordinates":[-108.53513,39.11463],"type":"Point"},"properties":{"kind":"stop","name":"Horizon Drive and Crossroads Boulevard (Grand Vista Hotel)","stop_id":"S149"},"type":"Feature"},{"geometry":{"coordinates":[-108.47872,39.09166],"type":"Point"},"properties":{"kind":"stop","name":"Patterson Road east of 31 Road","stop_id":"S15"},"type":"Feature"},{"geometry":{"coordinates":[-108.53475,39.11458],"type":"Point"},"properties":{"kind":"stop","name":"Horizon Drive north of Horizon Court (Horizon Inn)","stop_id":"S150"},"type":"Feature"},{"geometry":{"coordinates":[-108.5367,39.12415],"type":"Point"},"properties":{"kind":"stop","name":"Social Security Office<br/><b>Only Served<br/> Monday Tuesday Thursday Friday<br/>8:00 am - 5:00 pm<br/>Wednesday<br/>8:00 am - 1:00 pm</b>","stop_id":"S151"},"type":"Feature"},{"geometry":{"coordinates":[-108.55226,39.08713],"type":"Point"},"properties":{"kind":"stop","name":"12th Street north of Walnut Avenue","stop_id":"S152"},"type":"Feature"},{"geometry":{"coordinates":[-108.53049,39.11695],"type":"Point"},"properties":{"kind":"stop","name":"Horizon Drive at Motel 6","stop_id":"S153"},"type":"Feature"},{"geometry":{"coordinates":[-108.53066,39.11719],"type":"Point"},"properties":{"kind":"stop","name":"Horizon Drive across from Motel 6","stop_id":"S154"},"type":"Feature"},{"geometry":{"coordinates":[-108.53002,39.12254],"type":"Point"},"properties":{"kind":"stop","name":"Grand Junction Regional Airport","stop_id":"S155"},"type":"Feature"},{"geometry":{"coordinates":[-108.56089,39.08072],"type":"Point"},"properties":{"kind":"stop","name":"7th Street north of Kennedy Avenue (Colorado Mesa University)","stop_id":"S156"},"type":"Feature"},{"geometry":{"coordinates":[-108.60681,39.09917],"type":"Point"},"properties":{"kind":"stop","name":"F 1/2 Road west of Market Street","stop_id":"S158"},"type":"Feature"},{"geometry":{"coordinates":[-108.60622,39.09689],"type":"Point"},"properties":{"kind":"stop","name":"Market Street across from City Market","stop_id":"S159"},"type":"Feature"},{"geometry":{"coordinates":[-108.47426,39.09164],"type":"Point"},"properties":{"kind":"stop","name":"Patterson Road at Long Family Memorial Park","stop_id":"S16"},"type":"Feature"},{"geometry":{"coordinates":[-108.53988,39.07749],"type":"Point"},"properties":{"kind":"stop","name":"North Avenue west of 23rd Street (Veterans Hospital)","stop_id":"S160"},"type":"Feature"},{"geometry":{"coordinates":[-108.5723,39.0687],"type":"Point"},"properties":{"kind":"stop","name":"Spruce Street north of Rood Avenue (Justice Center)","stop_id":"S161"},"type":"Feature"},{"geometry":{"coordinates":[-108.55233,39.06784],"type":"Point"},"properties":{"kind":"stop","name":"12th Street north of Main Street","stop_id":"S162"},"type":"Feature"},{"geometry":{"coordinates":[-108.55231,39.07164],"type":"Point"},"properties":{"kind":"stop","name":"12th Street north of Ouray Avenue","stop_id":"S163"},"type":"Feature"},{"geometry":{"coordinates":[-108.5525,39.07104],"type":"Point"},"properties":{"kind":"stop","name":"12th Street north of Grand Avenue","stop_id":"S164"},"type":"Feature"},{"geometry":{"coordinates":[-108.55252,39.07514],"type":"Point"},"properties":{"kind":"stop","name":"12th Street south of Teller Avenue (Lincoln Park)","stop_id":"S165"},"type":"Feature"},{"geometry":{"coordinates":[-108.55223,39.07562],"type":"Point"},"properties":{"kind":"stop","name":"12th Street south of North Avenue (Lincoln Park Barn)","stop_id":"S166"},"type":"Feature"},{"geometry":{"coordinates":[-108.571,39.09034],"type":"Point"},"properties":{"kind":"stop","name":"1st Street south of West Park Drive","stop_id":"S167"},"type":"Feature"},{"geometry":{"coordinates":[-108.5683,39.07753],"type":"Point"},"properties":{"kind":"stop","name":"North Avenue west of 3rd Street","stop_id":"S168"},"type":"Feature"},{"geometry":{"coordinates":[-108.55644,39.0704],"type":"Point"},"properties":{"kind":"stop","name":"Grand Avenue west of 10th Street (Strive)","stop_id":"S169"},"type":"Feature"},{"geometry":{"coordinates":[-108.46998,39.09167],"type":"Point"},"properties":{"kind":"stop","name":"Patterson Road west of 31 \u00bd Road","stop_id":"S17"},"type":"Feature"},{"geometry":{"coordinates":[-108.55645,39.07025],"type":"Point"},"properties":{"kind":"stop","name":"Grand Avenue west of 10th Street (Strive)","stop_id":"S170"},"type":"Feature"},{"geometry":{"coordinates":[-108.56037,39.07024],"type":"Point"},"properties":{"kind":"stop","name":"Grand Avenue east of 7th Street","stop_id":"S171"},"type":"Feature"},{"geometry":{"coordinates":[-108.5596,39.0704],"type":"Point"},"properties":{"kind":"stop","name":"Grand Avenue west of 8th Street","stop_id":"S172"},"type":"Feature"},{"geometry":{"coordinates":[-108.57074,39.06856],"type":"Point"},"properties":{"kind":"stop","name":"1st Street north of Rood Avenue","stop_id":"S173"},"type":"Feature"},{"geometry":{"coordinates":[-108.56862,39.06736],"type":"Point"},"properties":{"kind":"stop","name":"Main Street east of 1st Street","stop_id":"S176"},"type":"Feature"},{"geometry":{"coordinates":[-108.56861,39.06723],"type":"Point"},"properties":{"kind":"stop","name":"Main Street west of 3rd Street (Hampton Inn)","stop_id":"S178"},"type":"Feature"},{"geometry":{"coordinates":[-108.56433,39.07112],"type":"Point"},"properties":{"kind":"stop","name":"5th Street north of Grand Avenue (Central Library)","stop_id":"S179"},"type":"Feature"},{"geometry":{"coordinates":[-108.46202,39.09167],"type":"Point"},"properties":{"kind":"stop","name":"Patterson Road east of Conestoga Circle","stop_id":"S18"},"type":"Feature"},{"geometry":{"coordinates":[-108.56696,39.06737],"type":"Point"},"properties":{"kind":"stop","name":"Main Street west of 4th Street","stop_id":"S181"},"type":"Feature"},{"geometry":{"coordinates":[-108.56624,39.07296],"type":"Point"},"properties":{"kind":"stop","name":"4th Street south of Gunnison Avenue","stop_id":"S182"},"type":"Feature"},{"geometry":{"coordinates":[-108.5503,39.07726],"type":"Point"},"properties":{"kind":"stop","name":"North Avenue east of 12th Street (Stocker Stadium)","stop_id":"S183"},"type":"Feature"},{"geometry":{"coordinates":[-108.56702,39.06727],"type":"Point"},"properties":{"kind":"stop","name":"Main Street east of 3rd Street","stop_id":"S186"},"type":"Feature"},{"geometry":{"coordinates":[-108.56532,39.06728],"type":"Point"},"properties":{"kind":"stop","name":"Main Street east of 4th Street","stop_id":"S187"},"type":"Feature"},{"geometry":{"coordinates":[-108.56527,39.06735],"type":"Point"},"properties":{"kind":"stop","name":"Main Street west of 5th Street","stop_id":"S188"},"type":"Feature"},{"geometry":{"coordinates":[-108.45957,39.0894],"type":"Point"},"properties":{"kind":"stop","name":"32 Road south of Patterson Road (Clifton Library)","stop_id":"S19"},"type":"Feature"},{"geometry":{"coordinates":[-108.56363,39.06726],"type":"Point"},"properties":{"kind":"stop","name":"Main Street east of 5th Street","stop_id":"S190"},"type":"Feature"},{"geometry":{"coordinates":[-108.55845,39.08468],"type":"Point"},"properties":{"kind":"stop","name":"Orchard Avenue west of 9th Street","stop_id":"S191"},"type":"Feature"},{"geometry":{"coordinates":[-108.55054,39.07024],"type":"Point"},"properties":{"kind":"stop","name":"Grand Avenue east of 13th Street","stop_id":"S192"},"type":"Feature"},{"geometry":{"coordinates":[-108.55104,39.07038],"type":"Point"},"properties":{"kind":"stop","name":"Grand Avenue west of 13th Street","stop_id":"S193"},"type":"Feature"},{"geometry":{"coordinates":[-108.54739,39.07013],"type":"Point"},"properties":{"kind":"stop","name":"Grand Avenue east of 15th Street","stop_id":"S194"},"type":"Feature"},{"geometry":{"coordinates":[-108.54789,39.07038],"type":"Point"},"properties":{"kind":"stop","name":"Grand Avenue west of 15th Street","stop_id":"S195"},"type":"Feature"},{"geometry":{"coordinates":[-108.56357,39.06736],"type":"Point"},"properties":{"kind":"stop","name":"Main Street west of 6th Street","stop_id":"S197"},"type":"Feature"},{"geometry":{"coordinates":[-108.53894,39.07007],"type":"Point"},"properties":{"kind":"stop","name":"Grand Avenue east of 22nd Street (R-5 High School)","stop_id":"S198"},"type":"Feature"},{"geometry":{"coordinates":[-108.53998,39.0702],"type":"Point"},"properties":{"kind":"stop","name":"Grand Avenue west of 22nd Street (R-5 High School)","stop_id":"S199"},"type":"Feature"},{"geometry":{"coordinates":[-108.52063,39.0919],"type":"Point"},"properties":{"kind":"stop","name":"Patterson Road east of 28 \u00be Road","stop_id":"S2"},"type":"Feature"},{"geometry":{"coordinates":[-108.46189,39.08592],"type":"Point"},"properties":{"kind":"stop","name":"E \u00bd Road west of 32 Road (Coronado Plaza)","stop_id":"S20"},"type":"Feature"},{"geometry":{"coordinates":[-108.53747,39.07137],"type":"Point"},"properties":{"kind":"stop","name":"24th Street south of Ouray Avenue","stop_id":"S200"},"type":"Feature"},{"geometry":{"coordinates":[-108.53729,39.07181],"type":"Point"},"properties":{"kind":"stop","name":"24th Street north of Ouray Avenue","stop_id":"S201"},"type":"Feature"},{"geometry":{"coordinates":[-108.53729,39.07484],"type":"Point"},"properties":{"kind":"stop","name":"24th Street south of Teller Avenue","stop_id":"S202"},"type":"Feature"},{"geometry":{"coordinates":[-108.53745,39.07484],"type":"Point"},"properties":{"kind":"stop","name":"24th Street south of Teller Avenue","stop_id":"S203"},"type":"Feature"},{"geometry":{"coordinates":[-108.5383,39.07668],"type":"Point"},"properties":{"kind":"stop","name":"23rd Street south of North Avenue (Veterans Hospital)","stop_id":"S204"},"type":"Feature"},{"geometry":{"coordinates":[-108.53853,39.07638],"type":"Point"},"properties":{"kind":"stop","name":"23rd Street south of North Avenue (Veterans Hospital)","stop_id":"S205"},"type":"Feature"},{"geometry":{"coordinates":[-108.5055,39.0917],"type":"Point"},"properties":{"kind":"stop","name":"Patterson Road east of 29 \u00bd Road","stop_id":"S206"},"type":"Feature"},{"geometry":{"coordinates":[-108.50515,39.09191],"type":"Point"},"properties":{"kind":"stop","name":"Patterson Road east of 29 \u00bd Road","stop_id":"S207"},"type":"Feature"},{"geometry":{"coordinates":[-108.51148,39.09191],"type":"Point"},"properties":{"kind":"stop","name":"Patterson Road west of Cris Mar Drive","stop_id":"S208"},"type":"Feature"},{"geometry":{"coordinates":[-108.51562,39.09194],"type":"Point"},"properties":{"kind":"stop","name":"Patterson Road west of 29 Road (Safeway)","stop_id":"S209"},"type":"Feature"},{"geometry":{"coordinates":[-108.48141,39.08462],"type":"Point"},"properties":{"kind":"stop","name":"E \u00bd Road west of 31 Road","stop_id":"S21"},"type":"Feature"},{"geometry":{"coordinates":[-108.51441,39.0917],"type":"Point"},"properties":{"kind":"stop","name":"Patterson Road east of 29 Road (Safeway)","stop_id":"S210"},"type":"Feature"},{"geometry":{"coordinates":[-108.56194,39.06728],"type":"Point"},"properties":{"kind":"stop","name":"Main Street east of 6th Street","stop_id":"S211"},"type":"Feature"},{"geometry":{"coordinates":[-108.59805,39.09552],"type":"Point"},"properties":{"kind":"stop","name":"F \u00bc Road at Goodwill","stop_id":"S212"},"type":"Feature"},{"geometry":{"coordinates":[-108.53921,39.09189],"type":"Point"},"properties":{"kind":"stop","name":"Patterson Road west of Beechwood Street","stop_id":"S213"},"type":"Feature"},{"geometry":{"coordinates":[-108.58009,39.09295],"type":"Point"},"properties":{"kind":"stop","name":"25 \u00bd Road south of Dewey Place","stop_id":"S214"},"type":"Feature"},{"geometry":{"coordinates":[-108.58027,39.0932],"type":"Point"},"properties":{"kind":"stop","name":"25 \u00bd Road north of Patterson Road","stop_id":"S215"},"type":"Feature"},{"geometry":{"coordinates":[-108.58243,39.09691],"type":"Point"},"properties":{"kind":"stop","name":"Blichmann Avenue east of Hollingsworth Street (Xcel Energy)","stop_id":"S216"},"type":"Feature"},{"geometry":{"coordinates":[-108.56157,39.04864],"type":"Point"},"properties":{"kind":"stop","name":"Unaweep Avenue west of Aspen Street","stop_id":"S217"},"type":"Feature"},{"geometry":{"coordinates":[-108.55747,39.04844],"type":"Point"},"properties":{"kind":"stop","name":"Unaweep Avenue west of Linden Avenue","stop_id":"S218"},"type":"Feature"},{"geometry":{"coordinates":[-108.55732,39.04861],"type":"Point"},"properties":{"kind":"stop","name":"Unaweep Avenue west of Roubideau Street","stop_id":"S219"},"type":"Feature"},{"geometry":{"coordinates":[-108.48425,39.0846],"type":"Point"},"properties":{"kind":"stop","name":"E \u00bd Road east of Sun Valley Drive","stop_id":"S22"},"type":"Feature"},{"geometry":{"coordinates":[-108.54718,39.04832],"type":"Point"},"properties":{"kind":"stop","name":"Unaweep Avenue east of 27 \u00bc Road","stop_id":"S220"},"type":"Feature"},{"geometry":{"coordinates":[-108.55013,39.04849],"type":"Point"},"properties":{"kind":"stop","name":"Unaweep Avenue west of Cedar Street","stop_id":"S221"},"type":"Feature"},{"geometry":{"coordinates":[-108.54563,39.04848],"type":"Point"},"properties":{"kind":"stop","name":"Unaweep Avenue west of 27 3/8 Road (Orchard Mesa Middle School)","stop_id":"S222"},"type":"Feature"},{"geometry":{"coordinates":[-108.543,39.04791],"type":"Point"},"properties":{"kind":"stop","name":"27 \u00bd Road south of Unaweep Avenue","stop_id":"S223"},"type":"Feature"},{"geometry":{"coordinates":[-108.54296,39.04446],"type":"Point"},"properties":{"kind":"stop","name":"27 \u00bd Road north of Sunshine Lane","stop_id":"S224"},"type":"Feature"},{"geometry":{"coordinates":[-108.53837,39.03977],"type":"Point"},"properties":{"kind":"stop","name":"27 \u00be Road south of B \u00bd Road  (City Market)","stop_id":"S225"},"type":"Feature"},{"geometry":{"coordinates":[-108.56668,39.05025],"type":"Point"},"properties":{"kind":"stop","name":"Highway 50 north of Santa Clara Avenue","stop_id":"S226"},"type":"Feature"},{"geometry":{"coordinates":[-108.56163,39.04847],"type":"Point"},"properties":{"kind":"stop","name":"Unaweep Avenue west of Aspen Street","stop_id":"S227"},"type":"Feature"},{"geometry":{"coordinates":[-108.56256,39.08938],"type":"Point"},"properties":{"kind":"stop","name":"St. Marys Hospital (Parking Garage)","stop_id":"S228"},"type":"Feature"},{"geometry":{"coordinates":[-108.48879,39.08462],"type":"Point"},"properties":{"kind":"stop","name":"E \u00bd Road west of Grand Valley Drive","stop_id":"S23"},"type":"Feature"},{"geometry":{"coordinates":[-108.53338,39.09193],"type":"Point"},"properties":{"kind":"stop","name":"Patterson Road east of 28 Road","stop_id":"S230"},"type":"Feature"},{"geometry":{"coordinates":[-108.53072,39.09193],"type":"Point"},"properties":{"kind":"stop","name":"Patterson Road west of 28 1/4 Road (Village Park Apartments)","stop_id":"S231"},"type":"Feature"},{"geometry":{"coordinates":[-108.53,39.0917],"type":"Point"},"properties":{"kind":"stop","name":"Patterson Road west of 28 \u00bc Road (Mantey Heights)","stop_id":"S232"},"type":"Feature"},{"geometry":{"coordinates":[-108.52681,39.0917],"type":"Point"},"properties":{"kind":"stop","name":"Patterson Road east of Grand Cascade Way","stop_id":"S233"},"type":"Feature"},{"geometry":{"coordinates":[-108.51848,39.09169],"type":"Point"},"properties":{"kind":"stop","name":"Patterson Road east of West Indian Creek Drive","stop_id":"S234"},"type":"Feature"},{"geometry":{"coordinates":[-108.5125,39.07721],"type":"Point"},"properties":{"kind":"stop","name":"North Avenue east of 29 Road","stop_id":"S235"},"type":"Feature"},{"geometry":{"coordinates":[-108.598,39.09539],"type":"Point"},"properties":{"kind":"stop","name":"F \u00bc Road accross from Goodwill","stop_id":"S236"},"type":"Feature"},{"geometry":{"coordinates":[-108.55355,39.09197],"type":"Point"},"properties":{"kind":"stop","name":"Patterson Road west of 12th Street (Life Center)","stop_id":"S237"},"type":"Feature"},{"geometry":{"coordinates":[-108.58202,39.09677],"type":"Point"},"properties":{"kind":"stop","name":"Blichmann Avenue east of Hollingsworth Street (Excel Energy)","stop_id":"S238"},"type":"Feature"},{"geometry":{"coordinates":[-108.60645,39.09693],"type":"Point"},"properties":{"kind":"stop","name":"Market Street at City Market","stop_id":"S239"},"type":"Feature"},{"geometry":{"coordinates":[-108.49246,39.08462],"type":"Point"},"properties":{"kind":"stop","name":"E \u00bd Road and Peachwood Drive","stop_id":"S24"},"type":"Feature"},{"geometry":{"coordinates":[-108.60077,39.09476],"type":"Point"},"properties":{"kind":"stop","name":"Patterson Road at Home Depot","stop_id":"S240"},"type":"Feature"},{"geometry":{"coordinates":[-108.60682,39.09903],"type":"Point"},"properties":{"kind":"stop","name":"F \u00bd Road east of 24 Road","stop_id":"S241"},"type":"Feature"},{"geometry":{"coordinates":[-108.62574,39.10635],"type":"Point"},"properties":{"kind":"stop","name":"G Road east of 23 Road","stop_id":"S242"},"type":"Feature"},{"geometry":{"coordinates":[-108.62566,39.10623],"type":"Point"},"properties":{"kind":"stop","name":"G Road east of 23 Road","stop_id":"S243"},"type":"Feature"},{"geometry":{"coordinates":[-108.53421,39.04123],"type":"Point"},"properties":{"kind":"stop","name":"B \u00bd Road west of 28 Road","stop_id":"S244"},"type":"Feature"},{"geometry":{"coordinates":[-108.56188,39.06735],"type":"Point"},"properties":{"kind":"stop","name":"Main Street west of 7th Street","stop_id":"S245"},"type":"Feature"},{"geometry":{"coordinates":[-108.45975,39.069],"type":"Point"},"properties":{"kind":"stop","name":"32 Road south of D \u00bd Road","stop_id":"S247"},"type":"Feature"},{"geometry":{"coordinates":[-108.54292,39.04206],"type":"Point"},"properties":{"kind":"stop","name":"27 \u00bd Road north of B \u00bd Road","stop_id":"S249"},"type":"Feature"},{"geometry":{"coordinates":[-108.46477,39.0919],"type":"Point"},"properties":{"kind":"stop","name":"Patterson Road west of Entrada Street","stop_id":"S25"},"type":"Feature"},{"geometry":{"coordinates":[-108.72338,39.15881],"type":"Point"},"properties":{"kind":"stop","name":"Aspen Street east of Sycamore Street","stop_id":"S251"},"type":"Feature"},{"geometry":{"coordinates":[-108.53844,39.08467],"type":"Point"},"properties":{"kind":"stop","name":"Orchard Avenue west of 23rd Street","stop_id":"S252"},"type":"Feature"},{"geometry":{"coordinates":[-108.53803,39.08452],"type":"Point"},"properties":{"kind":"stop","name":"Orchard Avenue east of 23rd Street","stop_id":"S253"},"type":"Feature"},{"geometry":{"coordinates":[-108.56363,39.07043],"type":"Point"},"properties":{"kind":"stop","name":"Grand Avenue east of 5th Street (Central Library)","stop_id":"S254"},"type":"Feature"},{"geometry":{"coordinates":[-108.56112,39.08093],"type":"Point"},"properties":{"kind":"stop","name":"7th Street at Elm Avenue","stop_id":"S255"},"type":"Feature"},{"geometry":{"coordinates":[-108.53979,39.07724],"type":"Point"},"properties":{"kind":"stop","name":"North Avenue west of 23rd Street (Veterans Hospital)","stop_id":"S256"},"type":"Feature"},{"geometry":{"coordinates":[-108.45938,39.06485],"type":"Point"},"properties":{"kind":"stop","name":"32 Road north of Candlewood (C & F Food Store)","stop_id":"S257"},"type":"Feature"},{"geometry":{"coordinates":[-108.49412,39.0845],"type":"Point"},"properties":{"kind":"stop","name":"Orchard Avenue east of 30 Road","stop_id":"S26"},"type":"Feature"},{"geometry":{"coordinates":[-108.57335,39.07166],"type":"Point"},"properties":{"kind":"stop","name":"Mulberry Street north of West Ouray Avenue","stop_id":"S261"},"type":"Feature"},{"geometry":{"coordinates":[-108.59346,39.08545],"type":"Point"},"properties":{"kind":"stop","name":"24 \u00be Road north of Highway 6 and  50 (Grand Mesa Center)","stop_id":"S262"},"type":"Feature"},{"geometry":{"coordinates":[-108.55956,39.08994],"type":"Point"},"properties":{"kind":"stop","name":"750 Wellington Avenue (Surgical Center and Dialysis)","stop_id":"S263"},"type":"Feature"},{"geometry":{"coordinates":[-108.73737,39.15046],"type":"Point"},"properties":{"kind":"stop","name":"Kokopelli Boulevard east of Highway 340","stop_id":"S264"},"type":"Feature"},{"geometry":{"coordinates":[-108.57192,39.06839],"type":"Point"},"properties":{"kind":"stop","name":"Rood Avenue west of 1st Street","stop_id":"S265"},"type":"Feature"},{"geometry":{"coordinates":[-108.45286,39.06996],"type":"Point"},"properties":{"kind":"stop","name":"D \u00bd Road east of 32 \u215c Road (Rocky Mountain Elementary)","stop_id":"S266"},"type":"Feature"},{"geometry":{"coordinates":[-108.45287,39.07011],"type":"Point"},"properties":{"kind":"stop","name":"D \u00bd Road west of Carson Lake Drive","stop_id":"S267"},"type":"Feature"},{"geometry":{"coordinates":[-108.54786,39.09333],"type":"Point"},"properties":{"kind":"stop","name":"15th Street south of Hermosa Avenue (Larchwood)","stop_id":"S268"},"type":"Feature"},{"geometry":{"coordinates":[-108.51496,39.06323],"type":"Point"},"properties":{"kind":"stop","name":"29 Road north of D Road (Maverick)","stop_id":"S269"},"type":"Feature"},{"geometry":{"coordinates":[-108.48755,39.08449],"type":"Point"},"properties":{"kind":"stop","name":"E \u00bd Road East of Grand Valley Drive","stop_id":"S27"},"type":"Feature"},{"geometry":{"coordinates":[-108.55747,39.08455],"type":"Point"},"properties":{"kind":"stop","name":"Orchard Avenue west of Cannell Street","stop_id":"S271"},"type":"Feature"},{"geometry":{"coordinates":[-108.57716,39.07419],"type":"Point"},"properties":{"kind":"stop","name":"Maldonado Street north of Gunnison Avenue (Mesa Fitness)","stop_id":"S272"},"type":"Feature"},{"geometry":{"coordinates":[-108.57735,39.07357],"type":"Point"},"properties":{"kind":"stop","name":"Maldonado Street south of American Way","stop_id":"S273"},"type":"Feature"},{"geometry":{"coordinates":[-108.58039,39.07853],"type":"Point"},"properties":{"kind":"stop","name":"Rimrock Avenue accross from Walmart","stop_id":"S274"},"type":"Feature"},{"geometry":{"coordinates":[-108.58326,39.07837],"type":"Point"},"properties":{"kind":"stop","name":"Rim Rock Avenue at Lowe's","stop_id":"S275"},"type":"Feature"},{"geometry":{"coordinates":[-108.54312,39.04755],"type":"Point"},"properties":{"kind":"stop","name":"27 \u00bd Road south of Unaweep Avenue","stop_id":"S276"},"type":"Feature"},{"geometry":{"coordinates":[-108.55688,39.04535],"type":"Point"},"properties":{"kind":"stop","name":"Linden Avenue north of B \u00be Road (Linden Point)","stop_id":"S277"},"type":"Feature"},{"geometry":{"coordinates":[-108.55244,39.04662],"type":"Point"},"properties":{"kind":"stop","name":"27 Road north of Milo Drive","stop_id":"S278"},"type":"Feature"},{"geometry":{"coordinates":[-108.55227,39.0965],"type":"Point"},"properties":{"kind":"stop","name":"12th Street at Fairmont Medical Plaza","stop_id":"S279"},"type":"Feature"},{"geometry":{"coordinates":[-108.48409,39.08448],"type":"Point"},"properties":{"kind":"stop","name":"E \u00bd Road east of East Valley Drive","stop_id":"S28"},"type":"Feature"},{"geometry":{"coordinates":[-108.55138,39.10207],"type":"Point"},"properties":{"kind":"stop","name":"Horizon Drive east of 12th Street (Safeway)","stop_id":"S280"},"type":"Feature"},{"geometry":{"coordinates":[-108.55716,39.0899],"type":"Point"},"properties":{"kind":"stop","name":"Wellington Avenue east of 8th Street","stop_id":"S281"},"type":"Feature"},{"geometry":{"coordinates":[-108.55982,39.09009],"type":"Point"},"properties":{"kind":"stop","name":"750 Wellington Avenue (Surgical Center and Dialysis)","stop_id":"S282"},"type":"Feature"},{"geometry":{"coordinates":[-108.55855,39.07728],"type":"Point"},"properties":{"kind":"stop","name":"North Avenue east of 8th Street","stop_id":"S283"},"type":"Feature"},{"geometry":{"coordinates":[-108.60208,39.09047],"type":"Point"},"properties":{"kind":"stop","name":"Mesa Mall at Cabelas (no sign)","stop_id":"S284"},"type":"Feature"},{"geometry":{"coordinates":[-108.51529,39.06341],"type":"Point"},"properties":{"kind":"stop","name":"29 Road north of D Road (Maverick)","stop_id":"S285"},"type":"Feature"},{"geometry":{"coordinates":[-108.51539,39.07627],"type":"Point"},"properties":{"kind":"stop","name":"29 Road south of North Avenue","stop_id":"S286"},"type":"Feature"},{"geometry":{"coordinates":[-108.73765,39.1588],"type":"Point"},"properties":{"kind":"stop","name":"Aspen Avenue east of Coulson Avenue","stop_id":"S287"},"type":"Feature"},{"geometry":{"coordinates":[-108.57107,39.06588],"type":"Point"},"properties":{"kind":"stop","name":"1st Street and Pitkin Avenue (Catholic Outreach)","stop_id":"S288"},"type":"Feature"},{"geometry":{"coordinates":[-108.48071,39.08449],"type":"Point"},"properties":{"kind":"stop","name":"E \u00bd Road east of Hoover Court","stop_id":"S29"},"type":"Feature"},{"geometry":{"coordinates":[-108.55433,39.08451],"type":"Point"},"properties":{"kind":"stop","name":"Orchard Avenue west of 12th Street (Colorado Mesa University Tennis Courts)","stop_id":"S290"},"type":"Feature"},{"geometry":{"coordinates":[-108.54959,39.0775],"type":"Point"},"properties":{"kind":"stop","name":"North Avenue west of 14th Street","stop_id":"S291"},"type":"Feature"},{"geometry":{"coordinates":[-108.5167,39.07744],"type":"Point"},"properties":{"kind":"stop","name":"North Avenue west of 29 Road (Big O Tires)","stop_id":"S292"},"type":"Feature"},{"geometry":{"coordinates":[-108.73833,39.15152],"type":"Point"},"properties":{"kind":"stop","name":"Highway 340 south of Jurassic Avenue (Dinosaur Museum)","stop_id":"S293"},"type":"Feature"},{"geometry":{"coordinates":[-108.55249,39.0439],"type":"Point"},"properties":{"kind":"stop","name":"27 Road south of B 3/4 Road (Orchard Mesa Maverick)","stop_id":"S294"},"type":"Feature"},{"geometry":{"coordinates":[-108.5802,39.06756],"type":"Point"},"properties":{"kind":"stop","name":"Highway 340 west of West Avenue (Riverside)","stop_id":"S295"},"type":"Feature"},{"geometry":{"coordinates":[-108.71962,39.16367],"type":"Point"},"properties":{"kind":"stop","name":"Pine Street south of Ottley Avenue","stop_id":"S296"},"type":"Feature"},{"geometry":{"coordinates":[-108.7196,39.15704],"type":"Point"},"properties":{"kind":"stop","name":"Pine Street north of Carolina Avenue","stop_id":"S297"},"type":"Feature"},{"geometry":{"coordinates":[-108.71844,39.14803],"type":"Point"},"properties":{"kind":"stop","name":"Highway 6 and 50 east of Pine Street (Fruita High School)","stop_id":"S298"},"type":"Feature"},{"geometry":{"coordinates":[-108.71963,39.15925],"type":"Point"},"properties":{"kind":"stop","name":"Pine Street north of Aspen Avenue","stop_id":"S299"},"type":"Feature"},{"geometry":{"coordinates":[-108.47057,39.09189],"type":"Point"},"properties":{"kind":"stop","name":"Patterson Road east of Orchard Run Drive","stop_id":"S3"},"type":"Feature"},{"geometry":{"coordinates":[-108.47436,39.08465],"type":"Point"},"properties":{"kind":"stop","name":"E \u00bd Road west of Warrior Way (Long Family Memorial Park and Walmart)","stop_id":"S30"},"type":"Feature"},{"geometry":{"coordinates":[-108.71957,39.15289],"type":"Point"},"properties":{"kind":"stop","name":"Pine Street south of Kiefer Avenue (Dollar General)","stop_id":"S300"},"type":"Feature"},{"geometry":{"coordinates":[-108.71981,39.15649],"type":"Point"},"properties":{"kind":"stop","name":"Pine Street north of Carolina Avenue","stop_id":"S306"},"type":"Feature"},{"geometry":{"coordinates":[-108.71981,39.15289],"type":"Point"},"properties":{"kind":"stop","name":"Pine Street north of Kiefer Avenue","stop_id":"S307"},"type":"Feature"},{"geometry":{"coordinates":[-108.64238,39.10996],"type":"Point"},"properties":{"kind":"stop","name":"Highway 6 and 50 south of I-70  (Red Roof Inn)","stop_id":"S308"},"type":"Feature"},{"geometry":{"coordinates":[-108.45962,39.08102],"type":"Point"},"properties":{"kind":"stop","name":"32 Road north of Kennedy Avenue","stop_id":"S31"},"type":"Feature"},{"geometry":{"coordinates":[-108.50577,39.08278],"type":"Point"},"properties":{"kind":"stop","name":"29 \u00bd Road south of Mesa Avenue","stop_id":"S312"},"type":"Feature"},{"geometry":{"coordinates":[-108.73842,39.1618],"type":"Point"},"properties":{"kind":"stop","name":"Coulson Street at Independence Village","stop_id":"S314"},"type":"Feature"},{"geometry":{"coordinates":[-108.72925,39.1588],"type":"Point"},"properties":{"kind":"stop","name":"Aspen Street east of Elm Street (Chamber Of Commerce)","stop_id":"S315"},"type":"Feature"},{"geometry":{"coordinates":[-108.71981,39.14972],"type":"Point"},"properties":{"kind":"stop","name":"Pine Street north of Highway 6 And 50 (Car Wash)","stop_id":"S317"},"type":"Feature"},{"geometry":{"coordinates":[-108.34919,39.11021],"type":"Point"},"properties":{"kind":"stop","name":"3rd Street east of Main Street","stop_id":"S319"},"type":"Feature"},{"geometry":{"coordinates":[-108.59528,39.08521],"type":"Point"},"properties":{"kind":"stop","name":"Frontage Road west of 24 \u00be Road","stop_id":"S32"},"type":"Feature"},{"geometry":{"coordinates":[-108.35731,39.11224],"type":"Point"},"properties":{"kind":"stop","name":"1st Street east of Majestic Court (by the brick wall)","stop_id":"S320"},"type":"Feature"},{"geometry":{"coordinates":[-108.55885,39.08831],"type":"Point"},"properties":{"kind":"stop","name":"Bookcliff Avenue west of Little Bookcliff Drive (Highlands)","stop_id":"S321"},"type":"Feature"},{"geometry":{"coordinates":[-108.36933,39.10564],"type":"Point"},"properties":{"kind":"stop","name":"Highway 6 at Palisade High School (Inside Parking Lot)","stop_id":"S322"},"type":"Feature"},{"geometry":{"coordinates":[-108.35853,39.10217],"type":"Point"},"properties":{"kind":"stop","name":"Fairhaven Road west of Logan Street (Riverbend Park)","stop_id":"S323"},"type":"Feature"},{"geometry":{"coordinates":[-108.35583,39.10178],"type":"Point"},"properties":{"kind":"stop","name":"Iowa Avenue north of Pendleton Street","stop_id":"S324"},"type":"Feature"},{"geometry":{"coordinates":[-108.35055,39.11217],"type":"Point"},"properties":{"kind":"stop","name":"1st Street east of Main Street","stop_id":"S325"},"type":"Feature"},{"geometry":{"coordinates":[-108.34844,39.11156],"type":"Point"},"properties":{"kind":"stop","name":"Bower Avenue north of 2nd Street","stop_id":"S326"},"type":"Feature"},{"geometry":{"coordinates":[-108.35574,39.10355],"type":"Point"},"properties":{"kind":"stop","name":"Upper Iowa Avenue","stop_id":"S327"},"type":"Feature"},{"geometry":{"coordinates":[-108.41177,39.09177],"type":"Point"},"properties":{"kind":"stop","name":"F Road east of 34 \u00bd Road (Peachtree/Blossom Care Center)","stop_id":"S328"},"type":"Feature"},{"geometry":{"coordinates":[-108.4039,39.09421],"type":"Point"},"properties":{"kind":"stop","name":"35 Road south of Highway 6","stop_id":"S329"},"type":"Feature"},{"geometry":{"coordinates":[-108.50537,39.07743],"type":"Point"},"properties":{"kind":"stop","name":"North Avenue east of 29 \u00bd Road (Community Services Campus)","stop_id":"S33"},"type":"Feature"},{"geometry":{"coordinates":[-108.36032,39.1102],"type":"Point"},"properties":{"kind":"stop","name":"Elberta Street north of Crawford Lane","stop_id":"S330"},"type":"Feature"},{"geometry":{"coordinates":[-108.36038,39.10679],"type":"Point"},"properties":{"kind":"stop","name":"Elberta Street north of Highway 6 (Dollar General)","stop_id":"S331"},"type":"Feature"},{"geometry":{"coordinates":[-108.36055,39.10573],"type":"Point"},"properties":{"kind":"stop","name":"Elberta Avenue south of Frontage Road","stop_id":"S332"},"type":"Feature"},{"geometry":{"coordinates":[-108.55244,39.09991],"type":"Point"},"properties":{"kind":"stop","name":"12th Street at Northwood Apartments","stop_id":"S333"},"type":"Feature"},{"geometry":{"coordinates":[-108.55252,39.09659],"type":"Point"},"properties":{"kind":"stop","name":"12th Street and Lakeside Drive","stop_id":"S334"},"type":"Feature"},{"geometry":{"coordinates":[-108.55225,39.0979],"type":"Point"},"properties":{"kind":"stop","name":"12th Street at Atrium","stop_id":"S335"},"type":"Feature"},{"geometry":{"coordinates":[-108.51283,39.06285],"type":"Point"},"properties":{"kind":"stop","name":"D Road east of 29 Road (Maverick)","stop_id":"S336"},"type":"Feature"},{"geometry":{"coordinates":[-108.52024,39.08457],"type":"Point"},"properties":{"kind":"stop","name":"Orchard Avenue west of 28 \u00be Road","stop_id":"S337"},"type":"Feature"},{"geometry":{"coordinates":[-108.35205,39.10711],"type":"Point"},"properties":{"kind":"stop","name":"Kluge Avenue at 7th Street","stop_id":"S338"},"type":"Feature"},{"geometry":{"coordinates":[-108.42236,39.09315],"type":"Point"},"properties":{"kind":"stop","name":"34 Road south of Highway 6","stop_id":"S339"},"type":"Feature"},{"geometry":{"coordinates":[-108.51499,39.07626],"type":"Point"},"properties":{"kind":"stop","name":"29 Road south of North Avenue","stop_id":"S34"},"type":"Feature"},{"geometry":{"coordinates":[-108.55044,39.09174],"type":"Point"},"properties":{"kind":"stop","name":"Patterson Road east of 12th Street (City Market)","stop_id":"S343"},"type":"Feature"},{"geometry":{"coordinates":[-108.50417,39.08451],"type":"Point"},"properties":{"kind":"stop","name":"Orchard Avenue east of 29 \u00bd Road","stop_id":"S344"},"type":"Feature"},{"geometry":{"coordinates":[-108.58798,39.09678],"type":"Point"},"properties":{"kind":"stop","name":"Blichmann Avenue east of 25 Road (Western Colorado Community College Inbound)","stop_id":"S345"},"type":"Feature"},{"geometry":{"coordinates":[-108.46562,39.09167],"type":"Point"},"properties":{"kind":"stop","name":"Patterson Road west of Ford Street","stop_id":"S347"},"type":"Feature"},{"geometry":{"coordinates":[-108.44219,39.08448],"type":"Point"},"properties":{"kind":"stop","name":"E 1/2 Road west of Honeycomb Lane","stop_id":"S348"},"type":"Feature"},{"geometry":{"coordinates":[-108.46383,39.06287],"type":"Point"},"properties":{"kind":"stop","name":"D Road west of Roberts Road","stop_id":"S35"},"type":"Feature"},{"geometry":{"coordinates":[-108.45596,39.07721],"type":"Point"},"properties":{"kind":"stop","name":"E Road east of Green Acres Street","stop_id":"S350"},"type":"Feature"},{"geometry":{"coordinates":[-108.45013,39.0779],"type":"Point"},"properties":{"kind":"stop","name":"32 \u00bd Road north of E Road","stop_id":"S351"},"type":"Feature"},{"geometry":{"coordinates":[-108.72428,39.1644],"type":"Point"},"properties":{"kind":"stop","name":"Ottley Avenue east of Sycamore Street","stop_id":"S354"},"type":"Feature"},{"geometry":{"coordinates":[-108.55226,39.07934],"type":"Point"},"properties":{"kind":"stop","name":"12th Street north of Bunting Street (Colorado Mesa University)","stop_id":"S357"},"type":"Feature"},{"geometry":{"coordinates":[-108.72851,39.16441],"type":"Point"},"properties":{"kind":"stop","name":"Ottley Avenue east of Maple Street","stop_id":"S358"},"type":"Feature"},{"geometry":{"coordinates":[-108.55947,39.09173],"type":"Point"},"properties":{"kind":"stop","name":"Patterson Road and 9th Street (St. Mary's Pavilion)","stop_id":"S359"},"type":"Feature"},{"geometry":{"coordinates":[-108.47602,39.0629],"type":"Point"},"properties":{"kind":"stop","name":"D Road east of Crystal Drive","stop_id":"S36"},"type":"Feature"},{"geometry":{"coordinates":[-108.5575,39.09197],"type":"Point"},"properties":{"kind":"stop","name":"Patterson Road west of 26 \u00be Road (by the ATM)","stop_id":"S360"},"type":"Feature"},{"geometry":{"coordinates":[-108.55698,39.09005],"type":"Point"},"properties":{"kind":"stop","name":"Wellington Avenue west of Little Bookcliff Drive","stop_id":"S361"},"type":"Feature"},{"geometry":{"coordinates":[-108.56091,39.06604],"type":"Point"},"properties":{"kind":"stop","name":"7th Street south of Colorado Avenue (Enstrom's)","stop_id":"S363"},"type":"Feature"},{"geometry":{"coordinates":[-108.55919,39.06722],"type":"Point"},"properties":{"kind":"stop","name":"Main Street east of 8th Street (Ratekin Towers)","stop_id":"S364"},"type":"Feature"},{"geometry":{"coordinates":[-108.55915,39.06739],"type":"Point"},"properties":{"kind":"stop","name":"Main Street east of 8th Street (Ratekin Towers)","stop_id":"S365"},"type":"Feature"},{"geometry":{"coordinates":[-108.55248,39.08895],"type":"Point"},"properties":{"kind":"stop","name":"12th Street north of Bookcliff Avenue","stop_id":"S366"},"type":"Feature"},{"geometry":{"coordinates":[-108.55224,39.08296],"type":"Point"},"properties":{"kind":"stop","name":"12th Street south of Orchard Avenue","stop_id":"S367"},"type":"Feature"},{"geometry":{"coordinates":[-108.5541,39.06722],"type":"Point"},"properties":{"kind":"stop","name":"Main Street East of 11th Street","stop_id":"S368"},"type":"Feature"},{"geometry":{"coordinates":[-108.55233,39.06977],"type":"Point"},"properties":{"kind":"stop","name":"12th Street south of Grand Avenue","stop_id":"S369"},"type":"Feature"},{"geometry":{"coordinates":[-108.55225,39.09404],"type":"Point"},"properties":{"kind":"stop","name":"12th Street north of Hermosa Avenue","stop_id":"S371"},"type":"Feature"},{"geometry":{"coordinates":[-108.55247,39.094],"type":"Point"},"properties":{"kind":"stop","name":"12th Street at Mesa Manor Care Center","stop_id":"S372"},"type":"Feature"},{"geometry":{"coordinates":[-108.54523,39.07006],"type":"Point"},"properties":{"kind":"stop","name":"Grand Avenue east of 17th Street","stop_id":"S373"},"type":"Feature"},{"geometry":{"coordinates":[-108.56813,39.06545],"type":"Point"},"properties":{"kind":"stop","name":"Ute Ave west of 3rd Street","stop_id":"S374"},"type":"Feature"},{"geometry":{"coordinates":[-108.56712,39.06432],"type":"Point"},"properties":{"kind":"stop","name":"Pitkin Ave east of 3rd Street","stop_id":"S375"},"type":"Feature"},{"geometry":{"coordinates":[-108.5545,39.06739],"type":"Point"},"properties":{"kind":"stop","name":"Main Street west of 11th Street","stop_id":"S376"},"type":"Feature"},{"geometry":{"coordinates":[-108.58843,39.0918],"type":"Point"},"properties":{"kind":"stop","name":"Patterson Road east of 25 Road","stop_id":"S377"},"type":"Feature"},{"geometry":{"coordinates":[-108.57169,39.09172],"type":"Point"},"properties":{"kind":"stop","name":"Patterson Road west of 1st Street","stop_id":"S379"},"type":"Feature"},{"geometry":{"coordinates":[-108.45923,39.07501],"type":"Point"},"properties":{"kind":"stop","name":"32 Road and Hill Ave","stop_id":"S38"},"type":"Feature"},{"geometry":{"coordinates":[-108.56454,39.09171],"type":"Point"},"properties":{"kind":"stop","name":"Patterson Road at St. Mary's Hospital (west of entrance)","stop_id":"S380"},"type":"Feature"},{"geometry":{"coordinates":[-108.55481,39.09175],"type":"Point"},"properties":{"kind":"stop","name":"Patterson Road west of 12th Street","stop_id":"S381"},"type":"Feature"},{"geometry":{"coordinates":[-108.54384,39.09397],"type":"Point"},"properties":{"kind":"stop","name":"Hermosa Avenue west of 27 \u00bd Road (The Commons)","stop_id":"S382"},"type":"Feature"},{"geometry":{"coordinates":[-108.56218,39.09197],"type":"Point"},"properties":{"kind":"stop","name":"Patterson Road west of 7th Street (St. Mary's Hospital)","stop_id":"S383"},"type":"Feature"},{"geometry":{"coordinates":[-108.57152,39.092],"type":"Point"},"properties":{"kind":"stop","name":"Patterson Road west of 1st Street","stop_id":"S384"},"type":"Feature"},{"geometry":{"coordinates":[-108.57935,39.092],"type":"Point"},"properties":{"kind":"stop","name":"Patterson Road east of 25 \u00bd Road","stop_id":"S385"},"type":"Feature"},{"geometry":{"coordinates":[-108.58622,39.092],"type":"Point"},"properties":{"kind":"stop","name":"Patterson Road east of Foresight Circle","stop_id":"S386"},"type":"Feature"},{"geometry":{"coordinates":[-108.59327,39.09203],"type":"Point"},"properties":{"kind":"stop","name":"Patterson Road at Patterson Village Square","stop_id":"S387"},"type":"Feature"},{"geometry":{"coordinates":[-108.57935,39.09175],"type":"Point"},"properties":{"kind":"stop","name":"Patterson Road east of 25 \u00bd Road","stop_id":"S388"},"type":"Feature"},{"geometry":{"coordinates":[-108.45928,39.07855],"type":"Point"},"properties":{"kind":"stop","name":"32 Road north of E Road (Corner Store)","stop_id":"S39"},"type":"Feature"},{"geometry":{"coordinates":[-108.4225,39.09334],"type":"Point"},"properties":{"kind":"stop","name":"34 Road south of Highway 6","stop_id":"S391"},"type":"Feature"},{"geometry":{"coordinates":[-108.35404,39.10685],"type":"Point"},"properties":{"kind":"stop","name":"7th Street west of Peach Avenue (Fire Station)","stop_id":"S394"},"type":"Feature"},{"geometry":{"coordinates":[-108.55121,39.0847],"type":"Point"},"properties":{"kind":"stop","name":"Orchard Avenue east of 12th Street","stop_id":"S395"},"type":"Feature"},{"geometry":{"coordinates":[-108.4743,39.08443],"type":"Point"},"properties":{"kind":"stop","name":"E \u00bd Road west of Warrior Way (Walmart)","stop_id":"S396"},"type":"Feature"},{"geometry":{"coordinates":[-108.50578,39.08736],"type":"Point"},"properties":{"kind":"stop","name":"29 \u00bd Road north of Cedar Place","stop_id":"S397"},"type":"Feature"},{"geometry":{"coordinates":[-108.51532,39.09112],"type":"Point"},"properties":{"kind":"stop","name":"29 Road south of Patterson Road (Safeway)","stop_id":"S399"},"type":"Feature"},{"geometry":{"coordinates":[-108.45927,39.08143],"type":"Point"},"properties":{"kind":"stop","name":"32 Road and Elm Avenue","stop_id":"S40"},"type":"Feature"},{"geometry":{"coordinates":[-108.51529,39.08519],"type":"Point"},"properties":{"kind":"stop","name":"29 Road north of Orchard Avenue","stop_id":"S401"},"type":"Feature"},{"geometry":{"coordinates":[-108.51529,39.08153],"type":"Point"},"properties":{"kind":"stop","name":"29 Road south of Texas Avenue","stop_id":"S402"},"type":"Feature"},{"geometry":{"coordinates":[-108.54605,39.09171],"type":"Point"},"properties":{"kind":"stop","name":"Patterson Road east of 15th Street","stop_id":"S403"},"type":"Feature"},{"geometry":{"coordinates":[-108.5152,39.03695],"type":"Point"},"properties":{"kind":"stop","name":"29 Road south of Chipeta Golf Course Entrance","stop_id":"S404"},"type":"Feature"},{"geometry":{"coordinates":[-108.51529,39.08838],"type":"Point"},"properties":{"kind":"stop","name":"29 Road at Graff Dairy","stop_id":"S405"},"type":"Feature"},{"geometry":{"coordinates":[-108.51914,39.04122],"type":"Point"},"properties":{"kind":"stop","name":"B \u00bd Road west of 29 Road","stop_id":"S406"},"type":"Feature"},{"geometry":{"coordinates":[-108.55908,39.08815],"type":"Point"},"properties":{"kind":"stop","name":"Bookcliff Avenue east of 7th Street (Highlands)","stop_id":"S407"},"type":"Feature"},{"geometry":{"coordinates":[-108.44092,39.08161],"type":"Point"},"properties":{"kind":"stop","name":"33 Road north of San Felipe Avenue","stop_id":"S41"},"type":"Feature"},{"geometry":{"coordinates":[-108.52466,39.03555],"type":"Point"},"properties":{"kind":"stop","name":"28 \u00bd Road north of B Road","stop_id":"S411"},"type":"Feature"},{"geometry":{"coordinates":[-108.59215,39.0954],"type":"Point"},"properties":{"kind":"stop","name":"F 1/4 Road west of Mesa Canyon Lane","stop_id":"S416"},"type":"Feature"},{"geometry":{"coordinates":[-108.58799,39.09691],"type":"Point"},"properties":{"kind":"stop","name":"Blichmann Avenue east of 25 Road (Western Colorado Community College Outbound)","stop_id":"S417"},"type":"Feature"},{"geometry":{"coordinates":[-108.44816,39.08448],"type":"Point"},"properties":{"kind":"stop","name":"E 1/2 Road west of 32 5/8 Road","stop_id":"S42"},"type":"Feature"},{"geometry":{"coordinates":[-108.55648,39.07751],"type":"Point"},"properties":{"kind":"stop","name":"North Avenue east of Cannell Street (Colorado Mesa University)","stop_id":"S424"},"type":"Feature"},{"geometry":{"coordinates":[-108.59215,39.09554],"type":"Point"},"properties":{"kind":"stop","name":"F 1/4 Road west of Zenith Lane","stop_id":"S425"},"type":"Feature"},{"geometry":{"coordinates":[-108.61446,39.10626],"type":"Point"},"properties":{"kind":"stop","name":"G Road at Community Hospital","stop_id":"S427"},"type":"Feature"},{"geometry":{"coordinates":[-108.56088,39.06992],"type":"Point"},"properties":{"kind":"stop","name":"7th Street north of White Avenue","stop_id":"S428"},"type":"Feature"},{"geometry":{"coordinates":[-108.56113,39.07395],"type":"Point"},"properties":{"kind":"stop","name":"7th Street north of Gunnison Avenue","stop_id":"S429"},"type":"Feature"},{"geometry":{"coordinates":[-108.45009,39.08356],"type":"Point"},"properties":{"kind":"stop","name":"32 \u00bd Road south of E \u00bd Road","stop_id":"S43"},"type":"Feature"},{"geometry":{"coordinates":[-108.56115,39.06988],"type":"Point"},"properties":{"kind":"stop","name":"7th Street south of Grand Avenue","stop_id":"S430"},"type":"Feature"},{"geometry":{"coordinates":[-108.56091,39.07394],"type":"Point"},"properties":{"kind":"stop","name":"7th Street north of Gunnison Avenue","stop_id":"S431"},"type":"Feature"},{"geometry":{"coordinates":[-108.56117,39.07588],"type":"Point"},"properties":{"kind":"stop","name":"7th Street south of Belford Avenue","stop_id":"S432"},"type":"Feature"},{"geometry":{"coordinates":[-108.5609,39.07585],"type":"Point"},"properties":{"kind":"stop","name":"7th Street north of Teller Avenue","stop_id":"S433"},"type":"Feature"},{"geometry":{"coordinates":[-108.50387,39.07721],"type":"Point"},"properties":{"kind":"stop","name":"North Avenue east of Harmony Drive (True Value)","stop_id":"S434"},"type":"Feature"},{"geometry":{"coordinates":[-108.46968,39.0629],"type":"Point"},"properties":{"kind":"stop","name":"D Road west of 31 \u00bd Road","stop_id":"S435"},"type":"Feature"},{"geometry":{"coordinates":[-108.45553,39.06283],"type":"Point"},"properties":{"kind":"stop","name":"D Road west of Riverwood Drive","stop_id":"S438"},"type":"Feature"},{"geometry":{"coordinates":[-108.4501,39.0817],"type":"Point"},"properties":{"kind":"stop","name":"32 \u00bd Road south of Lucile Avenue","stop_id":"S44"},"type":"Feature"},{"geometry":{"coordinates":[-108.45027,39.06606],"type":"Point"},"properties":{"kind":"stop","name":"32 1/2 Road south of D 1/4 Road","stop_id":"S440"},"type":"Feature"},{"geometry":{"coordinates":[-108.49811,39.06294],"type":"Point"},"properties":{"kind":"stop","name":"D Road west of 30 Road","stop_id":"S442"},"type":"Feature"},{"geometry":{"coordinates":[-108.50464,39.0629],"type":"Point"},"properties":{"kind":"stop","name":"D Road west of Broken Arrow Drive","stop_id":"S443"},"type":"Feature"},{"geometry":{"coordinates":[-108.49667,39.082],"type":"Point"},"properties":{"kind":"stop","name":"30 Road north of Texas Avenue","stop_id":"S445"},"type":"Feature"},{"geometry":{"coordinates":[-108.49669,39.07478],"type":"Point"},"properties":{"kind":"stop","name":"30 Road north of Gunnison Avenue","stop_id":"S446"},"type":"Feature"},{"geometry":{"coordinates":[-108.47013,39.07],"type":"Point"},"properties":{"kind":"stop","name":"D \u00bd Road and Clear Creek Drive","stop_id":"S448"},"type":"Feature"},{"geometry":{"coordinates":[-108.44085,39.07773],"type":"Point"},"properties":{"kind":"stop","name":"33 Road north of E Road","stop_id":"S45"},"type":"Feature"},{"geometry":{"coordinates":[-108.54186,39.09169],"type":"Point"},"properties":{"kind":"stop","name":"Patterson Road east of 27 \u00bd Road","stop_id":"S450"},"type":"Feature"},{"geometry":{"coordinates":[-108.4476,39.09187],"type":"Point"},"properties":{"kind":"stop","name":"Highway 6 east of Lois Street (No Sign - Stop and Save)","stop_id":"S451"},"type":"Feature"},{"geometry":{"coordinates":[-108.45035,39.09022],"type":"Point"},"properties":{"kind":"stop","name":"1st Street and Grand Avenue (Peachtree Shopping Center)","stop_id":"S452"},"type":"Feature"},{"geometry":{"coordinates":[-108.4413,39.09015],"type":"Point"},"properties":{"kind":"stop","name":"Front Street west of 33 Road","stop_id":"S453"},"type":"Feature"},{"geometry":{"coordinates":[-108.44125,39.09188],"type":"Point"},"properties":{"kind":"stop","name":"Highway 6 west of 33 Road (No Sign)","stop_id":"S454"},"type":"Feature"},{"geometry":{"coordinates":[-108.73479,39.15205],"type":"Point"},"properties":{"kind":"stop","name":"Kokopelli Boulevard north of Jurassic Avenue","stop_id":"S460"},"type":"Feature"},{"geometry":{"coordinates":[-108.573,39.0696],"type":"Point"},"properties":{"kind":"stop","name":"Rice Street north of White Avenue (Mesa County Sheriff)","stop_id":"S462"},"type":"Feature"},{"geometry":{"coordinates":[-108.57318,39.07131],"type":"Point"},"properties":{"kind":"stop","name":"Mulberry Street north of West Ouray Avenue","stop_id":"S463"},"type":"Feature"},{"geometry":{"coordinates":[-108.58029,39.07718],"type":"Point"},"properties":{"kind":"stop","name":"Base Rock Road south of Rimrock Avenue (Walmart)","stop_id":"S464"},"type":"Feature"},{"geometry":{"coordinates":[-108.55077,39.10266],"type":"Point"},"properties":{"kind":"stop","name":"Horizon Drive at Safeway","stop_id":"S465"},"type":"Feature"},{"geometry":{"coordinates":[-108.50724,39.09192],"type":"Point"},"properties":{"kind":"stop","name":"Patterson Road west of 29 \u00bd Road (Maverick)","stop_id":"S466"},"type":"Feature"},{"geometry":{"coordinates":[-108.61448,39.10636],"type":"Point"},"properties":{"kind":"stop","name":"G Road across from Community Hospital","stop_id":"S471"},"type":"Feature"},{"geometry":{"coordinates":[-108.4079,39.097],"type":"Point"},"properties":{"kind":"stop","name":"Highway 6 at Mount Garfield Middle School (Inside Parking Lot)","stop_id":"S475"},"type":"Feature"},{"geometry":{"coordinates":[-108.58717,39.06712],"type":"Point"},"properties":{"kind":"stop","name":"Power Road at Safeway","stop_id":"S476"},"type":"Feature"},{"geometry":{"coordinates":[-108.59785,39.09295],"type":"Point"},"properties":{"kind":"stop","name":"West Transfer Facility","stop_id":"S478"},"type":"Feature"},{"geometry":{"coordinates":[-108.44695,39.07013],"type":"Point"},"properties":{"kind":"stop","name":"D \u00bd Road west of Pera Street (Rocky Mountain Elementary)","stop_id":"S48"},"type":"Feature"},{"geometry":{"coordinates":[-108.6315,39.10641],"type":"Point"},"properties":{"kind":"stop","name":"G Road west of Arrowest Road","stop_id":"S480"},"type":"Feature"},{"geometry":{"coordinates":[-108.65365,39.11489],"type":"Point"},"properties":{"kind":"stop","name":"Highway 6 and 50 west of Valley Court","stop_id":"S481"},"type":"Feature"},{"geometry":{"coordinates":[-108.67621,39.1263],"type":"Point"},"properties":{"kind":"stop","name":"Highway 6 and 50 east of 20 Road","stop_id":"S482"},"type":"Feature"},{"geometry":{"coordinates":[-108.61006,39.10634],"type":"Point"},"properties":{"kind":"stop","name":"G Road west of 24 Road","stop_id":"S483"},"type":"Feature"},{"geometry":{"coordinates":[-108.61006,39.10626],"type":"Point"},"properties":{"kind":"stop","name":"G Road west of 24 Road","stop_id":"S484"},"type":"Feature"},{"geometry":{"coordinates":[-108.51522,39.04154],"type":"Point"},"properties":{"kind":"stop","name":"29 Road north of B \u00bd Road","stop_id":"S485"},"type":"Feature"},{"geometry":{"coordinates":[-108.48268,39.09168],"type":"Point"},"properties":{"kind":"stop","name":"Patterson Road at Cross Orchards Historic Farm","stop_id":"S486"},"type":"Feature"},{"geometry":{"coordinates":[-108.48369,39.09192],"type":"Point"},"properties":{"kind":"stop","name":"Patterson Road west of Lodgepole Street","stop_id":"S487"},"type":"Feature"},{"geometry":{"coordinates":[-108.63162,39.10623],"type":"Point"},"properties":{"kind":"stop","name":"G Road west of Arrowest Road","stop_id":"S489"},"type":"Feature"},{"geometry":{"coordinates":[-108.51075,39.08448],"type":"Point"},"properties":{"kind":"stop","name":"Orchard Avenue west of 29 \u00bc Road (Bookcliff Middle School)","stop_id":"S49"},"type":"Feature"},{"geometry":{"coordinates":[-108.54485,39.08455],"type":"Point"},"properties":{"kind":"stop","name":"Orchard Avenue east of 17th Street","stop_id":"S490"},"type":"Feature"},{"geometry":{"coordinates":[-108.55448,39.07728],"type":"Point"},"properties":{"kind":"stop","name":"North Avenue west of 11th Street (Colorado Mesa University)","stop_id":"S491"},"type":"Feature"},{"geometry":{"coordinates":[-108.41307,39.09267],"type":"Point"},"properties":{"kind":"stop","name":"34 1/2 Road north of F Road (Peachtree and Blossom View)","stop_id":"S492"},"type":"Feature"},{"geometry":{"coordinates":[-108.59865,39.09014],"type":"Point"},"properties":{"kind":"stop","name":"24 \u00bd Road at Picture Show","stop_id":"S493"},"type":"Feature"},{"geometry":{"coordinates":[-108.38578,39.10278],"type":"Point"},"properties":{"kind":"stop","name":"Highway 6 west of 36 Road (Church)","stop_id":"S495"},"type":"Feature"},{"geometry":{"coordinates":[-108.51522,39.05959],"type":"Point"},"properties":{"kind":"stop","name":"29 Road north of Florida Street","stop_id":"S496"},"type":"Feature"},{"geometry":{"coordinates":[-108.51545,39.04381],"type":"Point"},"properties":{"kind":"stop","name":"29 Road south of Unaweep Avenue","stop_id":"S497"},"type":"Feature"},{"geometry":{"coordinates":[-108.65021,39.11296],"type":"Point"},"properties":{"kind":"stop","name":"Highway 6 and 50 at 22 Road (Pilot Travel Center)","stop_id":"S499"},"type":"Feature"},{"geometry":{"coordinates":[-108.47898,39.09191],"type":"Point"},"properties":{"kind":"stop","name":"Patterson Road west of 31 Road","stop_id":"S5"},"type":"Feature"},{"geometry":{"coordinates":[-108.73489,39.15784],"type":"Point"},"properties":{"kind":"stop","name":"Plum Street south of Aspen Avenue (City Market)","stop_id":"S50"},"type":"Feature"},{"geometry":{"coordinates":[-108.46087,39.07],"type":"Point"},"properties":{"kind":"stop","name":"D \u00bd Road west of 32 Road (Chatfield Elementary)","stop_id":"S502"},"type":"Feature"},{"geometry":{"coordinates":[-108.58483,39.08016],"type":"Point"},"properties":{"kind":"stop","name":"Bogart Lane south of West Independent Avenue (Sonic)","stop_id":"S504"},"type":"Feature"},{"geometry":{"coordinates":[-108.59188,39.0827],"type":"Point"},"properties":{"kind":"stop","name":"West Independent Avenue east of 24 \u00be Road (behind Cottonwood Mall)","stop_id":"S505"},"type":"Feature"},{"geometry":{"coordinates":[-108.59197,39.08261],"type":"Point"},"properties":{"kind":"stop","name":"West Independent Avenue east of 24 \u00be Road (behind Cottonwood Mall)","stop_id":"S506"},"type":"Feature"},{"geometry":{"coordinates":[-108.39607,39.10034],"type":"Point"},"properties":{"kind":"stop","name":"Highway 6 west of 35 \u00bd Road","stop_id":"S507"},"type":"Feature"},{"geometry":{"coordinates":[-108.44139,39.07012],"type":"Point"},"properties":{"kind":"stop","name":"D \u00bd Road west of 33 Road","stop_id":"S508"},"type":"Feature"},{"geometry":{"coordinates":[-108.58464,39.08029],"type":"Point"},"properties":{"kind":"stop","name":"Bogart Lane south of West Independent Avenue (Chick Fil-A)","stop_id":"S509"},"type":"Feature"},{"geometry":{"coordinates":[-108.67148,39.12393],"type":"Point"},"properties":{"kind":"stop","name":"Highway 6 and 50 west of 21 Road (Church)","stop_id":"S510"},"type":"Feature"},{"geometry":{"coordinates":[-108.35623,39.1057],"type":"Point"},"properties":{"kind":"stop","name":"Iowa Avenue south of Frontage Road","stop_id":"S511"},"type":"Feature"},{"geometry":{"coordinates":[-108.40639,39.09177],"type":"Point"},"properties":{"kind":"stop","name":"F Road west of 35 Road","stop_id":"S512"},"type":"Feature"},{"geometry":{"coordinates":[-108.57107,39.06815],"type":"Point"},"properties":{"kind":"stop","name":"1st Street south of Rood","stop_id":"S513"},"type":"Feature"},{"geometry":{"coordinates":[-108.57941,39.0749],"type":"Point"},"properties":{"kind":"stop","name":"American Way east of Base Rock Street","stop_id":"S514"},"type":"Feature"},{"geometry":{"coordinates":[-108.57942,39.07472],"type":"Point"},"properties":{"kind":"stop","name":"American Way east of Base Rock Street","stop_id":"S515"},"type":"Feature"},{"geometry":{"coordinates":[-108.45957,39.06457],"type":"Point"},"properties":{"kind":"stop","name":"32 Road south of Candlewood","stop_id":"S516"},"type":"Feature"},{"geometry":{"coordinates":[-108.56619,39.06941],"type":"Point"},"properties":{"kind":"stop","name":"4th Street north of White Avenue","stop_id":"S517"},"type":"Feature"},{"geometry":{"coordinates":[-108.56621,39.0662],"type":"Point"},"properties":{"kind":"stop","name":"4th Street south of Colorado","stop_id":"S518"},"type":"Feature"},{"geometry":{"coordinates":[-108.56434,39.06609],"type":"Point"},"properties":{"kind":"stop","name":"5th Street north of Ute Avenue","stop_id":"S519"},"type":"Feature"},{"geometry":{"coordinates":[-108.45923,39.07224],"type":"Point"},"properties":{"kind":"stop","name":"32 Road north Of D \u00bd Road","stop_id":"S52"},"type":"Feature"},{"geometry":{"coordinates":[-108.56438,39.06957],"type":"Point"},"properties":{"kind":"stop","name":"5th Street north of White Avenue (Central Library)","stop_id":"S520"},"type":"Feature"},{"geometry":{"coordinates":[-108.56438,39.07525],"type":"Point"},"properties":{"kind":"stop","name":"5th Street south of Teller","stop_id":"S521"},"type":"Feature"},{"geometry":{"coordinates":[-108.60841,39.10319],"type":"Point"},"properties":{"kind":"stop","name":"24 Road north of F 3/4 Rd","stop_id":"S522"},"type":"Feature"},{"geometry":{"coordinates":[-108.47398,39.09191],"type":"Point"},"properties":{"kind":"stop","name":"Patterson Road east of Peace Drive","stop_id":"S54"},"type":"Feature"},{"geometry":{"coordinates":[-108.48257,39.07],"type":"Point"},"properties":{"kind":"stop","name":"D 1/2 Road across from 30 3/4 Road","stop_id":"S56"},"type":"Feature"},{"geometry":{"coordinates":[-108.47898,39.07002],"type":"Point"},"properties":{"kind":"stop","name":"D \u00bd Road west of 31 Road","stop_id":"S57"},"type":"Feature"},{"geometry":{"coordinates":[-108.4475,39.08865],"type":"Point"},"properties":{"kind":"stop","name":"Front Street east of 3rd Street","stop_id":"S58"},"type":"Feature"},{"geometry":{"coordinates":[-108.45941,39.09048],"type":"Point"},"properties":{"kind":"stop","name":"32 Road south of Patterson Road (Clifton Library)","stop_id":"S59"},"type":"Feature"},{"geometry":{"coordinates":[-108.48758,39.0919],"type":"Point"},"properties":{"kind":"stop","name":"Patterson Road west of Mesa Valley Drive","stop_id":"S6"},"type":"Feature"},{"geometry":{"coordinates":[-108.49049,39.0919],"type":"Point"},"properties":{"kind":"stop","name":"Patterson Road west of Round Table Drive","stop_id":"S60"},"type":"Feature"},{"geometry":{"coordinates":[-108.48605,39.07],"type":"Point"},"properties":{"kind":"stop","name":"D 1/2 Road east of 30 1/2 Road","stop_id":"S61"},"type":"Feature"},{"geometry":{"coordinates":[-108.48128,39.0629],"type":"Point"},"properties":{"kind":"stop","name":"D Road east of Alamo Street","stop_id":"S62"},"type":"Feature"},{"geometry":{"coordinates":[-108.4885,39.06288],"type":"Point"},"properties":{"kind":"stop","name":"D Road west of Wedgewood Avenue","stop_id":"S63"},"type":"Feature"},{"geometry":{"coordinates":[-108.49381,39.07],"type":"Point"},"properties":{"kind":"stop","name":"D \u00bd Road east of Colorow Drive (Pear Park Elementary)","stop_id":"S66"},"type":"Feature"},{"geometry":{"coordinates":[-108.52467,39.03994],"type":"Point"},"properties":{"kind":"stop","name":"28 \u00bd Road north of B 4/10 Road","stop_id":"S69"},"type":"Feature"},{"geometry":{"coordinates":[-108.51518,39.03308],"type":"Point"},"properties":{"kind":"stop","name":"29 Road north of Shelley Drive","stop_id":"S71"},"type":"Feature"},{"geometry":{"coordinates":[-108.51518,39.0309],"type":"Point"},"properties":{"kind":"stop","name":"29 Road north of Highway 50 (Orchard Mesa Market)","stop_id":"S72"},"type":"Feature"},{"geometry":{"coordinates":[-108.52871,39.04119],"type":"Point"},"properties":{"kind":"stop","name":"B \u00bd Road east of Arlington Drive","stop_id":"S73"},"type":"Feature"},{"geometry":{"coordinates":[-108.52871,39.0411],"type":"Point"},"properties":{"kind":"stop","name":"B \u00bd Road east of Arlington Drive","stop_id":"S74"},"type":"Feature"},{"geometry":{"coordinates":[-108.53434,39.04111],"type":"Point"},"properties":{"kind":"stop","name":"B \u00bd Road west of 28 Road","stop_id":"S75"},"type":"Feature"},{"geometry":{"coordinates":[-108.54311,39.04174],"type":"Point"},"properties":{"kind":"stop","name":"27 \u00bd Road north of B \u00bd Road","stop_id":"S76"},"type":"Feature"},{"geometry":{"coordinates":[-108.49893,39.08453],"type":"Point"},"properties":{"kind":"stop","name":"Orchard Avenue west of Hall Avenue","stop_id":"S78"},"type":"Feature"},{"geometry":{"coordinates":[-108.50417,39.08461],"type":"Point"},"properties":{"kind":"stop","name":"Orchard Avenue east of 29 \u00bd Road","stop_id":"S80"},"type":"Feature"},{"geometry":{"coordinates":[-108.49852,39.0847],"type":"Point"},"properties":{"kind":"stop","name":"Orchard Avenue west of 30 Road","stop_id":"S81"},"type":"Feature"},{"geometry":{"coordinates":[-108.45989,39.08601],"type":"Point"},"properties":{"kind":"stop","name":"Clifton Transfer Station (32 Road and I-70 Business Loop)","stop_id":"S82"},"type":"Feature"},{"geometry":{"coordinates":[-108.51083,39.08466],"type":"Point"},"properties":{"kind":"stop","name":"Orchard Avenue west of 29 \u00bc Road (Bookcliff Middle School)","stop_id":"S83"},"type":"Feature"},{"geometry":{"coordinates":[-108.51425,39.08469],"type":"Point"},"properties":{"kind":"stop","name":"Orchard Avenue east of 29 Road","stop_id":"S85"},"type":"Feature"},{"geometry":{"coordinates":[-108.5132,39.08447],"type":"Point"},"properties":{"kind":"stop","name":"Orchard Avenue east of 29 Road","stop_id":"S86"},"type":"Feature"},{"geometry":{"coordinates":[-108.5636,39.06321],"type":"Point"},"properties":{"kind":"stop","name":"Downtown Transfer Facility (6th Street and South Avenue)","stop_id":"S87"},"type":"Feature"},{"geometry":{"coordinates":[-108.55248,39.08129],"type":"Point"},"properties":{"kind":"stop","name":"12th Street north of Elm Avenue (Colorado Mesa University)","stop_id":"S89"},"type":"Feature"},{"geometry":{"coordinates":[-108.50124,39.09191],"type":"Point"},"properties":{"kind":"stop","name":"Patterson Road east of Broken Spoke Road","stop_id":"S9"},"type":"Feature"},{"geometry":{"coordinates":[-108.50876,39.07721],"type":"Point"},"properties":{"kind":"stop","name":"North Avenue west of 29 \u00bd Road (Career Center)","stop_id":"S90"},"type":"Feature"},{"geometry":{"coordinates":[-108.49741,39.09191],"type":"Point"},"properties":{"kind":"stop","name":"Patterson Road west of 30 Road","stop_id":"S91"},"type":"Feature"},{"geometry":{"coordinates":[-108.51501,39.05928],"type":"Point"},"properties":{"kind":"stop","name":"29 Road across from Florida Street","stop_id":"S92"},"type":"Feature"},{"geometry":{"coordinates":[-108.50569,39.07894],"type":"Point"},"properties":{"kind":"stop","name":"29 1/2 Road at Community Services Campus","stop_id":"S93"},"type":"Feature"},{"geometry":{"coordinates":[-108.53914,39.04107],"type":"Point"},"properties":{"kind":"stop","name":"B \u00bd Road west of 27 \u00be Road (City Market)","stop_id":"S94"},"type":"Feature"},{"geometry":{"coordinates":[-108.58008,39.08172],"type":"Point"},"properties":{"kind":"stop","name":"25 \u00bd Road north of Independent Avenue (Sam's Club)","stop_id":"S96"},"type":"Feature"},{"geometry":{"coordinates":[-108.58009,39.08646],"type":"Point"},"properties":{"kind":"stop","name":"25 \u00bd Road north of Pinyon (Food Bank)","stop_id":"S98"},"type":"Feature"},{"geometry":{"coordinates":[-108.58008,39.08944],"type":"Point"},"properties":{"kind":"stop","name":"25 \u00bd Road south of Patterson Road (Pomona Elementary)","stop_id":"S99"},"type":"Feature"}],"type":"FeatureCollection"}
