{"features":[{"geometry":{"coordinates":[[-80.28456,40.70126],[-80.28393,40.70099],[-80.28469,40.70071],[-80.28521,40.70145],[-80.28477,40.70167],[-80.28495,40.70185],[-80.28846,40.70029],[-80.29288,40.69901],[-80.29469,40.69911],[-80.29594,40.69893],[-80.30722,40.69426],[-80.31013,40.69843],[-80.31079,40.7012],[-80.31189,40.70194],[-80.31221,40.70251],[-80.31303,40.70318],[-80.31551,40.70413],[-80.31714,40.70582],[-80.31949,40.70764],[-80.32435,40.71033],[-80.32328,40.71104],[-80.32371,40.71181],[-80.32445,40.71211],[-80.32494,40.71146],[-80.324,40.71065],[-80.32435,40.71033],[-80.32153,40.70883],[-80.32188,40.70844],[-80.3215,40.70793],[-80.32203,40.70728],[-80.32239,40.70646],[-80.32293,40.70609],[-80.32474,40.70625],[-80.32529,40.70584],[-80.32542,40.70541],[-80.32695,40.70553],[-80.32916,40.70603],[-80.32811,40.70758],[-80.32646,40.70855],[-80.32599,40.70869],[-80.32577,40.70849],[-80.32568,40.70871],[-80.32268,40.70872],[-80.32188,40.70844],[-80.32152,40.70882],[-80.3195,40.70766],[-80.31711,40.7058],[-80.31553,40.70414],[-80.31303,40.70318],[-80.31221,40.70253],[-80.31189,40.70195],[-80.3108,40.7012],[-80.31014,40.69849],[-80.30722,40.69426],[-80.31257,40.69213],[-80.33174,40.68346],[-80.33486,40.68265],[-80.33524,40.68267],[-80.3358,40.68305],[-80.33587,40.68336],[-80.33544,40.68387],[-80.3347,40.68392],[-80.33434,40.68373],[-80.32729,40.67197],[-80.3268,40.67074],[-80.32685,40.67032],[-80.3281,40.66901],[-80.32811,40.66851],[-80.32765,40.66784],[-80.32605,40.66806],[-80.32342,40.66779],[-80.31599,40.66913],[-80.31614,40.66972],[-80.31596,40.6704],[-80.31477,40.67128],[-80.31459,40.67163],[-80.3127,40.67142],[-80.3122,40.67163],[-80.3119,40.67248],[-80.31196,40.67414],[-80.31161,40.67536],[-80.31261,40.67556],[-80.31268,40.67488]],"type":"LineString"},"properties":{"color":"#800080","color_name":"purple","kind":"route","label":"11","long":"Beaver/BVM","route_id":"0c2cf8b1-9b0c-41c2-b51d-3d8ebfd0ceb3","text_color":"#FFFFFF","type_label":"Bus"},"type":"Feature"},{"geometry":{"coordinates":[[-80.38318,40.78167],[-80.38504,40.78171],[-80.38501,40.78086],[-80.38399,40.78048],[-80.3841,40.77871],[-80.38467,40.77809],[-80.3751,40.77344],[-80.37208,40.77166],[-80.36383,40.76503],[-80.36364,40.76458],[-80.36387,40.76204],[-80.36417,40.76077],[-80.36539,40.75798],[-80.36575,40.75637],[-80.36534,40.74913],[-80.36559,40.74736],[-80.36655,40.74547],[-80.37003,40.74124],[-80.37095,40.73928],[-80.37139,40.7372],[-80.37118,40.73462],[-80.36841,40.72685],[-80.36817,40.72469],[-80.36833,40.72354],[-80.36911,40.72153],[-80.37003,40.72028],[-80.37553,40.71388],[-80.37611,40.7123],[-80.37603,40.7108],[-80.37576,40.71002],[-80.37531,40.70922],[-80.3742,40.70802],[-80.36777,40.70364],[-80.36502,40.70127],[-80.35495,40.69005],[-80.35278,40.68886],[-80.3513,40.6885],[-80.34269,40.688],[-80.33975,40.68744],[-80.33833,40.6869],[-80.33641,40.68585],[-80.33456,40.68414],[-80.33357,40.68269],[-80.32484,40.66778],[-80.32423,40.6664],[-80.32355,40.66392],[-80.32341,40.66192],[-80.32387,40.65876],[-80.32524,40.65235],[-80.32525,40.65081],[-80.32466,40.64887],[-80.32209,40.6451],[-80.32112,40.64324],[-80.32054,40.6415],[-80.32036,40.64013],[-80.32046,40.63873],[-80.32101,40.63673],[-80.31765,40.63501],[-80.3185,40.63343],[-80.3177,40.63505],[-80.32075,40.63661],[-80.32096,40.63643],[-80.32104,40.63479],[-80.32159,40.63281],[-80.32234,40.6315],[-80.32473,40.62817],[-80.32503,40.62748],[-80.32533,40.62548],[-80.32499,40.62398],[-80.32455,40.62305],[-80.32149,40.61946],[-80.32094,40.61833],[-80.32008,40.61398],[-80.3196,40.61291],[-80.31808,40.61107],[-80.3171,40.61025],[-80.3146,40.60896],[-80.30807,40.60685],[-80.30509,40.60554],[-80.30211,40.60362],[-80.29924,40.60078],[-80.29757,40.59812],[-80.2898,40.57891],[-80.28874,40.57717],[-80.28735,40.57546],[-80.28312,40.57128],[-80.28223,40.57011],[-80.28137,40.56843],[-80.27897,40.55537],[-80.27846,40.55374],[-80.27703,40.55113],[-80.27436,40.5473],[-80.27345,40.54562],[-80.27255,40.54283],[-80.27234,40.54034],[-80.27272,40.5243],[-80.27302,40.52315],[-80.27388,40.52157],[-80.276,40.51887],[-80.27687,40.51743],[-80.28295,40.50278],[-80.28306,40.50191],[-80.28288,40.50061],[-80.28205,40.49899],[-80.28126,40.49809],[-80.27011,40.48947],[-80.26363,40.48365],[-80.26222,40.48258],[-80.25647,40.47934],[-80.25411,40.47776],[-80.24582,40.46965],[-80.24321,40.46819],[-80.24081,40.46757],[-80.23743,40.46749],[-80.23511,40.46804],[-80.23016,40.47048],[-80.22751,40.47132],[-80.21552,40.47253],[-80.21402,40.47254],[-80.2115,40.47204],[-80.20556,40.46899],[-80.20344,40.46835],[-80.19992,40.4678],[-80.19717,40.46665],[-80.19558,40.46521],[-80.1912,40.46009],[-80.18655,40.45646],[-80.18485,40.45548],[-80.17783,40.45293],[-80.17095,40.45178],[-80.16965,40.45133],[-80.16818,40.45024],[-80.16495,40.44582],[-80.1629,40.4441],[-80.13766,40.43121],[-80.12728,40.42671],[-80.12346,40.42537],[-80.12057,40.42495],[-80.11536,40.42486],[-80.11042,40.42411],[-80.09772,40.42192],[-80.0945,40.421],[-80.09236,40.42024],[-80.08834,40.41826],[-80.08412,40.41533],[-80.08123,40.41296],[-80.08372,40.41559],[-80.08138,40.41842],[-80.07975,40.42322],[-80.07343,40.42566],[-80.0687,40.43116],[-80.06763,40.43432],[-80.0659,40.44596],[-80.06473,40.44741],[-80.05812,40.45225],[-80.05423,40.4533],[-80.04546,40.45148],[-80.04193,40.45264],[-80.0388,40.45241],[-80.03055,40.44602],[-80.02894,40.44438],[-80.02772,40.44379],[-80.0189,40.4407],[-80.0145,40.43825],[-80.01352,40.43788],[-80.00931,40.43991],[-80.00673,40.44086],[-80.00491,40.44139],[-80.00383,40.44141],[-79.99414,40.44393],[-79.99381,40.44385],[-79.9976,40.43823]],"type":"LineString"},"properties":{"color":"#ADFF2F","color_name":"yellow","kind":"route","label":"4","long":"Express 376","route_id":"80d588c9-345c-43b3-a52b-dabeae9273da","text_color":"#000000","type_label":"Bus"},"type":"Feature"},{"geometry":{"coordinates":[[-80.38318,40.78167],[-80.38505,40.78171],[-80.3851,40.78091],[-80.384,40.78048],[-80.3841,40.7788],[-80.38466,40.77813],[-80.3737,40.77268],[-80.37347,40.77458],[-80.37504,40.77466],[-80.37472,40.7804],[-80.37494,40.7822],[-80.37693,40.78591],[-80.37719,40.78789],[-80.37805,40.79145],[-80.37797,40.79398],[-80.37679,40.79752],[-80.37643,40.79987],[-80.37489,40.79979],[-80.37079,40.79898],[-80.3679,40.79763],[-80.36499,40.79579],[-80.35926,40.79415],[-80.35655,40.79251],[-80.3548,40.79236],[-80.35046,40.79254],[-80.34952,40.79238],[-80.34884,40.79204],[-80.34682,40.79015],[-80.34549,40.78948],[-80.33885,40.78811],[-80.33441,40.78802],[-80.33284,40.78817],[-80.33023,40.78568],[-80.3252,40.77945],[-80.32443,40.7781],[-80.32347,40.77155],[-80.32326,40.77105],[-80.32245,40.77009],[-80.322,40.76866],[-80.32053,40.76689],[-80.31928,40.7669],[-80.31978,40.74452],[-80.32051,40.74258],[-80.32058,40.74215],[-80.32038,40.74156],[-80.31794,40.74001],[-80.31759,40.73946],[-80.31757,40.7387],[-80.31726,40.73811],[-80.30993,40.73063],[-80.30405,40.72219],[-80.30353,40.7224],[-80.30078,40.72006],[-80.29898,40.71657],[-80.29996,40.71597],[-80.29774,40.71345],[-80.29501,40.70968],[-80.2941,40.70921],[-80.29254,40.70663],[-80.28929,40.70204],[-80.2877,40.70273],[-80.28563,40.70197],[-80.28535,40.70145],[-80.28457,40.70157],[-80.28456,40.70126],[-80.28412,40.70093],[-80.28343,40.70119],[-80.28068,40.70021],[-80.27929,40.69949],[-80.27759,40.69951],[-80.27381,40.69893],[-80.27141,40.69828],[-80.26786,40.69669],[-80.26197,40.69301],[-80.25994,40.691],[-80.25858,40.69019],[-80.25771,40.68897],[-80.25363,40.68461],[-80.25052,40.68166],[-80.24994,40.67993],[-80.24301,40.66838],[-80.24077,40.66269],[-80.23881,40.65839],[-80.2385,40.65848],[-80.23701,40.65686],[-80.23654,40.65574],[-80.2374,40.65549],[-80.23433,40.64894],[-80.23333,40.64576],[-80.23205,40.64026],[-80.23179,40.64016],[-80.23153,40.63954],[-80.22737,40.6338],[-80.22667,40.63089],[-80.22613,40.62733],[-80.22647,40.62419],[-80.22608,40.59387],[-80.22888,40.59333],[-80.22811,40.59242],[-80.22894,40.59332],[-80.23051,40.59305],[-80.22894,40.58869],[-80.22522,40.58374],[-80.22788,40.58257],[-80.22414,40.5783],[-80.21062,40.56541],[-80.20804,40.56328],[-80.20656,40.56135],[-80.20337,40.55548],[-80.20245,40.55436],[-80.19727,40.54972],[-80.19572,40.54792],[-80.1903,40.54078],[-80.18804,40.53861],[-80.18609,40.53736],[-80.1718,40.53053],[-80.16844,40.5293],[-80.16192,40.52755],[-80.15087,40.52343],[-80.14475,40.52208],[-80.13581,40.51878],[-80.1335,40.51819],[-80.11277,40.51395],[-80.10705,40.51244],[-80.10399,40.51219],[-80.09759,40.51043],[-80.09453,40.51026],[-80.09268,40.50983],[-80.08786,40.5072],[-80.08562,40.50526],[-80.07481,40.5013],[-80.071,40.49884],[-80.06826,40.49653],[-80.06326,40.49355],[-80.06232,40.49281],[-80.06032,40.4907],[-80.05499,40.48687],[-80.04554,40.48112],[-80.04309,40.47892],[-80.0385,40.47305],[-80.0364,40.46955],[-80.0354,40.46726],[-80.03177,40.46267],[-80.02778,40.45079],[-80.02705,40.45002],[-80.02605,40.44945],[-80.02408,40.44898],[-80.01264,40.44854],[-80.0114,40.44819],[-80.01082,40.44784],[-80.01012,40.447],[-80.0089,40.44328],[-80.00923,40.43996],[-80.0091,40.43968],[-80.00468,40.43786],[-80.00453,40.43808],[-80.00746,40.43924],[-80.00756,40.4395],[-80.00678,40.44085],[-80.00491,40.44139],[-80.00389,40.44141],[-80.00193,40.44188],[-79.99432,40.44391],[-79.99379,40.44384],[-79.99324,40.44331],[-79.99259,40.44356]],"type":"LineString"},"properties":{"color":"#0000FF","color_name":"blue","kind":"route","label":"1","long":"Ohio River Blvd","route_id":"ab026095-1d44-4e5f-a5f1-6f0292f23e18","text_color":"#FFFFFF","type_label":"Bus"},"type":"Feature"},{"geometry":{"coordinates":[[-80.22811,40.59242],[-80.22888,40.59334],[-80.23049,40.59305],[-80.23036,40.59249],[-80.22929,40.58932],[-80.22522,40.58374],[-80.22425,40.58403],[-80.22517,40.5912],[-80.22608,40.59386],[-80.23328,40.59252],[-80.24067,40.59212],[-80.24133,40.59445],[-80.24172,40.59762],[-80.24245,40.61424],[-80.24313,40.61943],[-80.24369,40.61945],[-80.24573,40.61794],[-80.24701,40.61659],[-80.25114,40.61376],[-80.25391,40.61209],[-80.25486,40.61211],[-80.25976,40.615],[-80.259,40.61593],[-80.25675,40.61792],[-80.25603,40.61901],[-80.25613,40.62085],[-80.25731,40.62111],[-80.25764,40.62027],[-80.25627,40.61999],[-80.25595,40.61933],[-80.25603,40.619],[-80.25674,40.61794],[-80.26037,40.6146],[-80.26374,40.61631],[-80.26439,40.61635],[-80.26409,40.61535],[-80.26416,40.61468],[-80.26501,40.61314],[-80.26738,40.61212],[-80.26871,40.61222],[-80.27369,40.61182],[-80.27498,40.61115],[-80.27361,40.60948],[-80.27382,40.60887],[-80.27575,40.60752],[-80.27813,40.60755],[-80.27696,40.6049],[-80.28042,40.60404],[-80.28106,40.60475],[-80.28265,40.60808],[-80.28641,40.60659],[-80.29,40.60278],[-80.29072,40.60236],[-80.29582,40.60202],[-80.302,40.59975],[-80.30263,40.59963],[-80.30403,40.59992],[-80.30458,40.59927],[-80.30574,40.59868],[-80.30474,40.59759],[-80.30345,40.59826],[-80.3044,40.59939],[-80.304,40.5999],[-80.30263,40.59963],[-80.30203,40.59974],[-80.29521,40.60216],[-80.29142,40.60221],[-80.29073,40.60236],[-80.29,40.60277],[-80.2865,40.60658],[-80.28265,40.60808],[-80.28503,40.61397],[-80.2855,40.61467],[-80.28655,40.61547],[-80.28927,40.61722],[-80.29152,40.61824],[-80.29472,40.61936],[-80.29687,40.62115],[-80.29832,40.62198],[-80.30008,40.62342],[-80.30185,40.62367],[-80.30303,40.62411],[-80.30372,40.62476],[-80.30468,40.62614],[-80.31074,40.62964],[-80.31226,40.6308],[-80.31314,40.63297],[-80.31765,40.63506],[-80.3185,40.63343],[-80.31764,40.63507],[-80.31579,40.63408],[-80.31385,40.63337],[-80.31313,40.63328],[-80.31232,40.63355],[-80.31175,40.63448],[-80.31125,40.63756],[-80.31002,40.64021],[-80.30996,40.64113],[-80.31066,40.64264],[-80.3112,40.64474],[-80.31111,40.64637],[-80.31056,40.6492],[-80.31099,40.6498],[-80.31238,40.65079],[-80.31372,40.65295],[-80.31462,40.65396],[-80.31351,40.65464],[-80.30966,40.65584],[-80.30848,40.65647],[-80.30743,40.65666],[-80.30717,40.65577],[-80.30679,40.65586],[-80.30738,40.65668],[-80.30839,40.65649],[-80.30971,40.65583],[-80.31354,40.65462],[-80.31462,40.65393],[-80.31529,40.65537],[-80.31602,40.65695],[-80.31628,40.65802],[-80.3164,40.66048],[-80.31681,40.66226],[-80.31674,40.66292],[-80.31647,40.66354],[-80.31385,40.66643],[-80.31178,40.67163],[-80.31132,40.67388],[-80.31194,40.67427],[-80.31163,40.67537],[-80.31261,40.67559],[-80.31277,40.67493],[-80.31182,40.67468],[-80.31159,40.67547],[-80.31163,40.67588],[-80.31233,40.67699],[-80.31714,40.67783],[-80.31718,40.67803],[-80.31611,40.67926],[-80.31321,40.6793],[-80.30474,40.68187],[-80.30386,40.68183],[-80.3033,40.68126],[-80.3025,40.6798],[-80.30329,40.67956],[-80.30283,40.67874],[-80.30111,40.67934],[-80.30159,40.68013],[-80.30244,40.6798],[-80.30297,40.68074],[-80.29344,40.68368],[-80.29031,40.68519],[-80.28819,40.6869],[-80.28712,40.68815],[-80.28639,40.68929],[-80.2856,40.69122],[-80.2808,40.69152],[-80.28123,40.69404],[-80.28391,40.69957],[-80.28521,40.70145],[-80.28479,40.70165],[-80.28449,40.70154],[-80.28456,40.70126]],"type":"LineString"},"properties":{"color":"#FFA500","color_name":"yellow","kind":"route","label":"2","long":"Local/Beaver Valley Mall","route_id":"b17cf01d-4684-4ffd-811d-e375027f549d","text_color":"#000000","type_label":"Bus"},"type":"Feature"},{"geometry":{"coordinates":[-80.22632,40.61266],"type":"Point"},"properties":{"kind":"stop","name":"Duss Ave at Keystone Rd","stop_id":"0261ddd8-cce5-448f-8853-2ecb47031f78"},"type":"Feature"},{"geometry":{"coordinates":[-80.22811,40.59242],"type":"Point"},"properties":{"kind":"stop","name":"11th St at Ambridge Park and Ride Lot","stop_id":"02b8a89e-3639-48fa-ac41-52ada36784f6"},"type":"Feature"},{"geometry":{"coordinates":[-80.21318,40.5679],"type":"Point"},"properties":{"kind":"stop","name":"Ohio River Blvd at Broad St","stop_id":"02be9f51-c1ae-4949-8df5-70b10ff6cefa"},"type":"Feature"},{"geometry":{"coordinates":[-80.30717,40.72663],"type":"Point"},"properties":{"kind":"stop","name":"3rd Ave at 16th St","stop_id":"02c16ae6-39da-47de-9a3e-e10c30e63ec3"},"type":"Feature"},{"geometry":{"coordinates":[-80.19273,40.54395],"type":"Point"},"properties":{"kind":"stop","name":"Ohio River Blvd at Hazel Ln","stop_id":"0317b045-becb-4635-8909-9d19f612aa6b"},"type":"Feature"},{"geometry":{"coordinates":[-80.31038,40.64201],"type":"Point"},"properties":{"kind":"stop","name":"Brodhead Rd at Charity St","stop_id":"041db0bf-56f4-492d-8a34-5e2c0f0c4a45"},"type":"Feature"},{"geometry":{"coordinates":[-80.30972,40.69783],"type":"Point"},"properties":{"kind":"stop","name":"Market St at 5th St  (Stop 1)","stop_id":"05c998f2-3660-447e-b5d5-bc742d656892"},"type":"Feature"},{"geometry":{"coordinates":[-80.31055,40.7313],"type":"Point"},"properties":{"kind":"stop","name":"3rd Ave at 12th St","stop_id":"05f91dc1-c42f-4c5c-b097-f41183344a8c"},"type":"Feature"},{"geometry":{"coordinates":[-80.22622,40.59916],"type":"Point"},"properties":{"kind":"stop","name":"Duss Ave at 16th St","stop_id":"0634a2d6-2bee-4997-99fc-ac6f80262091"},"type":"Feature"},{"geometry":{"coordinates":[-80.32411,40.71208],"type":"Point"},"properties":{"kind":"stop","name":"Medical Center","stop_id":"063dfb23-ecab-4c16-8bf7-4024a20bfdc1"},"type":"Feature"},{"geometry":{"coordinates":[-80.3244,40.68676],"type":"Point"},"properties":{"kind":"stop","name":"State Ave at Toy St","stop_id":"06574049-1d83-4563-b2bb-012db15b6aec"},"type":"Feature"},{"geometry":{"coordinates":[-80.23334,40.64582],"type":"Point"},"properties":{"kind":"stop","name":"Ohio River Blvd at Virginia Ave","stop_id":"071360cb-2802-4530-b5eb-d4308a9bc89e"},"type":"Feature"},{"geometry":{"coordinates":[-80.04309,40.47892],"type":"Point"},"properties":{"kind":"stop","name":"Ohio River Blvd at McKees Rocks Bridge","stop_id":"08bcafe0-4b4f-4d7f-8807-bab8b3f7cd86"},"type":"Feature"},{"geometry":{"coordinates":[-80.32798,40.68515],"type":"Point"},"properties":{"kind":"stop","name":"State Ave at Dravo St","stop_id":"08fe8efb-29d1-46fc-8be4-704342c321ff"},"type":"Feature"},{"geometry":{"coordinates":[-80.31554,40.69068],"type":"Point"},"properties":{"kind":"stop","name":"3rd St at Walnut St","stop_id":"0a78882f-3221-4a90-9691-224a5e6dd59b"},"type":"Feature"},{"geometry":{"coordinates":[-80.25288,40.61275],"type":"Point"},"properties":{"kind":"stop","name":"746 Franklin Ave","stop_id":"0a9d6913-0cc3-4e32-b21d-d020f7d570cb"},"type":"Feature"},{"geometry":{"coordinates":[-80.24616,40.61757],"type":"Point"},"properties":{"kind":"stop","name":"Franklin Ave at Bank St  (Police Station)","stop_id":"0aef8c1d-08c5-43c4-8863-14b463b9280c"},"type":"Feature"},{"geometry":{"coordinates":[-80.23087,40.6387],"type":"Point"},"properties":{"kind":"stop","name":"State St opp. Phillips St","stop_id":"0b21d310-acb3-4dda-88c9-9864990d3e58"},"type":"Feature"},{"geometry":{"coordinates":[-80.25052,40.68166],"type":"Point"},"properties":{"kind":"stop","name":"3rd Ave opp. Harvey Run Rd","stop_id":"0ce34566-076b-421c-a6e3-ce986d2f3c33"},"type":"Feature"},{"geometry":{"coordinates":[-79.99633,40.4401],"type":"Point"},"properties":{"kind":"stop","name":"Grant St at Oliver Ave","stop_id":"0e11d25b-5a40-4240-92eb-0ae04fabcd65"},"type":"Feature"},{"geometry":{"coordinates":[-80.25624,40.61997],"type":"Point"},"properties":{"kind":"stop","name":"Monaca Rd at Davis St","stop_id":"10b4af80-5f04-41a2-afbe-8539db9ce2bc"},"type":"Feature"},{"geometry":{"coordinates":[-80.30814,40.69559],"type":"Point"},"properties":{"kind":"stop","name":"376 Market St","stop_id":"11909708-2604-4243-abea-e75bdb0d77ec"},"type":"Feature"},{"geometry":{"coordinates":[-80.22626,40.60607],"type":"Point"},"properties":{"kind":"stop","name":"Duss Ave at 25th St","stop_id":"119329f9-3215-4fca-8bf8-99c986e82c89"},"type":"Feature"},{"geometry":{"coordinates":[-80.22637,40.61701],"type":"Point"},"properties":{"kind":"stop","name":"2950  Duss Ave","stop_id":"166c69e6-5530-4939-b01e-0200c88855bf"},"type":"Feature"},{"geometry":{"coordinates":[-80.2573,40.68851],"type":"Point"},"properties":{"kind":"stop","name":"3rd Ave opp. 5th St","stop_id":"1736e3b4-97c9-4294-93b2-4a92f5e00024"},"type":"Feature"},{"geometry":{"coordinates":[-80.22715,40.63286],"type":"Point"},"properties":{"kind":"stop","name":"State St at Johnson Ave","stop_id":"18536214-15c6-44f9-9e52-781bb91a9726"},"type":"Feature"},{"geometry":{"coordinates":[-80.25896,40.61594],"type":"Point"},"properties":{"kind":"stop","name":"Monaca Rd at Sheffield","stop_id":"1de2d368-0fad-4b27-9572-8af9cc80b3e8"},"type":"Feature"},{"geometry":{"coordinates":[-80.37643,40.79987],"type":"Point"},"properties":{"kind":"stop","name":"Shenango Rd at Wallace Run Rd","stop_id":"1e28a380-73f9-40f8-957c-23a5f47d2e44"},"type":"Feature"},{"geometry":{"coordinates":[-80.31112,40.6459],"type":"Point"},"properties":{"kind":"stop","name":"Brodhead Rd opp. Main St","stop_id":"1e8c1b43-3220-4e30-93db-2ba18ab90022"},"type":"Feature"},{"geometry":{"coordinates":[-80.2245,40.58589],"type":"Point"},"properties":{"kind":"stop","name":"Duss Ave at Beaver Rd","stop_id":"2138cc80-1614-4087-8fd8-cdcb67cae743"},"type":"Feature"},{"geometry":{"coordinates":[-80.27698,40.60485],"type":"Point"},"properties":{"kind":"stop","name":"Main St at 21st St","stop_id":"22c2aba6-ef7e-4971-a5f2-529646cb0edf"},"type":"Feature"},{"geometry":{"coordinates":[-80.33121,40.78663],"type":"Point"},"properties":{"kind":"stop","name":"4th Ave opp. 47th St","stop_id":"24938943-a7f3-4a79-9c29-14bc84528c77"},"type":"Feature"},{"geometry":{"coordinates":[-80.31034,40.64197],"type":"Point"},"properties":{"kind":"stop","name":"Brodhead Rd opp. Charity St","stop_id":"28c61cf9-aa6d-43d5-9b23-88a058d23ada"},"type":"Feature"},{"geometry":{"coordinates":[-80.31921,40.76222],"type":"Point"},"properties":{"kind":"stop","name":"7th Ave at 22nd St","stop_id":"2d2717e4-285d-4f36-a5a2-d980a1a5ea8f"},"type":"Feature"},{"geometry":{"coordinates":[-80.25005,40.61445],"type":"Point"},"properties":{"kind":"stop","name":"Franklin Ave at Engle St","stop_id":"2db7f8b2-3fea-482f-9173-9815cae1d182"},"type":"Feature"},{"geometry":{"coordinates":[-80.31061,40.73132],"type":"Point"},"properties":{"kind":"stop","name":"3rd Ave at 12th St","stop_id":"2fc5d494-d230-4728-b1ec-df023f4a66ab"},"type":"Feature"},{"geometry":{"coordinates":[-80.29267,40.60222],"type":"Point"},"properties":{"kind":"stop","name":"Mill St at Spring St","stop_id":"3025ec08-a28b-47e1-8b19-1de8fcd13904"},"type":"Feature"},{"geometry":{"coordinates":[-80.31257,40.69213],"type":"Point"},"properties":{"kind":"stop","name":"3rd St at Buffalo St","stop_id":"3041d928-58c9-4de4-8685-9dc9d3f0a121"},"type":"Feature"},{"geometry":{"coordinates":[-80.30699,40.72641],"type":"Point"},"properties":{"kind":"stop","name":"3rd Ave at 16th St","stop_id":"32558345-7c42-4226-825f-df69b63f638a"},"type":"Feature"},{"geometry":{"coordinates":[-80.30338,40.68139],"type":"Point"},"properties":{"kind":"stop","name":"Township Market Place (Vision Works)","stop_id":"335aa0b3-acfe-4f6a-a3ef-aea65b10309c"},"type":"Feature"},{"geometry":{"coordinates":[-80.23654,40.65574],"type":"Point"},"properties":{"kind":"stop","name":"Northern Lights Shopping Center","stop_id":"35a76c21-562d-44e7-983d-a439198ba88d"},"type":"Feature"},{"geometry":{"coordinates":[-80.28456,40.70126],"type":"Point"},"properties":{"kind":"stop","name":"Rochester Transportation Center","stop_id":"3683ed00-e419-46f1-b61d-84c1c3e633aa"},"type":"Feature"},{"geometry":{"coordinates":[-80.09453,40.51028],"type":"Point"},"properties":{"kind":"stop","name":"Ohio River Blvd at Camp Horne Rd","stop_id":"36ba88d9-a31d-402a-aa4a-115ad13714ea"},"type":"Feature"},{"geometry":{"coordinates":[-80.31937,40.75786],"type":"Point"},"properties":{"kind":"stop","name":"7th Ave at 17th St","stop_id":"37671672-1746-4efe-997b-7344b5d20d47"},"type":"Feature"},{"geometry":{"coordinates":[-80.22931,40.58949],"type":"Point"},"properties":{"kind":"stop","name":"810 Merchant St","stop_id":"37c15c39-3fa0-4852-bdaa-bfbe2d4f899e"},"type":"Feature"},{"geometry":{"coordinates":[-80.32794,40.6851],"type":"Point"},"properties":{"kind":"stop","name":"State Ave at Dravo St","stop_id":"37e48214-50ad-4769-8648-c5366717e202"},"type":"Feature"},{"geometry":{"coordinates":[-80.29897,40.69761],"type":"Point"},"properties":{"kind":"stop","name":"3rd St at Lincoln Ave","stop_id":"38b7f83e-50d8-463d-bc22-1da7b172eb3d"},"type":"Feature"},{"geometry":{"coordinates":[-80.22619,40.59917],"type":"Point"},"properties":{"kind":"stop","name":"Duss Ave at 16th St","stop_id":"3a3d1185-05fa-49cf-be1c-463a2a3035cf"},"type":"Feature"},{"geometry":{"coordinates":[-80.22644,40.61996],"type":"Point"},"properties":{"kind":"stop","name":"Duss Ave opp. Legionville Hollow Rd","stop_id":"3ad45eea-20ca-4e3f-8d97-4c35f201f609"},"type":"Feature"},{"geometry":{"coordinates":[-80.28015,40.60412],"type":"Point"},"properties":{"kind":"stop","name":"Main St at Brodhead Rd","stop_id":"3c4a15a0-0392-4d8c-9138-63df49e87928"},"type":"Feature"},{"geometry":{"coordinates":[-80.32763,40.70788],"type":"Point"},"properties":{"kind":"stop","name":"Friendship Ridge","stop_id":"3cb2dcab-e752-4362-ba7f-442c1cf5e03f"},"type":"Feature"},{"geometry":{"coordinates":[-80.31605,40.73688],"type":"Point"},"properties":{"kind":"stop","name":"3rd Ave at 6th St","stop_id":"3de12ea2-6d69-4930-9064-523cf7f5caef"},"type":"Feature"},{"geometry":{"coordinates":[-80.22712,40.6329],"type":"Point"},"properties":{"kind":"stop","name":"State St at Johnson Ave","stop_id":"3ee30c73-cbe4-4b37-8e2d-51c5d26f65e8"},"type":"Feature"},{"geometry":{"coordinates":[-80.27696,40.6049],"type":"Point"},"properties":{"kind":"stop","name":"Main St at 21st St","stop_id":"3f43c00e-f482-4674-8700-d41d5bca08fd"},"type":"Feature"},{"geometry":{"coordinates":[-80.28065,40.7002],"type":"Point"},"properties":{"kind":"stop","name":"Brighton Ave at New York Ave","stop_id":"4140555f-8059-4587-9083-9bc14392f98f"},"type":"Feature"},{"geometry":{"coordinates":[-80.28665,40.70232],"type":"Point"},"properties":{"kind":"stop","name":"Brighton Ave at Jefferson St","stop_id":"4239138c-fe18-4aab-b4df-c6d12eadce75"},"type":"Feature"},{"geometry":{"coordinates":[-80.22628,40.60603],"type":"Point"},"properties":{"kind":"stop","name":"Duss Ave opp. 25th St","stop_id":"439bc149-631f-4d9a-afa7-2971adc9a313"},"type":"Feature"},{"geometry":{"coordinates":[-80.32796,40.78284],"type":"Point"},"properties":{"kind":"stop","name":"4th Ave opp. 43rd St","stop_id":"479cff04-bf93-4317-8b01-34a00b88fc79"},"type":"Feature"},{"geometry":{"coordinates":[-80.29269,40.60219],"type":"Point"},"properties":{"kind":"stop","name":"Mill St at Guy St","stop_id":"49ad4d5a-7b95-4bfd-8430-cb2144ca760e"},"type":"Feature"},{"geometry":{"coordinates":[-80.32577,40.70849],"type":"Point"},"properties":{"kind":"stop","name":"Francis Farmer Apartments","stop_id":"49fce7e6-2bbe-4dcb-ba20-cf0b99bb0f64"},"type":"Feature"},{"geometry":{"coordinates":[-80.30608,40.69478],"type":"Point"},"properties":{"kind":"stop","name":"3rd St at Insurance St","stop_id":"4a8e4c8c-4c70-49aa-ab38-86b17dcd549c"},"type":"Feature"},{"geometry":{"coordinates":[-80.31666,40.66144],"type":"Point"},"properties":{"kind":"stop","name":"Brodhead Rd opp. Lincoln Dr","stop_id":"4c04195c-4b32-4291-b3ba-e48425a0d33e"},"type":"Feature"},{"geometry":{"coordinates":[-80.26437,40.61624],"type":"Point"},"properties":{"kind":"stop","name":"Waugaman St at Tyler St","stop_id":"4c9dbaa6-a26b-4263-816f-c2d8b300bf5f"},"type":"Feature"},{"geometry":{"coordinates":[-80.23658,40.6559],"type":"Point"},"properties":{"kind":"stop","name":"Northern Lights Shopping Center","stop_id":"4cb53f35-f1d1-4d39-bdac-5f5f17ceaf83"},"type":"Feature"},{"geometry":{"coordinates":[-80.2833,40.60963],"type":"Point"},"properties":{"kind":"stop","name":"Brodhead Rd at Admiral St (Wendy's)","stop_id":"4f73b48a-f4da-4616-b409-175664a25eb8"},"type":"Feature"},{"geometry":{"coordinates":[-80.25048,40.68167],"type":"Point"},"properties":{"kind":"stop","name":"3rd Ave at Harvey Run Rd","stop_id":"4fbc2fca-3f2d-46fd-80a3-4c919bf1c277"},"type":"Feature"},{"geometry":{"coordinates":[-80.25778,40.61385],"type":"Point"},"properties":{"kind":"stop","name":"Franklin Ave opp. Pine St","stop_id":"50f829df-ec59-4734-a443-bce7aa65f6b9"},"type":"Feature"},{"geometry":{"coordinates":[-80.30156,40.69661],"type":"Point"},"properties":{"kind":"stop","name":"3rd St at Beaver St","stop_id":"530ebfc1-636f-438e-9e4e-b014fbf32700"},"type":"Feature"},{"geometry":{"coordinates":[-80.22522,40.58374],"type":"Point"},"properties":{"kind":"stop","name":"Merchant St at 4th St","stop_id":"5353bade-bf75-4547-806a-59e79a88210a"},"type":"Feature"},{"geometry":{"coordinates":[-80.06695,40.49578],"type":"Point"},"properties":{"kind":"stop","name":"Ohio River Blvd at Elizabeth St","stop_id":"53f6fbba-71fc-441a-97cf-3f39b9b87c81"},"type":"Feature"},{"geometry":{"coordinates":[-80.22619,40.59671],"type":"Point"},"properties":{"kind":"stop","name":"Duss Ave at 14th St","stop_id":"552dd4fe-7c5d-4e87-9a3a-68c59ec643ac"},"type":"Feature"},{"geometry":{"coordinates":[-80.28641,40.60659],"type":"Point"},"properties":{"kind":"stop","name":"Mill St opp. Golf Course Rd","stop_id":"552f6142-5824-4c32-8d39-d246e2e7dc5b"},"type":"Feature"},{"geometry":{"coordinates":[-80.22634,40.62543],"type":"Point"},"properties":{"kind":"stop","name":"Duss Ave opp. Dearborn St","stop_id":"55a24f18-23f8-4043-b346-35c5fb5a9585"},"type":"Feature"},{"geometry":{"coordinates":[-80.31959,40.75092],"type":"Point"},"properties":{"kind":"stop","name":"7th Ave at 10th St","stop_id":"57539a01-ca5a-4d24-9c2a-4fba1f65703c"},"type":"Feature"},{"geometry":{"coordinates":[-80.31718,40.67803],"type":"Point"},"properties":{"kind":"stop","name":"79 Wagner Rd (HV Rehab)","stop_id":"585b10e7-0f16-4f53-b848-484f4008f07c"},"type":"Feature"},{"geometry":{"coordinates":[-80.2269,40.58296],"type":"Point"},"properties":{"kind":"stop","name":"4th St at Park Rd","stop_id":"590a1da5-3142-4b62-9e3c-7a74bacada52"},"type":"Feature"},{"geometry":{"coordinates":[-80.31665,40.66161],"type":"Point"},"properties":{"kind":"stop","name":"Brodhead Rd at Lincoln Dr","stop_id":"59d9aeac-9533-490c-9191-09c2fb86808a"},"type":"Feature"},{"geometry":{"coordinates":[-80.28068,40.70021],"type":"Point"},"properties":{"kind":"stop","name":"Brighton Ave at Pleasant St","stop_id":"5af6e2dd-e98f-492b-9c74-85170fca0142"},"type":"Feature"},{"geometry":{"coordinates":[-80.31343,40.73423],"type":"Point"},"properties":{"kind":"stop","name":"3rd Ave at 9th St","stop_id":"5ca473ce-ef0c-4f45-b4db-e2aec2c7f6be"},"type":"Feature"},{"geometry":{"coordinates":[-80.31089,40.68006],"type":"Point"},"properties":{"kind":"stop","name":"Wagner Road (Target)","stop_id":"5d35685f-1724-402c-845b-e309d01cad4c"},"type":"Feature"},{"geometry":{"coordinates":[-80.19269,40.54394],"type":"Point"},"properties":{"kind":"stop","name":"Ohio River Blvd at Hazel Ln","stop_id":"605ea2a6-7cca-404e-b5d2-4bb4eea734ca"},"type":"Feature"},{"geometry":{"coordinates":[-79.99259,40.44356],"type":"Point"},"properties":{"kind":"stop","name":"East Busway (Regional Bus Stop)","stop_id":"6083a656-9bd6-4ee9-ad42-00596c19103d"},"type":"Feature"},{"geometry":{"coordinates":[-80.22638,40.61554],"type":"Point"},"properties":{"kind":"stop","name":"2973 Duss Ave","stop_id":"61eebb80-de1d-4b45-b5cc-2b159c7edd63"},"type":"Feature"},{"geometry":{"coordinates":[-80.24428,40.61905],"type":"Point"},"properties":{"kind":"stop","name":"Franklin Ave opp. Kiehl St","stop_id":"62bce96c-f656-4b11-8220-c21406396b5c"},"type":"Feature"},{"geometry":{"coordinates":[-80.2263,40.6093],"type":"Point"},"properties":{"kind":"stop","name":"Duss Ave opp. Harmony Rd","stop_id":"6546cd5a-5cba-40ea-86f5-216e120e5fb1"},"type":"Feature"},{"geometry":{"coordinates":[-80.28099,40.69311],"type":"Point"},"properties":{"kind":"stop","name":"9th St at Indiana Ave","stop_id":"662686df-4327-421f-b0fd-21e9363a4931"},"type":"Feature"},{"geometry":{"coordinates":[-80.21326,40.56795],"type":"Point"},"properties":{"kind":"stop","name":"Ohio River Blvd at Broad St","stop_id":"66346d07-11be-4673-8bf1-0cb2f2004c16"},"type":"Feature"},{"geometry":{"coordinates":[-80.22779,40.5935],"type":"Point"},"properties":{"kind":"stop","name":"11th St at Ambridge Police Dept","stop_id":"66d71c44-a7fb-4e2f-bfde-5c655a258646"},"type":"Feature"},{"geometry":{"coordinates":[-80.27177,40.61192],"type":"Point"},"properties":{"kind":"stop","name":"Tyler St at Warnock St","stop_id":"66fa7bef-02d0-4997-88ef-777da2aa8078"},"type":"Feature"},{"geometry":{"coordinates":[-80.31524,40.65499],"type":"Point"},"properties":{"kind":"stop","name":"3531 Brodhead Rd","stop_id":"68ab0acd-8972-42bb-8edb-1989b796fab7"},"type":"Feature"},{"geometry":{"coordinates":[-80.3185,40.63343],"type":"Point"},"properties":{"kind":"stop","name":"Expressway Travel Center","stop_id":"68d63584-8385-43dc-bde2-429f37299313"},"type":"Feature"},{"geometry":{"coordinates":[-80.28104,40.69323],"type":"Point"},"properties":{"kind":"stop","name":"9th St at Indiana Ave","stop_id":"69787fed-44ad-4865-9a38-2d968aa1e91d"},"type":"Feature"},{"geometry":{"coordinates":[-80.32433,40.77722],"type":"Point"},"properties":{"kind":"stop","name":"4th Ave at 36th St","stop_id":"6a800401-4e14-4dd8-a751-0f259d872787"},"type":"Feature"},{"geometry":{"coordinates":[-80.25303,40.6126],"type":"Point"},"properties":{"kind":"stop","name":"Franklin Ave  (Klenovich's)","stop_id":"6b7c43af-859e-44f1-af7e-4b73173f3bb0"},"type":"Feature"},{"geometry":{"coordinates":[-80.31001,40.62922],"type":"Point"},"properties":{"kind":"stop","name":"Brodhead Rd opp. Ridgeview Dr","stop_id":"6c2b5407-0c99-4f88-9b4c-9bb4ab99675a"},"type":"Feature"},{"geometry":{"coordinates":[-80.30193,40.69639],"type":"Point"},"properties":{"kind":"stop","name":"3rd St at Beaver St","stop_id":"6c8e6c87-3930-4933-8e35-62fbf01b7e6b"},"type":"Feature"},{"geometry":{"coordinates":[-80.23808,40.65798],"type":"Point"},"properties":{"kind":"stop","name":"1st Ave at 9th St","stop_id":"6d5829f0-25ee-4c84-bfdf-076cc7660653"},"type":"Feature"},{"geometry":{"coordinates":[-80.31951,40.75407],"type":"Point"},"properties":{"kind":"stop","name":"7th Ave at 13th St","stop_id":"6d6ab743-a8b0-4989-b7b5-7412559376be"},"type":"Feature"},{"geometry":{"coordinates":[-80.23042,40.59278],"type":"Point"},"properties":{"kind":"stop","name":"Merchant St at 11th St","stop_id":"701ac0c3-2221-428f-ad6d-215b2e270e0d"},"type":"Feature"},{"geometry":{"coordinates":[-80.30205,40.72113],"type":"Point"},"properties":{"kind":"stop","name":"3rd Ave at Brightwood Manor","stop_id":"7026d057-d9ac-40ce-80f4-0c0705baaf88"},"type":"Feature"},{"geometry":{"coordinates":[-80.31931,40.76506],"type":"Point"},"properties":{"kind":"stop","name":"7th Ave at 25th St","stop_id":"702db7e1-e2ac-42ea-80a5-1184793b1e27"},"type":"Feature"},{"geometry":{"coordinates":[-80.22626,40.60441],"type":"Point"},"properties":{"kind":"stop","name":"Duss Ave at 23rd St","stop_id":"708ae337-4d5a-4c08-908a-81d40597bae5"},"type":"Feature"},{"geometry":{"coordinates":[-80.30995,40.62921],"type":"Point"},"properties":{"kind":"stop","name":"Brodhead Rd at Ridgeview Dr","stop_id":"708ebf2a-06f5-4bee-a5ec-07cb9fc2942a"},"type":"Feature"},{"geometry":{"coordinates":[-80.31967,40.74741],"type":"Point"},"properties":{"kind":"stop","name":"7th Ave at 6th St","stop_id":"71adf7f2-707e-41f5-969c-a95b210a9929"},"type":"Feature"},{"geometry":{"coordinates":[-80.25741,40.62089],"type":"Point"},"properties":{"kind":"stop","name":"Bethel Lane at Wykes St","stop_id":"71bad48e-6b23-46a1-ad96-db82fe2462e3"},"type":"Feature"},{"geometry":{"coordinates":[-80.25898,40.61596],"type":"Point"},"properties":{"kind":"stop","name":"Monaca Rd opp Sheffield","stop_id":"720da999-d123-43dd-a884-10df0e7d084b"},"type":"Feature"},{"geometry":{"coordinates":[-80.18609,40.53736],"type":"Point"},"properties":{"kind":"stop","name":"Ohio River Blvd at Walnut St","stop_id":"724664de-4df4-4f3a-bcdd-32cd7ddab812"},"type":"Feature"},{"geometry":{"coordinates":[-80.28433,40.69124],"type":"Point"},"properties":{"kind":"stop","name":"Pennsylvania Ave at 6th St","stop_id":"7260252b-d8a3-4f30-9f44-13cd34372546"},"type":"Feature"},{"geometry":{"coordinates":[-80.31503,40.66541],"type":"Point"},"properties":{"kind":"stop","name":"Brodhead Rd at Oak Ln","stop_id":"7322e6c5-899b-4328-8f7a-64c857fc18a4"},"type":"Feature"},{"geometry":{"coordinates":[-80.31275,40.65135],"type":"Point"},"properties":{"kind":"stop","name":"Brodhead Rd at Sherwood Dr","stop_id":"73482479-5952-4378-ae87-e368a1780a61"},"type":"Feature"},{"geometry":{"coordinates":[-80.27211,40.69852],"type":"Point"},"properties":{"kind":"stop","name":"Ohio River Blvd at East Rochester Plaza","stop_id":"7437c9a8-69df-475a-a90b-0d19f25c7d9d"},"type":"Feature"},{"geometry":{"coordinates":[-80.28009,40.6041],"type":"Point"},"properties":{"kind":"stop","name":"Main St at Brodhead Rd","stop_id":"74f8991f-0d8d-4d1c-bd2f-cca414b627d7"},"type":"Feature"},{"geometry":{"coordinates":[-80.30825,40.69559],"type":"Point"},"properties":{"kind":"stop","name":"Market St Courthouse parking lot entrance","stop_id":"78649099-21e8-4df9-9160-3e5b964ed79a"},"type":"Feature"},{"geometry":{"coordinates":[-80.31628,40.65802],"type":"Point"},"properties":{"kind":"stop","name":"Brodhead Rd opp. Bonanni Dr","stop_id":"786f7faf-bdfd-4206-a677-ad9262f316a5"},"type":"Feature"},{"geometry":{"coordinates":[-80.28432,40.6122],"type":"Point"},"properties":{"kind":"stop","name":"Brodhead Rd at Hospital Dr","stop_id":"7936c3c2-9b8b-4782-8d7b-58075a8020e8"},"type":"Feature"},{"geometry":{"coordinates":[-80.328,40.78285],"type":"Point"},"properties":{"kind":"stop","name":"4th Ave at 43rd St","stop_id":"7ec5a1b6-45aa-4ef1-aa63-782e6d5213dc"},"type":"Feature"},{"geometry":{"coordinates":[-80.306,40.68156],"type":"Point"},"properties":{"kind":"stop","name":"Township Market Place (Texas Roadhouse)","stop_id":"7f454387-e8ac-403b-bbe3-e408ecc87af7"},"type":"Feature"},{"geometry":{"coordinates":[-80.31632,40.65794],"type":"Point"},"properties":{"kind":"stop","name":"Brodhead Rd at Bonanni Dr","stop_id":"8056c421-8ad4-41d8-a1c5-4d4efb96c088"},"type":"Feature"},{"geometry":{"coordinates":[-80.3243,40.77723],"type":"Point"},"properties":{"kind":"stop","name":"4th Ave at 36th St","stop_id":"80945470-b290-442b-863f-b2929d0dcfb6"},"type":"Feature"},{"geometry":{"coordinates":[-80.28183,40.60629],"type":"Point"},"properties":{"kind":"stop","name":"Brodhead Rd at Sheffield Rd","stop_id":"810b7ee9-7988-490d-a8e7-c8f8a5cfc7a5"},"type":"Feature"},{"geometry":{"coordinates":[-80.22488,40.58953],"type":"Point"},"properties":{"kind":"stop","name":"Duss Ave at 8th St","stop_id":"83c0056d-086a-4611-a810-9728584d96e6"},"type":"Feature"},{"geometry":{"coordinates":[-79.9976,40.43823],"type":"Point"},"properties":{"kind":"stop","name":"Grant St at 4th Ave","stop_id":"842ba14d-7727-43e3-9a01-79c15e420ea9"},"type":"Feature"},{"geometry":{"coordinates":[-80.09453,40.51026],"type":"Point"},"properties":{"kind":"stop","name":"Ohio River Blvd at  Willow St","stop_id":"89a708df-ec6c-4116-bb3d-157698825f94"},"type":"Feature"},{"geometry":{"coordinates":[-80.30195,40.72103],"type":"Point"},"properties":{"kind":"stop","name":"3rd Ave at Brightwood Manor","stop_id":"8b05f6d1-2a02-4e09-a6b3-8d28a2b4adff"},"type":"Feature"},{"geometry":{"coordinates":[-80.31963,40.74748],"type":"Point"},"properties":{"kind":"stop","name":"7th Ave at 6th St","stop_id":"8b90b686-cb09-42c2-9d2a-bac5b2b485c2"},"type":"Feature"},{"geometry":{"coordinates":[-80.07508,40.50145],"type":"Point"},"properties":{"kind":"stop","name":"Ohio River Blvd at Fisk St","stop_id":"8c416bfd-e8ae-4de0-9f22-06a41f0ead6d"},"type":"Feature"},{"geometry":{"coordinates":[-80.22876,40.58842],"type":"Point"},"properties":{"kind":"stop","name":"719 Merchant St","stop_id":"8c9a1172-d620-4d61-8704-ddb074176a01"},"type":"Feature"},{"geometry":{"coordinates":[-80.27209,40.61191],"type":"Point"},"properties":{"kind":"stop","name":"Tyler St at Warnock St","stop_id":"8d943f84-03a5-4d0b-bde0-9741acabd5e6"},"type":"Feature"},{"geometry":{"coordinates":[-80.22631,40.62547],"type":"Point"},"properties":{"kind":"stop","name":"Duss Ave at Dearborn St","stop_id":"8e2a3c23-5c5c-427e-a937-0d512a923000"},"type":"Feature"},{"geometry":{"coordinates":[-80.29529,40.61981],"type":"Point"},"properties":{"kind":"stop","name":"Brodhead Rd at Mt Carmel Drive","stop_id":"919f6513-81a1-48c7-ae01-39914c176525"},"type":"Feature"},{"geometry":{"coordinates":[-80.27763,40.60653],"type":"Point"},"properties":{"kind":"stop","name":"2011 Sheffield Rd","stop_id":"92cdf0c1-d22e-426f-9f4e-134737170603"},"type":"Feature"},{"geometry":{"coordinates":[-79.99424,40.44328],"type":"Point"},"properties":{"kind":"stop","name":"Grant St at Liberty Ave (Federal Bldg)","stop_id":"93260bdf-8ab7-499f-8e9a-9371361b78de"},"type":"Feature"},{"geometry":{"coordinates":[-80.20475,40.55794],"type":"Point"},"properties":{"kind":"stop","name":"Ohio River Blvd at Quaker Village Shopping Ctr","stop_id":"94513dda-5060-4f69-a73e-530d369a0cfe"},"type":"Feature"},{"geometry":{"coordinates":[-80.31606,40.73693],"type":"Point"},"properties":{"kind":"stop","name":"3rd Ave at 6th St","stop_id":"94814a52-2244-43b9-a663-d8bedfff33f0"},"type":"Feature"},{"geometry":{"coordinates":[-80.32324,40.68725],"type":"Point"},"properties":{"kind":"stop","name":"State Ave at Tamaqui Dr","stop_id":"95e9823f-3408-408f-9aea-0ffab599e538"},"type":"Feature"},{"geometry":{"coordinates":[-80.30974,40.69779],"type":"Point"},"properties":{"kind":"stop","name":"Market St at 5th St (Stop 2)","stop_id":"97528dc3-73b7-4cdf-a503-0e11325e940f"},"type":"Feature"},{"geometry":{"coordinates":[-80.31937,40.76216],"type":"Point"},"properties":{"kind":"stop","name":"7th Ave at 22nd St","stop_id":"978264d5-9850-4dea-a6d8-6d26e8f93a41"},"type":"Feature"},{"geometry":{"coordinates":[-80.0612,40.49153],"type":"Point"},"properties":{"kind":"stop","name":"Ohio River Blvd at Riverview Ave","stop_id":"986c03b2-56ef-48ae-a80b-1dc17985a3ef"},"type":"Feature"},{"geometry":{"coordinates":[-80.22725,40.59371],"type":"Point"},"properties":{"kind":"stop","name":"11th St opp. Ambridge Police Dept","stop_id":"992f778c-c46c-476f-973c-69bb7728cfac"},"type":"Feature"},{"geometry":{"coordinates":[-80.27774,40.60653],"type":"Point"},"properties":{"kind":"stop","name":"2011 Sheffield Rd","stop_id":"9befec74-df05-4d92-bddf-542be331a5c9"},"type":"Feature"},{"geometry":{"coordinates":[-80.04309,40.47894],"type":"Point"},"properties":{"kind":"stop","name":"Ohio River Blvd opp. McKees Rocks Bridge","stop_id":"9c6ecb27-e433-48d8-9031-a8da09a8fda3"},"type":"Feature"},{"geometry":{"coordinates":[-80.32391,40.77458],"type":"Point"},"properties":{"kind":"stop","name":"4th Ave opp. 33rd St","stop_id":"9cd0decc-0f63-433a-b1ce-dc0ccf351ff4"},"type":"Feature"},{"geometry":{"coordinates":[-80.23848,40.65848],"type":"Point"},"properties":{"kind":"stop","name":"1st Ave at 9th St","stop_id":"9d1aa5a3-63b1-4378-87c2-28797f36f910"},"type":"Feature"},{"geometry":{"coordinates":[-80.38318,40.78167],"type":"Point"},"properties":{"kind":"stop","name":"Wal-Mart Supercenter","stop_id":"9db96741-f8c0-4c26-a0d4-215ecdd6259e"},"type":"Feature"},{"geometry":{"coordinates":[-80.31072,40.64806],"type":"Point"},"properties":{"kind":"stop","name":"Brodhead Rd at Center Grange Rd","stop_id":"9ff3f4ea-bf61-45a3-9e14-f2b68a67cd12"},"type":"Feature"},{"geometry":{"coordinates":[-80.28175,40.60625],"type":"Point"},"properties":{"kind":"stop","name":"Brodhead Rd at Sheffield Rd","stop_id":"a01f1ebd-7abf-45cf-91fd-472125cb926a"},"type":"Feature"},{"geometry":{"coordinates":[-80.2252,40.58371],"type":"Point"},"properties":{"kind":"stop","name":"4th St at Merchant St","stop_id":"a13cab0f-b353-4ff6-b3ec-c57898700c75"},"type":"Feature"},{"geometry":{"coordinates":[-80.24991,40.61449],"type":"Point"},"properties":{"kind":"stop","name":"Franklin Ave at Engle St","stop_id":"a2dd4c94-bd65-49d8-a290-05bb79c88527"},"type":"Feature"},{"geometry":{"coordinates":[-80.28331,40.6097],"type":"Point"},"properties":{"kind":"stop","name":"Brodhead Rd at Admiral St (Wendy's)","stop_id":"a34f0a16-3fb3-4b15-b26f-b97b30cf0931"},"type":"Feature"},{"geometry":{"coordinates":[-80.18605,40.53736],"type":"Point"},"properties":{"kind":"stop","name":"Ohio River Blvd at Walnut St","stop_id":"a4ab9515-bddf-4b89-b642-91824d3253a3"},"type":"Feature"},{"geometry":{"coordinates":[-80.22628,40.60927],"type":"Point"},"properties":{"kind":"stop","name":"Duss Ave at Harmony Ave","stop_id":"a4d985dc-e5f1-42e5-9d58-e9153f676bb1"},"type":"Feature"},{"geometry":{"coordinates":[-80.3199,40.68875],"type":"Point"},"properties":{"kind":"stop","name":"3rd St at Chestnut St","stop_id":"a566dd31-0ab2-4c02-811e-1fb386c9fae0"},"type":"Feature"},{"geometry":{"coordinates":[-80.32695,40.70553],"type":"Point"},"properties":{"kind":"stop","name":"Friendship Circle (Entrance)","stop_id":"a796e39f-6740-45ba-80a2-60f0583996f1"},"type":"Feature"},{"geometry":{"coordinates":[-80.3194,40.75795],"type":"Point"},"properties":{"kind":"stop","name":"7th Ave at 17th St","stop_id":"a7fd2024-b6af-495b-8fdf-b814be7bfb76"},"type":"Feature"},{"geometry":{"coordinates":[-80.30488,40.59775],"type":"Point"},"properties":{"kind":"stop","name":"Green Garden Plaza (Sally's Beauty)","stop_id":"ad25d1f8-9b44-429d-b02e-31570ef03377"},"type":"Feature"},{"geometry":{"coordinates":[-80.31914,40.76505],"type":"Point"},"properties":{"kind":"stop","name":"7th Ave at 25th St","stop_id":"aeb664dd-249e-4793-a228-6dacef563613"},"type":"Feature"},{"geometry":{"coordinates":[-80.31334,40.73417],"type":"Point"},"properties":{"kind":"stop","name":"3rd Ave at 9th St","stop_id":"afb403a8-ca1a-43b4-ad10-5bdd3a28d2f1"},"type":"Feature"},{"geometry":{"coordinates":[-80.37642,40.7999],"type":"Point"},"properties":{"kind":"stop","name":"Wallace Run Rd at Shenango Rd","stop_id":"b19534bb-39d3-413c-a51e-18ed5a6141c1"},"type":"Feature"},{"geometry":{"coordinates":[-80.22929,40.58932],"type":"Point"},"properties":{"kind":"stop","name":"Merchant St at 8th St","stop_id":"b304844b-25f1-43ed-8683-e26b863f3600"},"type":"Feature"},{"geometry":{"coordinates":[-80.31529,40.65537],"type":"Point"},"properties":{"kind":"stop","name":"Brodhead Rd at Mulberry Ln","stop_id":"b3798069-a867-4aa6-ac3b-2be57d53bbee"},"type":"Feature"},{"geometry":{"coordinates":[-80.24755,40.61625],"type":"Point"},"properties":{"kind":"stop","name":"434 Franklin Ave","stop_id":"b3e54379-2703-494a-94d4-6a699db306cf"},"type":"Feature"},{"geometry":{"coordinates":[-79.9993,40.44259],"type":"Point"},"properties":{"kind":"stop","name":"Liberty Ave at Wood St  (\"T\" Station)","stop_id":"b45e8a06-a30b-4fd4-8f53-913c05eba78d"},"type":"Feature"},{"geometry":{"coordinates":[-80.22634,40.61233],"type":"Point"},"properties":{"kind":"stop","name":"Duss Ave opp. Keystone Rd","stop_id":"b47c536f-8cdd-425d-bf7f-96057d25ef85"},"type":"Feature"},{"geometry":{"coordinates":[-80.33131,40.7867],"type":"Point"},"properties":{"kind":"stop","name":"4th Ave at 47th St","stop_id":"b554b119-b320-42d1-9d23-6892b9bbcedf"},"type":"Feature"},{"geometry":{"coordinates":[-80.2843,40.61214],"type":"Point"},"properties":{"kind":"stop","name":"Brodhead Rd at Caler St","stop_id":"b5ea739a-9e90-4e25-b1bf-85d3aed780c4"},"type":"Feature"},{"geometry":{"coordinates":[-80.31115,40.64595],"type":"Point"},"properties":{"kind":"stop","name":"Brodhead Rd at Main St","stop_id":"b5f2509f-5079-44ae-b431-3c16a5921217"},"type":"Feature"},{"geometry":{"coordinates":[-80.31268,40.67488],"type":"Point"},"properties":{"kind":"stop","name":"Beaver Valley Mall (Food Court)","stop_id":"b63d40a3-562f-4c61-8804-4b0b995cb485"},"type":"Feature"},{"geometry":{"coordinates":[-80.07538,40.50155],"type":"Point"},"properties":{"kind":"stop","name":"Ohio River Blvd at Monitor Ave","stop_id":"b791b03f-c4ee-410f-b1f3-02da3f53e875"},"type":"Feature"},{"geometry":{"coordinates":[-79.9965,40.44329],"type":"Point"},"properties":{"kind":"stop","name":"Liberty Ave at Smithfield St","stop_id":"b90c77b0-6d99-4388-89d5-5c271c14033e"},"type":"Feature"},{"geometry":{"coordinates":[-80.22619,40.59669],"type":"Point"},"properties":{"kind":"stop","name":"Duss Ave at 14th St","stop_id":"b90d5cdb-18a9-4273-9be7-8779ff440400"},"type":"Feature"},{"geometry":{"coordinates":[-80.29902,40.71657],"type":"Point"},"properties":{"kind":"stop","name":"YMCA Dr at 3rd Ave","stop_id":"baedb390-943e-4470-a5de-5ef06645c414"},"type":"Feature"},{"geometry":{"coordinates":[-80.31238,40.65079],"type":"Point"},"properties":{"kind":"stop","name":"Brodhead Rd opp. Village Shops","stop_id":"bb5cef94-1681-4e1a-ac32-dede194dd0ca"},"type":"Feature"},{"geometry":{"coordinates":[-80.30655,40.68144],"type":"Point"},"properties":{"kind":"stop","name":"Township Market Place (opp. Texas Roadhouse)","stop_id":"bd4cb9e3-5d43-46ad-bafe-c15f7e74c079"},"type":"Feature"},{"geometry":{"coordinates":[-80.29074,40.70403],"type":"Point"},"properties":{"kind":"stop","name":"438 Delaware Ave","stop_id":"be487715-b704-4df3-8cb5-a01d3b20b79c"},"type":"Feature"},{"geometry":{"coordinates":[-80.37347,40.77458],"type":"Point"},"properties":{"kind":"stop","name":"Chippewa Center (Dunham's)","stop_id":"becfffee-a60b-4833-8901-6c1c46d6e550"},"type":"Feature"},{"geometry":{"coordinates":[-79.99127,40.44446],"type":"Point"},"properties":{"kind":"stop","name":"East Busway (Stop D)","stop_id":"bf74da4b-e6dd-4f73-895e-9045ca6ecfbb"},"type":"Feature"},{"geometry":{"coordinates":[-80.22734,40.58654],"type":"Point"},"properties":{"kind":"stop","name":"Merchant St at 6th St","stop_id":"c0836512-1229-44a1-a67b-b8c528198afc"},"type":"Feature"},{"geometry":{"coordinates":[-80.06696,40.49576],"type":"Point"},"properties":{"kind":"stop","name":"Ohio River Blvd at Elizabeth St","stop_id":"c0e6a8bd-58ff-4174-8378-7e0d79846074"},"type":"Feature"},{"geometry":{"coordinates":[-79.99543,40.4415],"type":"Point"},"properties":{"kind":"stop","name":"Grant St at Strawberry Way","stop_id":"c0fc4c43-ea7d-4132-b811-33f58e6bad8d"},"type":"Feature"},{"geometry":{"coordinates":[-80.27498,40.61115],"type":"Point"},"properties":{"kind":"stop","name":"Grand Ave at Tyler Ave","stop_id":"c1ea3a25-b1ba-4ffa-8c27-eb7054b62d73"},"type":"Feature"},{"geometry":{"coordinates":[-80.24313,40.61943],"type":"Point"},"properties":{"kind":"stop","name":"319 Station St","stop_id":"c232391a-7394-4218-9a9d-3d9e0ab007dc"},"type":"Feature"},{"geometry":{"coordinates":[-79.99641,40.44333],"type":"Point"},"properties":{"kind":"stop","name":"Liberty Ave opp. Smithfield St","stop_id":"c27dd3c5-88d4-4c99-ac99-83d2206b8cef"},"type":"Feature"},{"geometry":{"coordinates":[-80.22517,40.5912],"type":"Point"},"properties":{"kind":"stop","name":"Duss Ave at 9th St","stop_id":"c29aa5f3-d24a-41f0-be8d-e89a922b16ce"},"type":"Feature"},{"geometry":{"coordinates":[-80.31419,40.66608],"type":"Point"},"properties":{"kind":"stop","name":"Brodhead Rd at North Branch Rd","stop_id":"c2a76611-665f-444b-ae9e-6e265b58d37b"},"type":"Feature"},{"geometry":{"coordinates":[-80.26483,40.61336],"type":"Point"},"properties":{"kind":"stop","name":"Tyler St at Upland St","stop_id":"c3531679-7fe7-40c9-9c1f-3d687b55d7ba"},"type":"Feature"},{"geometry":{"coordinates":[-80.3253,40.68632],"type":"Point"},"properties":{"kind":"stop","name":"State Ave at Locust St","stop_id":"c3b179b6-d6a3-408d-937c-45d1ab582301"},"type":"Feature"},{"geometry":{"coordinates":[-80.31954,40.75118],"type":"Point"},"properties":{"kind":"stop","name":"7th Ave at 10th St","stop_id":"c542ff31-c246-4234-941b-aa233f29f450"},"type":"Feature"},{"geometry":{"coordinates":[-80.32219,40.707],"type":"Point"},"properties":{"kind":"stop","name":"Friendship Circle (East)","stop_id":"c59efc7a-0e5c-4fd4-a9aa-213436f028eb"},"type":"Feature"},{"geometry":{"coordinates":[-80.22626,40.60438],"type":"Point"},"properties":{"kind":"stop","name":"Duss Ave at 23rd St","stop_id":"c7f3d8eb-1be5-4dd6-92b4-0ae350527ee9"},"type":"Feature"},{"geometry":{"coordinates":[-80.20476,40.55791],"type":"Point"},"properties":{"kind":"stop","name":"Ohio River Blvd opp. Quaker Village Shop Ctr","stop_id":"c9f37a09-f40c-4e80-a58d-4733f922e580"},"type":"Feature"},{"geometry":{"coordinates":[-80.25438,40.68541],"type":"Point"},"properties":{"kind":"stop","name":"3rd Ave opp. 8th St","stop_id":"cd31153b-8661-4925-98a6-87aa3becda8a"},"type":"Feature"},{"geometry":{"coordinates":[-80.29515,40.6197],"type":"Point"},"properties":{"kind":"stop","name":"Brodhead Rd at Orchard St","stop_id":"cd8dbc88-8e75-4319-8e11-57f43edffed6"},"type":"Feature"},{"geometry":{"coordinates":[-80.2865,40.60658],"type":"Point"},"properties":{"kind":"stop","name":"Mill St at Golf Course Rd","stop_id":"cf3b7df5-6559-4335-bef7-cad3a1501d94"},"type":"Feature"},{"geometry":{"coordinates":[-80.26435,40.61626],"type":"Point"},"properties":{"kind":"stop","name":"Tyler St at Waugaman St","stop_id":"cfc8b496-073b-404f-807a-82fb1ea66264"},"type":"Feature"},{"geometry":{"coordinates":[-80.25726,40.68849],"type":"Point"},"properties":{"kind":"stop","name":"3rd Ave at 5th St","stop_id":"cfd54282-1792-4cc3-b497-dd4d1be920d4"},"type":"Feature"},{"geometry":{"coordinates":[-80.30198,40.67904],"type":"Point"},"properties":{"kind":"stop","name":"Wal-Mart Plaza","stop_id":"d1d21406-1ffc-45bf-8d0b-68f9893032e9"},"type":"Feature"},{"geometry":{"coordinates":[-80.30693,40.65578],"type":"Point"},"properties":{"kind":"stop","name":"CCBC (Middle Lot)","stop_id":"d2a6d763-c3b4-4c80-97df-d31122f367a3"},"type":"Feature"},{"geometry":{"coordinates":[-80.29901,40.69765],"type":"Point"},"properties":{"kind":"stop","name":"3rd St at Lincoln Ave","stop_id":"d324adce-f958-4dd4-8234-84a0b21bdc81"},"type":"Feature"},{"geometry":{"coordinates":[-80.25896,40.61455],"type":"Point"},"properties":{"kind":"stop","name":"Franklin Ave at Orchard St","stop_id":"d44ff5ad-32e4-43c4-9690-9c602e380254"},"type":"Feature"},{"geometry":{"coordinates":[-80.24552,40.61807],"type":"Point"},"properties":{"kind":"stop","name":"Franklin Ave  (Municipal Parking Lot)","stop_id":"d61ed523-2d6b-4938-8874-4358ce1a56a7"},"type":"Feature"},{"geometry":{"coordinates":[-80.23151,40.59281],"type":"Point"},"properties":{"kind":"stop","name":"11th St at Maplewood Ave","stop_id":"d63dc73d-dbfc-4009-b416-ae7342ee3d87"},"type":"Feature"},{"geometry":{"coordinates":[-80.32966,40.78499],"type":"Point"},"properties":{"kind":"stop","name":"4th Ave at 45th St","stop_id":"db652ac4-eb84-4c6b-ab9a-09a387427e8c"},"type":"Feature"},{"geometry":{"coordinates":[-79.99527,40.44362],"type":"Point"},"properties":{"kind":"stop","name":"Liberty Ave at William Penn Pl","stop_id":"db767d0c-7623-441a-8acd-49c93bef2465"},"type":"Feature"},{"geometry":{"coordinates":[-80.22879,40.63583],"type":"Point"},"properties":{"kind":"stop","name":"State St at Holmes Ave","stop_id":"dbdccc8c-4795-4b50-99a6-9089a682b2a2"},"type":"Feature"},{"geometry":{"coordinates":[-80.23036,40.59249],"type":"Point"},"properties":{"kind":"stop","name":"Merchant St at 11th St","stop_id":"dcb68a91-904f-4680-a9d1-9a4ef54c393c"},"type":"Feature"},{"geometry":{"coordinates":[-80.31679,40.67795],"type":"Point"},"properties":{"kind":"stop","name":"79 Wagner Rd (opp. HV Rehab)","stop_id":"dcbe51f3-c044-49d0-91af-1a2bab4ee425"},"type":"Feature"},{"geometry":{"coordinates":[-80.31073,40.64811],"type":"Point"},"properties":{"kind":"stop","name":"Brodhead Rd at Center Grange Rd","stop_id":"ddd3aba0-cddb-4bf7-a1d5-c6b408ffcdcf"},"type":"Feature"},{"geometry":{"coordinates":[-80.00193,40.44188],"type":"Point"},"properties":{"kind":"stop","name":"Liberty Ave at Market St","stop_id":"df08998b-a451-43d7-b0de-36721ca17585"},"type":"Feature"},{"geometry":{"coordinates":[-80.32045,40.68857],"type":"Point"},"properties":{"kind":"stop","name":"State Ave at Walnut St","stop_id":"dfbd320a-19ab-4a92-8865-cf51accd0dbd"},"type":"Feature"},{"geometry":{"coordinates":[-80.24748,40.61629],"type":"Point"},"properties":{"kind":"stop","name":"427 Frankliin Ave","stop_id":"e22a6385-d1ee-4eb8-8da3-33b78afb5dbc"},"type":"Feature"},{"geometry":{"coordinates":[-80.3298,40.7852],"type":"Point"},"properties":{"kind":"stop","name":"4th Ave opp. 45th St","stop_id":"e50123d0-4a76-41ad-92dd-9a4d5a5ed7cc"},"type":"Feature"},{"geometry":{"coordinates":[-80.306,40.69476],"type":"Point"},"properties":{"kind":"stop","name":"3rd St at Insurance St","stop_id":"e5499203-39c7-4e6f-bc4e-1794f9185ab9"},"type":"Feature"},{"geometry":{"coordinates":[-80.29946,40.71746],"type":"Point"},"properties":{"kind":"stop","name":"2230 3rd Ave","stop_id":"e71d88ff-c1f4-4dfa-9abd-8f09cadaac08"},"type":"Feature"},{"geometry":{"coordinates":[-80.22622,40.60116],"type":"Point"},"properties":{"kind":"stop","name":"Duss Ave at 19th St","stop_id":"ea4b0869-deaa-47b5-9400-7d779fbd431d"},"type":"Feature"},{"geometry":{"coordinates":[-80.22623,40.60118],"type":"Point"},"properties":{"kind":"stop","name":"Duss Ave at 19th St","stop_id":"eb126af7-fb4d-4c29-8c6e-58742e1401bd"},"type":"Feature"},{"geometry":{"coordinates":[-80.29067,40.70402],"type":"Point"},"properties":{"kind":"stop","name":"437 Delaware Ave","stop_id":"ede2cbe1-d496-4a0c-9ee9-ec7dd1e4521c"},"type":"Feature"},{"geometry":{"coordinates":[-80.26483,40.61327],"type":"Point"},"properties":{"kind":"stop","name":"Tyler St at Upland St","stop_id":"ee232b80-f4a4-4f7d-9dec-b92e3b0c8fbc"},"type":"Feature"},{"geometry":{"coordinates":[-80.23084,40.63872],"type":"Point"},"properties":{"kind":"stop","name":"State St at Phillip St.","stop_id":"ee45a9b3-2a20-4bb6-ba53-18a0e050c2f7"},"type":"Feature"},{"geometry":{"coordinates":[-80.37859,40.77673],"type":"Point"},"properties":{"kind":"stop","name":"Chippewa Central Square (Giant Eagle)","stop_id":"ef32ad20-9bf3-4f45-a73e-dc4aaec971d6"},"type":"Feature"},{"geometry":{"coordinates":[-80.28682,40.70245],"type":"Point"},"properties":{"kind":"stop","name":"Brighton Ave at Jefferson St","stop_id":"f19c3f9f-8087-4e59-926c-fb08b66c5ce3"},"type":"Feature"},{"geometry":{"coordinates":[-80.25434,40.68539],"type":"Point"},"properties":{"kind":"stop","name":"3rd Ave at 8th St","stop_id":"f317d570-67fb-4c40-ab47-d4f4b0864c88"},"type":"Feature"},{"geometry":{"coordinates":[-80.31119,40.67995],"type":"Point"},"properties":{"kind":"stop","name":"Wagner Road (First Commonwealth Bank)","stop_id":"f3b5ef5d-4398-41e2-9c34-e3fd0d2d4538"},"type":"Feature"},{"geometry":{"coordinates":[-80.00491,40.44139],"type":"Point"},"properties":{"kind":"stop","name":"Liberty Ave at Gateway Center","stop_id":"f43e953f-3f6f-4ee5-8722-963a3a95e467"},"type":"Feature"},{"geometry":{"coordinates":[-80.28413,40.69126],"type":"Point"},"properties":{"kind":"stop","name":"Pennsylvania Ave at 6th St","stop_id":"f67d05c3-63da-4fc2-ba03-34c00ac27601"},"type":"Feature"},{"geometry":{"coordinates":[-80.32383,40.77383],"type":"Point"},"properties":{"kind":"stop","name":"4th Ave at 33rd St","stop_id":"fa4c63fb-be20-4afe-90da-75b95cf3e9f5"},"type":"Feature"},{"geometry":{"coordinates":[-80.31222,40.69216],"type":"Point"},"properties":{"kind":"stop","name":"3rd St at Buffalo St","stop_id":"fabf700b-1ac1-4b59-91ae-2e103c3b9b64"},"type":"Feature"},{"geometry":{"coordinates":[-80.22687,40.58299],"type":"Point"},"properties":{"kind":"stop","name":"4th St at Park Rd","stop_id":"fb63b0c4-f1cd-4150-ac08-365abe95ecdb"},"type":"Feature"},{"geometry":{"coordinates":[-80.30269,40.68238],"type":"Point"},"properties":{"kind":"stop","name":"Township Market Place (Pier 1 Imports)","stop_id":"fc893cea-9b4a-4b20-b74c-1229ada55d0b"},"type":"Feature"},{"geometry":{"coordinates":[-80.00159,40.44203],"type":"Point"},"properties":{"kind":"stop","name":"Liberty Ave at 6th St","stop_id":"fd0e0b07-9536-41dd-aa14-ace421e92190"},"type":"Feature"},{"geometry":{"coordinates":[-80.31943,40.75408],"type":"Point"},"properties":{"kind":"stop","name":"7th Ave at 13th St","stop_id":"fdaf918f-591e-4b11-9078-855fc4b3ce54"},"type":"Feature"},{"geometry":{"coordinates":[-80.06119,40.49157],"type":"Point"},"properties":{"kind":"stop","name":"Ohio River Blvd at Riverview Ave","stop_id":"fdeb3156-e1ca-404e-89d3-5cb0a76abc19"},"type":"Feature"},{"geometry":{"coordinates":[-80.22898,40.63604],"type":"Point"},"properties":{"kind":"stop","name":"State St at Holmes Ave","stop_id":"fe9c6a2b-4bed-4434-a38b-d8aeb3ca3c41"},"type":"Feature"},{"geometry":{"coordinates":[-80.2325,40.59267],"type":"Point"},"properties":{"kind":"stop","name":"11th St at Church St","stop_id":"ffa07bdf-0363-4d28-a7e0-1332e9537fc5"},"type":"Feature"},{"geometry":{"coordinates":[-80.27488,40.61119],"type":"Point"},"properties":{"kind":"stop","name":"Tyler St at Grand Ave","stop_id":"ffe6e27a-69cd-433f-8a68-61df78d85e57"},"type":"Feature"}],"type":"FeatureCollection"}
