{"features":[{"geometry":{"coordinates":[[-118.39025,33.83865],[-118.38797,33.83816],[-118.38826,33.84149],[-118.3886,33.84248],[-118.38919,33.84341],[-118.37862,33.85173],[-118.382,33.85417],[-118.3807,33.85462],[-118.37838,33.85495],[-118.37571,33.85571],[-118.37506,33.85613],[-118.37475,33.85677],[-118.37481,33.8582],[-118.3728,33.8582],[-118.37272,33.87277],[-118.35267,33.87274],[-118.35269,33.86554],[-118.35658,33.86554],[-118.35659,33.86762],[-118.35631,33.86812],[-118.35627,33.86888],[-118.35684,33.86976],[-118.35697,33.87291],[-118.36996,33.87291],[-118.36996,33.88687],[-118.37013,33.88744],[-118.37015,33.89462],[-118.36947,33.89463]],"type":"LineString"},"properties":{"color":"#0000FF","color_name":"blue","kind":"route","label":"Beach Cities Transit 102 Northbound","long":"Beach Cities Transit 102 Northbound","route_id":"BCT102 NB","text_color":"#FFFFFF","type_label":"Bus"},"type":"Feature"},{"geometry":{"coordinates":[[-118.36919,33.89463],[-118.37015,33.89462],[-118.36993,33.8728],[-118.35267,33.87274],[-118.35269,33.86554],[-118.35658,33.86554],[-118.35659,33.86762],[-118.35631,33.86812],[-118.35627,33.86888],[-118.35684,33.86976],[-118.35697,33.87291],[-118.37272,33.87289],[-118.3728,33.8583],[-118.37482,33.85832],[-118.37475,33.85677],[-118.37506,33.85613],[-118.37571,33.85571],[-118.37838,33.85495],[-118.3807,33.85462],[-118.382,33.85417],[-118.37862,33.85173],[-118.38927,33.84335],[-118.38873,33.84245],[-118.3884,33.84142],[-118.38812,33.83828],[-118.38884,33.83839],[-118.38987,33.83903],[-118.3902,33.83898],[-118.3903,33.83871],[-118.38963,33.83847]],"type":"LineString"},"properties":{"color":"#0000FF","color_name":"blue","kind":"route","label":"Beach Cities Transit 102 Southbound","long":"Beach Cities Transit 102 Southbound","route_id":"BCT102 SB","text_color":"#FFFFFF","type_label":"Bus"},"type":"Feature"},{"geometry":{"coordinates":[[-118.38511,33.81651],[-118.38621,33.81544],[-118.38651,33.81536],[-118.38803,33.81794],[-118.38836,33.81925],[-118.3887,33.82764],[-118.38901,33.82879],[-118.38866,33.83147],[-118.38778,33.83516],[-118.38836,33.84191],[-118.38913,33.84335],[-118.39153,33.84566],[-118.39188,33.84645],[-118.39351,33.84607],[-118.39525,33.84864],[-118.39715,33.85209],[-118.39762,33.85333],[-118.40092,33.86586],[-118.4017,33.86727],[-118.40352,33.86943],[-118.40512,33.87199],[-118.40516,33.87238],[-118.40482,33.87314],[-118.40499,33.87371],[-118.40694,33.87718],[-118.41073,33.88474],[-118.4097,33.88511],[-118.4109,33.8873],[-118.41157,33.88814],[-118.41516,33.8948],[-118.41779,33.90096],[-118.41464,33.90181],[-118.39332,33.90182],[-118.39281,33.90181],[-118.39287,33.90042],[-118.39087,33.90077],[-118.38855,33.90075],[-118.38687,33.90048],[-118.38649,33.90193],[-118.3865,33.90483],[-118.38667,33.90521],[-118.38581,33.90539],[-118.3848,33.90526],[-118.38359,33.90439],[-118.38313,33.90431],[-118.38312,33.90194],[-118.39545,33.90193],[-118.39595,33.90207],[-118.39606,33.90508],[-118.39516,33.90505],[-118.39289,33.90446],[-118.39159,33.90536],[-118.3915,33.90639],[-118.39153,33.90771],[-118.39182,33.90859],[-118.39451,33.90794],[-118.3958,33.90788],[-118.39594,33.91946],[-118.41425,33.91943],[-118.41594,33.91907],[-118.41598,33.93083],[-118.40189,33.93086],[-118.40201,33.93112],[-118.40386,33.93101],[-118.40399,33.93131],[-118.39605,33.93085],[-118.38011,33.93087],[-118.37844,33.93076],[-118.37844,33.9291],[-118.37748,33.92912],[-118.37742,33.9293],[-118.37753,33.9291],[-118.37844,33.9291],[-118.37849,33.94558],[-118.38607,33.94559],[-118.38594,33.94943],[-118.38822,33.94884],[-118.39177,33.94884]],"type":"LineString"},"properties":{"color":"#AC0000","color_name":"red","kind":"route","label":"Beach Cities Transit 109 Northbound","long":"Beach Cities Transit 109 Northbound","route_id":"BCT109 NB","text_color":"#FFFFFF","type_label":"Bus"},"type":"Feature"},{"geometry":{"coordinates":[[-118.39177,33.94944],[-118.39271,33.94944],[-118.39289,33.9491],[-118.39344,33.94911],[-118.39344,33.94884],[-118.38923,33.94883],[-118.38804,33.94886],[-118.38594,33.94943],[-118.38607,33.9454],[-118.37849,33.94539],[-118.37844,33.9291],[-118.37744,33.92917],[-118.37742,33.9293],[-118.37753,33.9291],[-118.37844,33.9291],[-118.37844,33.93096],[-118.38118,33.93113],[-118.39566,33.931],[-118.39743,33.93114],[-118.39891,33.93173],[-118.404,33.93147],[-118.40386,33.93101],[-118.40201,33.93112],[-118.40189,33.93086],[-118.41598,33.93083],[-118.41594,33.91894],[-118.41392,33.91942],[-118.39615,33.91945],[-118.396,33.90776],[-118.39456,33.90779],[-118.39176,33.90845],[-118.39153,33.90771],[-118.3915,33.90639],[-118.39159,33.90536],[-118.39289,33.90446],[-118.39495,33.90514],[-118.39631,33.90522],[-118.39628,33.90179],[-118.39281,33.90181],[-118.39287,33.90042],[-118.39087,33.90077],[-118.38855,33.90075],[-118.38687,33.90048],[-118.38649,33.90193],[-118.3865,33.90483],[-118.38667,33.90521],[-118.38581,33.90539],[-118.3848,33.90526],[-118.38359,33.90439],[-118.38313,33.90431],[-118.38312,33.90194],[-118.3983,33.90205],[-118.41468,33.90191],[-118.41782,33.90103],[-118.41516,33.8948],[-118.41157,33.88814],[-118.4109,33.8873],[-118.4097,33.88511],[-118.41073,33.88474],[-118.40482,33.87332],[-118.40528,33.87196],[-118.40363,33.86936],[-118.40186,33.86724],[-118.40111,33.86586],[-118.3978,33.8534],[-118.39739,33.8524],[-118.39525,33.84864],[-118.39351,33.84607],[-118.39202,33.84642],[-118.39175,33.8457],[-118.38957,33.84369],[-118.38873,33.84245],[-118.38837,33.84126],[-118.38777,33.83556],[-118.38791,33.83428],[-118.38866,33.83147],[-118.38901,33.82879],[-118.3887,33.82764],[-118.38836,33.81925],[-118.38543,33.81893],[-118.38552,33.81792],[-118.38592,33.81747],[-118.38485,33.81678],[-118.38513,33.81649]],"type":"LineString"},"properties":{"color":"#AC0000","color_name":"red","kind":"route","label":"Beach Cities Transit 109 Southbound","long":"Beach Cities Transit 109 Southbound","route_id":"BCT109 SB","text_color":"#FFFFFF","type_label":"Bus"},"type":"Feature"},{"geometry":{"coordinates":[-118.38527,33.81654],"type":"Point"},"properties":{"kind":"stop","name":"Palos Verdes Blvd / Via Valencia","stop_id":"101"},"type":"Feature"},{"geometry":{"coordinates":[-118.3868,33.81612],"type":"Point"},"properties":{"kind":"stop","name":"Catalina Ave. / Elena Ave.","stop_id":"102"},"type":"Feature"},{"geometry":{"coordinates":[-118.38819,33.81914],"type":"Point"},"properties":{"kind":"stop","name":"Catalina Ave. / Avenue I","stop_id":"103"},"type":"Feature"},{"geometry":{"coordinates":[-118.38832,33.82231],"type":"Point"},"properties":{"kind":"stop","name":"Catalina Ave. / Avenue F","stop_id":"104"},"type":"Feature"},{"geometry":{"coordinates":[-118.38847,33.82539],"type":"Point"},"properties":{"kind":"stop","name":"Catalina Ave. / Avenue C","stop_id":"105"},"type":"Feature"},{"geometry":{"coordinates":[-118.38886,33.82878],"type":"Point"},"properties":{"kind":"stop","name":"Catalina Ave. / Knob Hill Ave.","stop_id":"106"},"type":"Feature"},{"geometry":{"coordinates":[-118.38865,33.83143],"type":"Point"},"properties":{"kind":"stop","name":"Catalina Ave. / Topaz St.","stop_id":"107"},"type":"Feature"},{"geometry":{"coordinates":[-118.38812,33.8332],"type":"Point"},"properties":{"kind":"stop","name":"Catalina Ave. / Sapphire St.","stop_id":"108"},"type":"Feature"},{"geometry":{"coordinates":[-118.38773,33.83648],"type":"Point"},"properties":{"kind":"stop","name":"Catalina Ave. / Pearl St.","stop_id":"109"},"type":"Feature"},{"geometry":{"coordinates":[-118.39039,33.84475],"type":"Point"},"properties":{"kind":"stop","name":"Catalina Ave. / Carnelian St.","stop_id":"110"},"type":"Feature"},{"geometry":{"coordinates":[-118.39325,33.84618],"type":"Point"},"properties":{"kind":"stop","name":"Beryl  St. / Harbor Dr.","stop_id":"111"},"type":"Feature"},{"geometry":{"coordinates":[-118.39743,33.85287],"type":"Point"},"properties":{"kind":"stop","name":"Hermosa Ave. / Lyndon St.","stop_id":"112"},"type":"Feature"},{"geometry":{"coordinates":[-118.39793,33.85476],"type":"Point"},"properties":{"kind":"stop","name":"Hermosa Ave. / 2nd St.","stop_id":"113"},"type":"Feature"},{"geometry":{"coordinates":[-118.39869,33.85767],"type":"Point"},"properties":{"kind":"stop","name":"Hermosa Ave. / 6th St.","stop_id":"114"},"type":"Feature"},{"geometry":{"coordinates":[-118.39906,33.85911],"type":"Point"},"properties":{"kind":"stop","name":"Hermosa Ave. / 8th St.","stop_id":"115"},"type":"Feature"},{"geometry":{"coordinates":[-118.39944,33.86057],"type":"Point"},"properties":{"kind":"stop","name":"Hermosa Ave. / 10th St.","stop_id":"116"},"type":"Feature"},{"geometry":{"coordinates":[-118.4006,33.86503],"type":"Point"},"properties":{"kind":"stop","name":"Hermosa Ave. / 16th St.","stop_id":"117"},"type":"Feature"},{"geometry":{"coordinates":[-118.40171,33.86733],"type":"Point"},"properties":{"kind":"stop","name":"Hermosa Ave. / 19th St.","stop_id":"118"},"type":"Feature"},{"geometry":{"coordinates":[-118.40338,33.8693],"type":"Point"},"properties":{"kind":"stop","name":"Hermosa Ave. / 22nd St.","stop_id":"119"},"type":"Feature"},{"geometry":{"coordinates":[-118.40503,33.87192],"type":"Point"},"properties":{"kind":"stop","name":"Hermosa Ave. / 26th St.","stop_id":"120"},"type":"Feature"},{"geometry":{"coordinates":[-118.40606,33.8757],"type":"Point"},"properties":{"kind":"stop","name":"Manhattan Ave. / Longfellow Ave.","stop_id":"121"},"type":"Feature"},{"geometry":{"coordinates":[-118.40708,33.87766],"type":"Point"},"properties":{"kind":"stop","name":"Manhattan Ave. / 1st St.","stop_id":"122"},"type":"Feature"},{"geometry":{"coordinates":[-118.40803,33.87968],"type":"Point"},"properties":{"kind":"stop","name":"Manhattan Ave. / 4th St.","stop_id":"123"},"type":"Feature"},{"geometry":{"coordinates":[-118.40998,33.8835],"type":"Point"},"properties":{"kind":"stop","name":"Manhattan Ave. / 10th St.","stop_id":"124"},"type":"Feature"},{"geometry":{"coordinates":[-118.41076,33.88715],"type":"Point"},"properties":{"kind":"stop","name":"Highland Ave. / 14th St.","stop_id":"125"},"type":"Feature"},{"geometry":{"coordinates":[-118.41209,33.88937],"type":"Point"},"properties":{"kind":"stop","name":"Highland Ave. / 18th St.","stop_id":"126"},"type":"Feature"},{"geometry":{"coordinates":[-118.41342,33.8917],"type":"Point"},"properties":{"kind":"stop","name":"Highland Ave. / Marine Ave.","stop_id":"127"},"type":"Feature"},{"geometry":{"coordinates":[-118.41476,33.8943],"type":"Point"},"properties":{"kind":"stop","name":"Highland Ave. / 26th St.","stop_id":"128"},"type":"Feature"},{"geometry":{"coordinates":[-118.41582,33.89666],"type":"Point"},"properties":{"kind":"stop","name":"Highland Ave. / 30th St.","stop_id":"129"},"type":"Feature"},{"geometry":{"coordinates":[-118.41657,33.89839],"type":"Point"},"properties":{"kind":"stop","name":"Highland Ave. / 33rd St.","stop_id":"130"},"type":"Feature"},{"geometry":{"coordinates":[-118.41766,33.90088],"type":"Point"},"properties":{"kind":"stop","name":"Highland Ave. / Rosecrans Ave.","stop_id":"131"},"type":"Feature"},{"geometry":{"coordinates":[-118.41674,33.9013],"type":"Point"},"properties":{"kind":"stop","name":"Rosecrans Ave. / Alma Ave.","stop_id":"132"},"type":"Feature"},{"geometry":{"coordinates":[-118.40985,33.90179],"type":"Point"},"properties":{"kind":"stop","name":"Rosecrans Ave. / Blanche Rd.","stop_id":"133"},"type":"Feature"},{"geometry":{"coordinates":[-118.4037,33.90178],"type":"Point"},"properties":{"kind":"stop","name":"Rosecrans Ave. / Pacific Ave.","stop_id":"134"},"type":"Feature"},{"geometry":{"coordinates":[-118.40006,33.90184],"type":"Point"},"properties":{"kind":"stop","name":"Rosecrans Ave. / Walnut Ave.","stop_id":"135"},"type":"Feature"},{"geometry":{"coordinates":[-118.39543,33.90174],"type":"Point"},"properties":{"kind":"stop","name":"Rosecrans Ave. / Sepulveda Blvd.","stop_id":"136"},"type":"Feature"},{"geometry":{"coordinates":[-118.39276,33.90038],"type":"Point"},"properties":{"kind":"stop","name":"Parkview Ave. / Village Dr.","stop_id":"137"},"type":"Feature"},{"geometry":{"coordinates":[-118.38635,33.90229],"type":"Point"},"properties":{"kind":"stop","name":"Apollo St / Rosecrans Ave.","stop_id":"138"},"type":"Feature"},{"geometry":{"coordinates":[-118.38322,33.9041],"type":"Point"},"properties":{"kind":"stop","name":"Douglas St. / Park Pl","stop_id":"139"},"type":"Feature"},{"geometry":{"coordinates":[-118.38892,33.90199],"type":"Point"},"properties":{"kind":"stop","name":"Rosecrans Ave. / Nash St.","stop_id":"140"},"type":"Feature"},{"geometry":{"coordinates":[-118.39269,33.90227],"type":"Point"},"properties":{"kind":"stop","name":"Rosecrans Ave. / Village Dr.","stop_id":"141"},"type":"Feature"},{"geometry":{"coordinates":[-118.39391,33.90467],"type":"Point"},"properties":{"kind":"stop","name":"Park Pl. / Plaza El Segundo","stop_id":"142"},"type":"Feature"},{"geometry":{"coordinates":[-118.39578,33.91681],"type":"Point"},"properties":{"kind":"stop","name":"Sepulveda Blvd. / El Segundo Blvd.","stop_id":"143"},"type":"Feature"},{"geometry":{"coordinates":[-118.39656,33.91949],"type":"Point"},"properties":{"kind":"stop","name":"Grand Ave. / Sepulveda Blvd.","stop_id":"144"},"type":"Feature"},{"geometry":{"coordinates":[-118.40029,33.91952],"type":"Point"},"properties":{"kind":"stop","name":"Grand Ave. / Kansas St.","stop_id":"145"},"type":"Feature"},{"geometry":{"coordinates":[-118.40522,33.91951],"type":"Point"},"properties":{"kind":"stop","name":"Grand Ave. / Center St.","stop_id":"146"},"type":"Feature"},{"geometry":{"coordinates":[-118.40752,33.91955],"type":"Point"},"properties":{"kind":"stop","name":"Grand Ave. / Lomita St.","stop_id":"147"},"type":"Feature"},{"geometry":{"coordinates":[-118.41107,33.9195],"type":"Point"},"properties":{"kind":"stop","name":"Grand Ave. / Sheldon St.","stop_id":"148"},"type":"Feature"},{"geometry":{"coordinates":[-118.41332,33.91947],"type":"Point"},"properties":{"kind":"stop","name":"Grand Ave. / Eucalyptus Dr.","stop_id":"149"},"type":"Feature"},{"geometry":{"coordinates":[-118.41584,33.9207],"type":"Point"},"properties":{"kind":"stop","name":"Main St. / Holly Ave.","stop_id":"150"},"type":"Feature"},{"geometry":{"coordinates":[-118.41585,33.92376],"type":"Point"},"properties":{"kind":"stop","name":"Main St./ Mariposa Ave","stop_id":"151"},"type":"Feature"},{"geometry":{"coordinates":[-118.41586,33.92575],"type":"Point"},"properties":{"kind":"stop","name":"Main St. / Oak Ave.","stop_id":"152"},"type":"Feature"},{"geometry":{"coordinates":[-118.41585,33.92876],"type":"Point"},"properties":{"kind":"stop","name":"Main St. / Walnut Ave.","stop_id":"153"},"type":"Feature"},{"geometry":{"coordinates":[-118.41588,33.93071],"type":"Point"},"properties":{"kind":"stop","name":"Main St. / Imperial Ave.","stop_id":"154"},"type":"Feature"},{"geometry":{"coordinates":[-118.41374,33.9308],"type":"Point"},"properties":{"kind":"stop","name":"Imperial Ave. / Eucalyptus Dr.","stop_id":"155"},"type":"Feature"},{"geometry":{"coordinates":[-118.41096,33.9309],"type":"Point"},"properties":{"kind":"stop","name":"Imperial Ave. / Sheldon St.","stop_id":"156"},"type":"Feature"},{"geometry":{"coordinates":[-118.40832,33.93083],"type":"Point"},"properties":{"kind":"stop","name":"Imperial Ave. / McCarthy Ct.","stop_id":"157"},"type":"Feature"},{"geometry":{"coordinates":[-118.40501,33.93082],"type":"Point"},"properties":{"kind":"stop","name":"Imperial Ave. / Center St.","stop_id":"158"},"type":"Feature"},{"geometry":{"coordinates":[-118.40184,33.93111],"type":"Point"},"properties":{"kind":"stop","name":"California St. / Imperial Ave.","stop_id":"159"},"type":"Feature"},{"geometry":{"coordinates":[-118.40356,33.93123],"type":"Point"},"properties":{"kind":"stop","name":"Imperial Hwy. / California St.","stop_id":"160"},"type":"Feature"},{"geometry":{"coordinates":[-118.39557,33.93078],"type":"Point"},"properties":{"kind":"stop","name":"Imperial Hwy. / Sepulveda Blvd.","stop_id":"161"},"type":"Feature"},{"geometry":{"coordinates":[-118.39159,33.93073],"type":"Point"},"properties":{"kind":"stop","name":"Imperial Hwy. / Hughes Wy.","stop_id":"162"},"type":"Feature"},{"geometry":{"coordinates":[-118.38703,33.93074],"type":"Point"},"properties":{"kind":"stop","name":"Imperial Hwy. / Nash St.","stop_id":"163"},"type":"Feature"},{"geometry":{"coordinates":[-118.38287,33.93079],"type":"Point"},"properties":{"kind":"stop","name":"Imperial Hwy. / Douglas St.","stop_id":"164"},"type":"Feature"},{"geometry":{"coordinates":[-118.37725,33.92964],"type":"Point"},"properties":{"kind":"stop","name":"Aviation Station / Bus Bay 3","stop_id":"165"},"type":"Feature"},{"geometry":{"coordinates":[-118.37833,33.93129],"type":"Point"},"properties":{"kind":"stop","name":"Aviation Blvd. / Imperial Hwy.","stop_id":"166"},"type":"Feature"},{"geometry":{"coordinates":[-118.37836,33.9343],"type":"Point"},"properties":{"kind":"stop","name":"Aviation Blvd. / 111th St.","stop_id":"167"},"type":"Feature"},{"geometry":{"coordinates":[-118.37837,33.94174],"type":"Point"},"properties":{"kind":"stop","name":"Aviation Blvd. / 104th St.","stop_id":"168"},"type":"Feature"},{"geometry":{"coordinates":[-118.37897,33.94568],"type":"Point"},"properties":{"kind":"stop","name":"Century Blvd./ Aviation Blvd..","stop_id":"169"},"type":"Feature"},{"geometry":{"coordinates":[-118.3817,33.94567],"type":"Point"},"properties":{"kind":"stop","name":"Century Blvd. / International Rd.","stop_id":"170"},"type":"Feature"},{"geometry":{"coordinates":[-118.38587,33.9463],"type":"Point"},"properties":{"kind":"stop","name":"Airport Blvd. / Century Blvd.","stop_id":"171"},"type":"Feature"},{"geometry":{"coordinates":[-118.387,33.94935],"type":"Point"},"properties":{"kind":"stop","name":"96th St. / Airport Blvd.","stop_id":"172"},"type":"Feature"},{"geometry":{"coordinates":[-118.39182,33.94913],"type":"Point"},"properties":{"kind":"stop","name":"LAX Transit Center / Bus Bay 6","stop_id":"201"},"type":"Feature"},{"geometry":{"coordinates":[-118.38635,33.94929],"type":"Point"},"properties":{"kind":"stop","name":"96th St. / Airport Blvd.","stop_id":"202"},"type":"Feature"},{"geometry":{"coordinates":[-118.38563,33.94528],"type":"Point"},"properties":{"kind":"stop","name":"Century Blvd. / Airport Blvd.","stop_id":"203"},"type":"Feature"},{"geometry":{"coordinates":[-118.38181,33.9453],"type":"Point"},"properties":{"kind":"stop","name":"Century Blvd. / International Rd.","stop_id":"204"},"type":"Feature"},{"geometry":{"coordinates":[-118.37911,33.94532],"type":"Point"},"properties":{"kind":"stop","name":"Century Blvd. / Aviation Blvd.","stop_id":"205"},"type":"Feature"},{"geometry":{"coordinates":[-118.37862,33.94216],"type":"Point"},"properties":{"kind":"stop","name":"Aviation Blvd. / 104th St.","stop_id":"206"},"type":"Feature"},{"geometry":{"coordinates":[-118.37862,33.93471],"type":"Point"},"properties":{"kind":"stop","name":"Aviation Blvd. / 111th St.","stop_id":"207"},"type":"Feature"},{"geometry":{"coordinates":[-118.37894,33.93105],"type":"Point"},"properties":{"kind":"stop","name":"Imperial Hwy. / Aviation Blvd.","stop_id":"208"},"type":"Feature"},{"geometry":{"coordinates":[-118.38364,33.93118],"type":"Point"},"properties":{"kind":"stop","name":"Imperial Hwy. / Douglas St.","stop_id":"209"},"type":"Feature"},{"geometry":{"coordinates":[-118.38788,33.93122],"type":"Point"},"properties":{"kind":"stop","name":"Imperial Hwy. / Nash St.","stop_id":"210"},"type":"Feature"},{"geometry":{"coordinates":[-118.39223,33.9311],"type":"Point"},"properties":{"kind":"stop","name":"Imperial Hwy. / Hughes Wy.","stop_id":"211"},"type":"Feature"},{"geometry":{"coordinates":[-118.39654,33.93113],"type":"Point"},"properties":{"kind":"stop","name":"Imperial Hwy. / Sepulveda Blvd.","stop_id":"212"},"type":"Feature"},{"geometry":{"coordinates":[-118.40221,33.93096],"type":"Point"},"properties":{"kind":"stop","name":"Imperial Ave. / California St.","stop_id":"213"},"type":"Feature"},{"geometry":{"coordinates":[-118.40467,33.9309],"type":"Point"},"properties":{"kind":"stop","name":"Imperial Ave. / Center St.","stop_id":"214"},"type":"Feature"},{"geometry":{"coordinates":[-118.40795,33.93097],"type":"Point"},"properties":{"kind":"stop","name":"Imperial Ave. / McCarthy Ct.","stop_id":"215"},"type":"Feature"},{"geometry":{"coordinates":[-118.4111,33.93091],"type":"Point"},"properties":{"kind":"stop","name":"Imperial Ave. / Sheldon St.","stop_id":"216"},"type":"Feature"},{"geometry":{"coordinates":[-118.4134,33.93093],"type":"Point"},"properties":{"kind":"stop","name":"Imperial Ave. / Eucalyptus Dr.","stop_id":"217"},"type":"Feature"},{"geometry":{"coordinates":[-118.41609,33.93071],"type":"Point"},"properties":{"kind":"stop","name":"Main St. / Imperial Ave.","stop_id":"218"},"type":"Feature"},{"geometry":{"coordinates":[-118.41607,33.92903],"type":"Point"},"properties":{"kind":"stop","name":"Main St. / Walnut Ave.","stop_id":"219"},"type":"Feature"},{"geometry":{"coordinates":[-118.41607,33.92612],"type":"Point"},"properties":{"kind":"stop","name":"Main St. / Oak Ave.","stop_id":"220"},"type":"Feature"},{"geometry":{"coordinates":[-118.41607,33.92375],"type":"Point"},"properties":{"kind":"stop","name":"Main St / Mariposa Ave.","stop_id":"221"},"type":"Feature"},{"geometry":{"coordinates":[-118.41606,33.92099],"type":"Point"},"properties":{"kind":"stop","name":"Main St. / Holly Ave.","stop_id":"222"},"type":"Feature"},{"geometry":{"coordinates":[-118.41559,33.91888],"type":"Point"},"properties":{"kind":"stop","name":"Grand Ave. / Main St.","stop_id":"223"},"type":"Feature"},{"geometry":{"coordinates":[-118.41423,33.91922],"type":"Point"},"properties":{"kind":"stop","name":"Grand Ave. / Eucalyptus Dr.","stop_id":"224"},"type":"Feature"},{"geometry":{"coordinates":[-118.41107,33.91935],"type":"Point"},"properties":{"kind":"stop","name":"Grand Ave. / Sheldon St.","stop_id":"225"},"type":"Feature"},{"geometry":{"coordinates":[-118.40744,33.91915],"type":"Point"},"properties":{"kind":"stop","name":"Grand Ave. / Lomita St.","stop_id":"226"},"type":"Feature"},{"geometry":{"coordinates":[-118.4046,33.91934],"type":"Point"},"properties":{"kind":"stop","name":"Grand Ave. / Center St.","stop_id":"227"},"type":"Feature"},{"geometry":{"coordinates":[-118.40015,33.91935],"type":"Point"},"properties":{"kind":"stop","name":"Grand Ave. / Kansas St.","stop_id":"228"},"type":"Feature"},{"geometry":{"coordinates":[-118.39643,33.91937],"type":"Point"},"properties":{"kind":"stop","name":"Grand Ave. / Sepulveda Blvd.","stop_id":"229"},"type":"Feature"},{"geometry":{"coordinates":[-118.39619,33.91588],"type":"Point"},"properties":{"kind":"stop","name":"Sepulveda Blvd. / El Segundo Blvd.","stop_id":"230"},"type":"Feature"},{"geometry":{"coordinates":[-118.39355,33.90473],"type":"Point"},"properties":{"kind":"stop","name":"Park Pl. / Plaza El Segundo","stop_id":"231"},"type":"Feature"},{"geometry":{"coordinates":[-118.39685,33.9021],"type":"Point"},"properties":{"kind":"stop","name":"Rosecrans Ave. /Sepulveda Blvd.","stop_id":"232"},"type":"Feature"},{"geometry":{"coordinates":[-118.40005,33.90212],"type":"Point"},"properties":{"kind":"stop","name":"Rosecrans Ave. / Walnut Ave.","stop_id":"233"},"type":"Feature"},{"geometry":{"coordinates":[-118.40335,33.90205],"type":"Point"},"properties":{"kind":"stop","name":"Rosecrans Ave. / Pacific Ave.","stop_id":"234"},"type":"Feature"},{"geometry":{"coordinates":[-118.41002,33.90203],"type":"Point"},"properties":{"kind":"stop","name":"Rosecrans Ave. / Blanche Rd.","stop_id":"235"},"type":"Feature"},{"geometry":{"coordinates":[-118.41683,33.8986],"type":"Point"},"properties":{"kind":"stop","name":"Highland Ave. / 33rd St.","stop_id":"236"},"type":"Feature"},{"geometry":{"coordinates":[-118.41599,33.89662],"type":"Point"},"properties":{"kind":"stop","name":"Highland Ave. / 30th St","stop_id":"237"},"type":"Feature"},{"geometry":{"coordinates":[-118.41498,33.89435],"type":"Point"},"properties":{"kind":"stop","name":"Highland Ave. / 26th St.","stop_id":"238"},"type":"Feature"},{"geometry":{"coordinates":[-118.41371,33.89182],"type":"Point"},"properties":{"kind":"stop","name":"Highland Ave. / Marine Ave.","stop_id":"239"},"type":"Feature"},{"geometry":{"coordinates":[-118.41227,33.88933],"type":"Point"},"properties":{"kind":"stop","name":"Highland Ave. / 18th St.","stop_id":"240"},"type":"Feature"},{"geometry":{"coordinates":[-118.41074,33.88681],"type":"Point"},"properties":{"kind":"stop","name":"Highland Ave. / 14th St.","stop_id":"241"},"type":"Feature"},{"geometry":{"coordinates":[-118.41013,33.88343],"type":"Point"},"properties":{"kind":"stop","name":"Manhattan Ave. / 10th St.","stop_id":"242"},"type":"Feature"},{"geometry":{"coordinates":[-118.40823,33.87968],"type":"Point"},"properties":{"kind":"stop","name":"Manhattan Ave. / 4th St.","stop_id":"243"},"type":"Feature"},{"geometry":{"coordinates":[-118.40736,33.87783],"type":"Point"},"properties":{"kind":"stop","name":"Manhattan Ave. / 1st St.","stop_id":"244"},"type":"Feature"},{"geometry":{"coordinates":[-118.40628,33.87587],"type":"Point"},"properties":{"kind":"stop","name":"Manhattan Ave. / Longfellow Ave.","stop_id":"245"},"type":"Feature"},{"geometry":{"coordinates":[-118.40488,33.87326],"type":"Point"},"properties":{"kind":"stop","name":"Manhattan Ave. / 27th St.","stop_id":"246"},"type":"Feature"},{"geometry":{"coordinates":[-118.40501,33.87134],"type":"Point"},"properties":{"kind":"stop","name":"Hermosa Ave. / 25th St.","stop_id":"247"},"type":"Feature"},{"geometry":{"coordinates":[-118.40381,33.8694],"type":"Point"},"properties":{"kind":"stop","name":"Hermosa Ave. / 22nd St.","stop_id":"248"},"type":"Feature"},{"geometry":{"coordinates":[-118.40199,33.86718],"type":"Point"},"properties":{"kind":"stop","name":"Hermosa Ave. / 19th St.","stop_id":"249"},"type":"Feature"},{"geometry":{"coordinates":[-118.40098,33.86519],"type":"Point"},"properties":{"kind":"stop","name":"Hermosa Ave. / 16th St.","stop_id":"250"},"type":"Feature"},{"geometry":{"coordinates":[-118.39992,33.86118],"type":"Point"},"properties":{"kind":"stop","name":"Hermosa Ave. / 11th St.","stop_id":"251"},"type":"Feature"},{"geometry":{"coordinates":[-118.39942,33.85926],"type":"Point"},"properties":{"kind":"stop","name":"Hermosa Ave. / 8th St.","stop_id":"252"},"type":"Feature"},{"geometry":{"coordinates":[-118.39901,33.85767],"type":"Point"},"properties":{"kind":"stop","name":"Hermosa Ave. / 6th St.","stop_id":"253"},"type":"Feature"},{"geometry":{"coordinates":[-118.39831,33.85498],"type":"Point"},"properties":{"kind":"stop","name":"Hermosa Ave. / 2nd St.","stop_id":"254"},"type":"Feature"},{"geometry":{"coordinates":[-118.39732,33.85212],"type":"Point"},"properties":{"kind":"stop","name":"Harbor Dr. / Yacht Club Wy.","stop_id":"255"},"type":"Feature"},{"geometry":{"coordinates":[-118.39308,33.84603],"type":"Point"},"properties":{"kind":"stop","name":"Beryl St. / Harbor Dr.","stop_id":"256"},"type":"Feature"},{"geometry":{"coordinates":[-118.39197,33.8459],"type":"Point"},"properties":{"kind":"stop","name":"Catalina Ave. / Beryl St.","stop_id":"257"},"type":"Feature"},{"geometry":{"coordinates":[-118.39101,33.84488],"type":"Point"},"properties":{"kind":"stop","name":"Catalina Ave. / Carnelian St.","stop_id":"258"},"type":"Feature"},{"geometry":{"coordinates":[-118.38952,33.84354],"type":"Point"},"properties":{"kind":"stop","name":"Catalina Ave. / Diamond St.","stop_id":"259"},"type":"Feature"},{"geometry":{"coordinates":[-118.38822,33.83791],"type":"Point"},"properties":{"kind":"stop","name":"Catalina Ave. / Torrance Blvd.","stop_id":"260"},"type":"Feature"},{"geometry":{"coordinates":[-118.38797,33.83645],"type":"Point"},"properties":{"kind":"stop","name":"Catalina Ave. / Pearl St.","stop_id":"261"},"type":"Feature"},{"geometry":{"coordinates":[-118.38838,33.83311],"type":"Point"},"properties":{"kind":"stop","name":"Catalina Ave. / Sapphire St.","stop_id":"262"},"type":"Feature"},{"geometry":{"coordinates":[-118.38878,33.83171],"type":"Point"},"properties":{"kind":"stop","name":"Catalina Ave. / Topaz St.","stop_id":"263"},"type":"Feature"},{"geometry":{"coordinates":[-118.38914,33.82914],"type":"Point"},"properties":{"kind":"stop","name":"Catalina Ave. / Knob Hill Ave.","stop_id":"264"},"type":"Feature"},{"geometry":{"coordinates":[-118.38877,33.82576],"type":"Point"},"properties":{"kind":"stop","name":"Catalina Ave. / Avenue C","stop_id":"265"},"type":"Feature"},{"geometry":{"coordinates":[-118.38861,33.82259],"type":"Point"},"properties":{"kind":"stop","name":"Catalina Ave. / Avenue F","stop_id":"266"},"type":"Feature"},{"geometry":{"coordinates":[-118.38565,33.81885],"type":"Point"},"properties":{"kind":"stop","name":"Avenue I / Elena Ave.","stop_id":"267"},"type":"Feature"},{"geometry":{"coordinates":[-118.39031,33.83858],"type":"Point"},"properties":{"kind":"stop","name":"Redondo Beach Pier","stop_id":"301"},"type":"Feature"},{"geometry":{"coordinates":[-118.38792,33.83861],"type":"Point"},"properties":{"kind":"stop","name":"Catalina Ave. / Torrance Blvd.","stop_id":"302"},"type":"Feature"},{"geometry":{"coordinates":[-118.38802,33.83987],"type":"Point"},"properties":{"kind":"stop","name":"Catalina Ave. / Garnet St.","stop_id":"303"},"type":"Feature"},{"geometry":{"coordinates":[-118.38839,33.84223],"type":"Point"},"properties":{"kind":"stop","name":"Catalina Ave. / Emerald St.","stop_id":"304"},"type":"Feature"},{"geometry":{"coordinates":[-118.38902,33.84338],"type":"Point"},"properties":{"kind":"stop","name":"Catalina Ave. / Diamond St.","stop_id":"305"},"type":"Feature"},{"geometry":{"coordinates":[-118.38691,33.84515],"type":"Point"},"properties":{"kind":"stop","name":"Diamond St. / PCH","stop_id":"306"},"type":"Feature"},{"geometry":{"coordinates":[-118.38393,33.84743],"type":"Point"},"properties":{"kind":"stop","name":"Diamond St. / Sea Hawk Way","stop_id":"307"},"type":"Feature"},{"geometry":{"coordinates":[-118.38158,33.84935],"type":"Point"},"properties":{"kind":"stop","name":"Diamond St. / Lucia Ave.","stop_id":"308"},"type":"Feature"},{"geometry":{"coordinates":[-118.37894,33.85214],"type":"Point"},"properties":{"kind":"stop","name":"Prospect Ave. / Diamond St.","stop_id":"309"},"type":"Feature"},{"geometry":{"coordinates":[-118.38141,33.85432],"type":"Point"},"properties":{"kind":"stop","name":"Beryl St. / Prospect Ave.","stop_id":"310"},"type":"Feature"},{"geometry":{"coordinates":[-118.37887,33.8548],"type":"Point"},"properties":{"kind":"stop","name":"Beryl St. / Flagler Ln.","stop_id":"311"},"type":"Feature"},{"geometry":{"coordinates":[-118.37428,33.85809],"type":"Point"},"properties":{"kind":"stop","name":"190th St. / Beryl St.","stop_id":"312"},"type":"Feature"},{"geometry":{"coordinates":[-118.37272,33.8586],"type":"Point"},"properties":{"kind":"stop","name":"Rindge Ln. / 190th St.","stop_id":"313"},"type":"Feature"},{"geometry":{"coordinates":[-118.37264,33.86164],"type":"Point"},"properties":{"kind":"stop","name":"Rindge Ln. / Ripley Ave.","stop_id":"314"},"type":"Feature"},{"geometry":{"coordinates":[-118.37266,33.86414],"type":"Point"},"properties":{"kind":"stop","name":"Rindge Ln. / Pullman Ln.","stop_id":"315"},"type":"Feature"},{"geometry":{"coordinates":[-118.37266,33.86607],"type":"Point"},"properties":{"kind":"stop","name":"Rindge Ln. / Clark Ln.","stop_id":"316"},"type":"Feature"},{"geometry":{"coordinates":[-118.37266,33.86884],"type":"Point"},"properties":{"kind":"stop","name":"Rindge Ln. / Grant Ave.","stop_id":"317"},"type":"Feature"},{"geometry":{"coordinates":[-118.37266,33.87086],"type":"Point"},"properties":{"kind":"stop","name":"Rindge Ln. / Carnegie Ln.","stop_id":"318"},"type":"Feature"},{"geometry":{"coordinates":[-118.37253,33.87273],"type":"Point"},"properties":{"kind":"stop","name":"Artesia Blvd. / Rindge Ln.","stop_id":"319"},"type":"Feature"},{"geometry":{"coordinates":[-118.36842,33.87277],"type":"Point"},"properties":{"kind":"stop","name":"Artesia Blvd. / Mackay Ln.","stop_id":"320"},"type":"Feature"},{"geometry":{"coordinates":[-118.36447,33.87274],"type":"Point"},"properties":{"kind":"stop","name":"Artesia Blvd. / Felton Ln.","stop_id":"321"},"type":"Feature"},{"geometry":{"coordinates":[-118.36169,33.87275],"type":"Point"},"properties":{"kind":"stop","name":"Artesia Blvd. / Inglewood Ave.","stop_id":"322"},"type":"Feature"},{"geometry":{"coordinates":[-118.35665,33.87275],"type":"Point"},"properties":{"kind":"stop","name":"Artesia Blvd. / Kingsdale Ave.","stop_id":"323"},"type":"Feature"},{"geometry":{"coordinates":[-118.35284,33.87228],"type":"Point"},"properties":{"kind":"stop","name":"Hawthorne Blvd. / Artesia Blvd.","stop_id":"324"},"type":"Feature"},{"geometry":{"coordinates":[-118.35274,33.86825],"type":"Point"},"properties":{"kind":"stop","name":"Hawthorne Blvd. / Market Place Drive","stop_id":"325"},"type":"Feature"},{"geometry":{"coordinates":[-118.35275,33.86569],"type":"Point"},"properties":{"kind":"stop","name":"Hawthorne Blvd. / 182nd St.","stop_id":"326"},"type":"Feature"},{"geometry":{"coordinates":[-118.35749,33.873],"type":"Point"},"properties":{"kind":"stop","name":"Artesia Blvd. / Firmona Ave.","stop_id":"327"},"type":"Feature"},{"geometry":{"coordinates":[-118.36106,33.87302],"type":"Point"},"properties":{"kind":"stop","name":"Artesia Blvd. / Inglewood Ave.","stop_id":"328"},"type":"Feature"},{"geometry":{"coordinates":[-118.36403,33.873],"type":"Point"},"properties":{"kind":"stop","name":"Artesia Blvd. / Felton Ln.","stop_id":"329"},"type":"Feature"},{"geometry":{"coordinates":[-118.36836,33.87294],"type":"Point"},"properties":{"kind":"stop","name":"Artesia Blvd. / Mackay Ln.","stop_id":"330"},"type":"Feature"},{"geometry":{"coordinates":[-118.36989,33.87328],"type":"Point"},"properties":{"kind":"stop","name":"Vail Ave. / Artesia Blvd.","stop_id":"331"},"type":"Feature"},{"geometry":{"coordinates":[-118.36989,33.87491],"type":"Point"},"properties":{"kind":"stop","name":"Vail Ave. / Nelson Ave.","stop_id":"332"},"type":"Feature"},{"geometry":{"coordinates":[-118.36989,33.87651],"type":"Point"},"properties":{"kind":"stop","name":"Vail Ave. / Voorhees Ave.","stop_id":"333"},"type":"Feature"},{"geometry":{"coordinates":[-118.36988,33.87835],"type":"Point"},"properties":{"kind":"stop","name":"Vail Ave. / Gates Ave.","stop_id":"334"},"type":"Feature"},{"geometry":{"coordinates":[-118.3699,33.87997],"type":"Point"},"properties":{"kind":"stop","name":"Vail Ave. / Robinson St.","stop_id":"335"},"type":"Feature"},{"geometry":{"coordinates":[-118.36991,33.88265],"type":"Point"},"properties":{"kind":"stop","name":"Vail Ave. / May Ave.","stop_id":"336"},"type":"Feature"},{"geometry":{"coordinates":[-118.3699,33.88443],"type":"Point"},"properties":{"kind":"stop","name":"Vail Ave. / Pinckard Ave.","stop_id":"337"},"type":"Feature"},{"geometry":{"coordinates":[-118.36986,33.88645],"type":"Point"},"properties":{"kind":"stop","name":"Vail Ave. / Warfield Ave.","stop_id":"338"},"type":"Feature"},{"geometry":{"coordinates":[-118.37002,33.888],"type":"Point"},"properties":{"kind":"stop","name":"Redondo Beach Ave. / Manhattan Beach Blvd.","stop_id":"339"},"type":"Feature"},{"geometry":{"coordinates":[-118.37,33.88941],"type":"Point"},"properties":{"kind":"stop","name":"Redondo Beach Ave. / Santa Fe Ave.","stop_id":"340"},"type":"Feature"},{"geometry":{"coordinates":[-118.37001,33.89161],"type":"Point"},"properties":{"kind":"stop","name":"Redondo Beach Ave. / Space Park Drive","stop_id":"341"},"type":"Feature"},{"geometry":{"coordinates":[-118.36983,33.89507],"type":"Point"},"properties":{"kind":"stop","name":"Redondo Beach Green Line Station","stop_id":"401"},"type":"Feature"},{"geometry":{"coordinates":[-118.3703,33.8942],"type":"Point"},"properties":{"kind":"stop","name":"Redondo Beach Ave. / Marine Ave.","stop_id":"402"},"type":"Feature"},{"geometry":{"coordinates":[-118.37019,33.89141],"type":"Point"},"properties":{"kind":"stop","name":"Redondo Beach Ave. / Space Park Dr.","stop_id":"403"},"type":"Feature"},{"geometry":{"coordinates":[-118.3703,33.88771],"type":"Point"},"properties":{"kind":"stop","name":"Redondo Beach Ave. / Manhattan Beach Blvd.","stop_id":"404"},"type":"Feature"},{"geometry":{"coordinates":[-118.37005,33.88635],"type":"Point"},"properties":{"kind":"stop","name":"Vail Ave. / Warfield Ave.","stop_id":"405"},"type":"Feature"},{"geometry":{"coordinates":[-118.37003,33.88476],"type":"Point"},"properties":{"kind":"stop","name":"Vail Ave. / Bataan Rd.","stop_id":"406"},"type":"Feature"},{"geometry":{"coordinates":[-118.37003,33.88288],"type":"Point"},"properties":{"kind":"stop","name":"Vail Ave. / Ernest Ave.","stop_id":"407"},"type":"Feature"},{"geometry":{"coordinates":[-118.37001,33.8802],"type":"Point"},"properties":{"kind":"stop","name":"Vail Ave. / Robinson St.","stop_id":"408"},"type":"Feature"},{"geometry":{"coordinates":[-118.37001,33.87859],"type":"Point"},"properties":{"kind":"stop","name":"Vail Ave. / Gates Ave.","stop_id":"409"},"type":"Feature"},{"geometry":{"coordinates":[-118.37,33.87669],"type":"Point"},"properties":{"kind":"stop","name":"Vail Ave. / Voorhees Ave.","stop_id":"410"},"type":"Feature"},{"geometry":{"coordinates":[-118.37,33.87483],"type":"Point"},"properties":{"kind":"stop","name":"Vail Ave. / Nelson Ave.","stop_id":"411"},"type":"Feature"},{"geometry":{"coordinates":[-118.37,33.87308],"type":"Point"},"properties":{"kind":"stop","name":"Vail Ave. / Artesia Blvd.","stop_id":"412"},"type":"Feature"},{"geometry":{"coordinates":[-118.37279,33.87267],"type":"Point"},"properties":{"kind":"stop","name":"Rindge Ln. / Artesia Blvd.","stop_id":"413"},"type":"Feature"},{"geometry":{"coordinates":[-118.37278,33.87111],"type":"Point"},"properties":{"kind":"stop","name":"Rindge Ln. / Carnegie Ln.","stop_id":"414"},"type":"Feature"},{"geometry":{"coordinates":[-118.37278,33.86919],"type":"Point"},"properties":{"kind":"stop","name":"Rindge Ln. / Grant Ave.","stop_id":"415"},"type":"Feature"},{"geometry":{"coordinates":[-118.37277,33.86629],"type":"Point"},"properties":{"kind":"stop","name":"Rindge Ln. / Clark Ln.","stop_id":"416"},"type":"Feature"},{"geometry":{"coordinates":[-118.37276,33.86439],"type":"Point"},"properties":{"kind":"stop","name":"Rindge Ln. / Pullman Ln.","stop_id":"417"},"type":"Feature"},{"geometry":{"coordinates":[-118.37285,33.86142],"type":"Point"},"properties":{"kind":"stop","name":"Rindge Ln. / Ripley Ave.","stop_id":"418"},"type":"Feature"},{"geometry":{"coordinates":[-118.37287,33.85854],"type":"Point"},"properties":{"kind":"stop","name":"Rindge Ln. / 190th St.","stop_id":"419"},"type":"Feature"},{"geometry":{"coordinates":[-118.37489,33.85787],"type":"Point"},"properties":{"kind":"stop","name":"Beryl St. / 190th St.","stop_id":"420"},"type":"Feature"},{"geometry":{"coordinates":[-118.37853,33.85504],"type":"Point"},"properties":{"kind":"stop","name":"Beryl St. / Flagler Ln.","stop_id":"421"},"type":"Feature"},{"geometry":{"coordinates":[-118.38188,33.85395],"type":"Point"},"properties":{"kind":"stop","name":"Prospect Ave. / Beryl St.","stop_id":"422"},"type":"Feature"},{"geometry":{"coordinates":[-118.37938,33.85213],"type":"Point"},"properties":{"kind":"stop","name":"Prosect Ave. / Diamond St.","stop_id":"423"},"type":"Feature"},{"geometry":{"coordinates":[-118.38149,33.84966],"type":"Point"},"properties":{"kind":"stop","name":"Diamond St. / Lucia Ave.","stop_id":"424"},"type":"Feature"},{"geometry":{"coordinates":[-118.38432,33.84743],"type":"Point"},"properties":{"kind":"stop","name":"Diamond St. / Helberta Ave.","stop_id":"425"},"type":"Feature"},{"geometry":{"coordinates":[-118.38708,33.84524],"type":"Point"},"properties":{"kind":"stop","name":"Diamond St. / PCH","stop_id":"426"},"type":"Feature"},{"geometry":{"coordinates":[-118.38869,33.84216],"type":"Point"},"properties":{"kind":"stop","name":"Catalina Ave. / Emerald St.","stop_id":"427"},"type":"Feature"},{"geometry":{"coordinates":[-118.38839,33.84034],"type":"Point"},"properties":{"kind":"stop","name":"Catalina Ave. / Garnet St.","stop_id":"428"},"type":"Feature"}],"type":"FeatureCollection"}
