{"features":[{"geometry":{"coordinates":[[-122.09421,47.92435]],"type":"LineString"},"properties":{"color":"#00BEFD","color_name":"teal","kind":"route","label":"Volunteer Services: Northwest","long":"Volunteer Services: Northwest","route_id":"76331","text_color":"#000000","type_label":"Bus"},"type":"Feature"},{"geometry":{"coordinates":[-122.30282,47.60187],"type":"Point"},"properties":{"kind":"stop","name":"King County, WA, USA","stop_id":"4161102"},"type":"Feature"},{"geometry":{"coordinates":[-123.87989,47.15459],"type":"Point"},"properties":{"kind":"stop","name":"Grays Harbor County, WA, USA","stop_id":"4161103"},"type":"Feature"},{"geometry":{"coordinates":[-122.6808,46.16299],"type":"Point"},"properties":{"kind":"stop","name":"Cowlitz County, WA, USA","stop_id":"4161104"},"type":"Feature"},{"geometry":{"coordinates":[-122.46019,45.7784],"type":"Point"},"properties":{"kind":"stop","name":"Clark County, WA, USA","stop_id":"4161105"},"type":"Feature"},{"geometry":{"coordinates":[-122.09421,47.92435],"type":"Point"},"properties":{"kind":"stop","name":"Snohomish County, WA, USA","stop_id":"4161106"},"type":"Feature"},{"geometry":{"coordinates":[-123.95301,48.08424],"type":"Point"},"properties":{"kind":"stop","name":"Clallam County, WA, USA","stop_id":"4161107"},"type":"Feature"},{"geometry":{"coordinates":[-122.18788,47.00896],"type":"Point"},"properties":{"kind":"stop","name":"Pierce County, WA, USA","stop_id":"4161108"},"type":"Feature"},{"geometry":{"coordinates":[-122.8736,46.96202],"type":"Point"},"properties":{"kind":"stop","name":"Thurston County, WA, USA","stop_id":"4161109"},"type":"Feature"}],"type":"FeatureCollection"}
