{"features":[{"geometry":{"coordinates":[[-118.19941,33.92756],[-118.2015,33.92233],[-118.20258,33.92079],[-118.20537,33.91399],[-118.2086,33.91482],[-118.20914,33.91479],[-118.20959,33.92126],[-118.21034,33.92124],[-118.21815,33.92343],[-118.21814,33.92544],[-118.21728,33.92619],[-118.21741,33.92688],[-118.21684,33.92858],[-118.21671,33.92853],[-118.21684,33.92858],[-118.2164,33.92959],[-118.21627,33.93045],[-118.21319,33.93021],[-118.21162,33.93046],[-118.21031,33.92602],[-118.20991,33.92355],[-118.20972,33.92361],[-118.20995,33.92548],[-118.21354,33.93684],[-118.20844,33.93631],[-118.20695,33.93594],[-118.20073,33.92876],[-118.20024,33.9284],[-118.20026,33.92817],[-118.19997,33.9281]],"type":"LineString"},"properties":{"color":"#CF5858","color_name":"pink","kind":"route","label":"Route A - Red","long":"Route A - Red","route_id":"RouteA-Red","text_color":"#FFFFFF","type_label":"Bus"},"type":"Feature"},{"geometry":{"coordinates":[[-118.19997,33.9281],[-118.1996,33.92818],[-118.19728,33.9275],[-118.19354,33.92479],[-118.19436,33.92397],[-118.19619,33.91959],[-118.19421,33.91875],[-118.19587,33.91418],[-118.19087,33.91278],[-118.18747,33.92117],[-118.18143,33.91947],[-118.17953,33.92378],[-118.18561,33.92551],[-118.18354,33.93074],[-118.19759,33.93192],[-118.19915,33.92807],[-118.20024,33.9284],[-118.20026,33.92817],[-118.19997,33.9281]],"type":"LineString"},"properties":{"color":"#9BB682","color_name":"gray","kind":"route","label":"Route B - Green","long":"Route B - Green","route_id":"RouteB-Green","text_color":"#FFFFFF","type_label":"Bus"},"type":"Feature"},{"geometry":{"coordinates":[[-118.19997,33.9281],[-118.19915,33.92807],[-118.2,33.92615],[-118.19804,33.9256],[-118.19986,33.92119],[-118.1893,33.91661],[-118.18338,33.91512],[-118.18369,33.91462],[-118.18527,33.91348],[-118.18758,33.91458],[-118.1888,33.91482],[-118.18961,33.91283],[-118.18569,33.91216],[-118.18665,33.90759],[-118.18762,33.90767],[-118.18886,33.90745],[-118.19007,33.90917],[-118.19208,33.91047],[-118.2053,33.91417],[-118.20629,33.91108],[-118.20838,33.91165],[-118.20895,33.9116],[-118.20914,33.91479],[-118.2102,33.91483],[-118.2127,33.91553],[-118.21725,33.91501],[-118.21818,33.92102],[-118.21814,33.92544],[-118.22005,33.92595],[-118.22502,33.92586],[-118.2257,33.92988],[-118.22521,33.92996],[-118.22624,33.93646],[-118.22262,33.93616],[-118.22244,33.93279],[-118.22001,33.9326],[-118.22,33.93338],[-118.21595,33.93304],[-118.21502,33.93958],[-118.21492,33.93982],[-118.2144,33.93977],[-118.21611,33.9454],[-118.21363,33.94509],[-118.21434,33.9406],[-118.21456,33.94021],[-118.21354,33.93684],[-118.20844,33.93631],[-118.20832,33.93522],[-118.2091,33.92636],[-118.20873,33.92618],[-118.20655,33.9261],[-118.2057,33.92588],[-118.20541,33.92666],[-118.20545,33.92765],[-118.20481,33.92928],[-118.205,33.93051],[-118.20296,33.93139],[-118.20024,33.9284],[-118.20026,33.92817],[-118.19997,33.9281]],"type":"LineString"},"properties":{"color":"#B172B2","color_name":"pink","kind":"route","label":"Route C - Purple","long":"Route C - Purple","route_id":"RouteC-Purple","text_color":"#FFFFFF","type_label":"Bus"},"type":"Feature"},{"geometry":{"coordinates":[[-118.19997,33.9281],[-118.19915,33.92807],[-118.19759,33.93192],[-118.20087,33.93218],[-118.20551,33.93043],[-118.20995,33.93079],[-118.21319,33.93021],[-118.21958,33.93071],[-118.22165,33.93],[-118.22534,33.92994],[-118.2298,33.92898],[-118.23902,33.92947],[-118.23908,33.92766],[-118.23995,33.92757],[-118.23908,33.92766],[-118.23902,33.92948],[-118.22981,33.92898],[-118.22491,33.92999],[-118.22165,33.93],[-118.21975,33.9307],[-118.21319,33.93021],[-118.20995,33.93079],[-118.20551,33.93043],[-118.20296,33.93139],[-118.20024,33.9284],[-118.20026,33.92817],[-118.19997,33.9281]],"type":"LineString"},"properties":{"color":"#5076D5","color_name":"blue","kind":"route","label":"Route D - Blue","long":"Route D - Blue","route_id":"RouteD-Blue","text_color":"#FFFFFF","type_label":"Bus"},"type":"Feature"},{"geometry":{"coordinates":[-118.19998,33.92806],"type":"Point"},"properties":{"kind":"stop","name":"Bullis Rd & Martin Luther King Jr Blvd (Transit Center)","stop_id":"2734029"},"type":"Feature"},{"geometry":{"coordinates":[-118.20154,33.92251],"type":"Point"},"properties":{"kind":"stop","name":"Bullis Ave & Cortland St","stop_id":"2734032"},"type":"Feature"},{"geometry":{"coordinates":[-118.20317,33.91962],"type":"Point"},"properties":{"kind":"stop","name":"Bullis Rd & Josephine St","stop_id":"2734035"},"type":"Feature"},{"geometry":{"coordinates":[-118.20424,33.917],"type":"Point"},"properties":{"kind":"stop","name":"Bullis Rd & Cedar Ave","stop_id":"2734051"},"type":"Feature"},{"geometry":{"coordinates":[-118.20543,33.9141],"type":"Point"},"properties":{"kind":"stop","name":"Bullis Rd & Carlin Ave","stop_id":"2734056"},"type":"Feature"},{"geometry":{"coordinates":[-118.20899,33.91486],"type":"Point"},"properties":{"kind":"stop","name":"Carlin Ave & Long Beach Blvd","stop_id":"2734061"},"type":"Feature"},{"geometry":{"coordinates":[-118.20932,33.91838],"type":"Point"},"properties":{"kind":"stop","name":"Long Beach Blvd & Cedar Ave","stop_id":"2734063"},"type":"Feature"},{"geometry":{"coordinates":[-118.21003,33.9213],"type":"Point"},"properties":{"kind":"stop","name":"Josephine St & Long Beach Blvd","stop_id":"2734064"},"type":"Feature"},{"geometry":{"coordinates":[-118.21277,33.92196],"type":"Point"},"properties":{"kind":"stop","name":"Josephine St & Lindbergh Ave","stop_id":"2734065"},"type":"Feature"},{"geometry":{"coordinates":[-118.21608,33.92293],"type":"Point"},"properties":{"kind":"stop","name":"Josephine St & Peach St","stop_id":"2734066"},"type":"Feature"},{"geometry":{"coordinates":[-118.21809,33.92354],"type":"Point"},"properties":{"kind":"stop","name":"State St & Josephine St","stop_id":"2734068"},"type":"Feature"},{"geometry":{"coordinates":[-118.21721,33.92619],"type":"Point"},"properties":{"kind":"stop","name":"State St & Flower St","stop_id":"2734070"},"type":"Feature"},{"geometry":{"coordinates":[-118.21677,33.92845],"type":"Point"},"properties":{"kind":"stop","name":"State St & Fernwood Ave","stop_id":"2734084"},"type":"Feature"},{"geometry":{"coordinates":[-118.216,33.93031],"type":"Point"},"properties":{"kind":"stop","name":"Imperial Hwy & State St.","stop_id":"2734090"},"type":"Feature"},{"geometry":{"coordinates":[-118.21293,33.9301],"type":"Point"},"properties":{"kind":"stop","name":"Imperial & Peach St (Autozone)","stop_id":"2734099"},"type":"Feature"},{"geometry":{"coordinates":[-118.21158,33.92995],"type":"Point"},"properties":{"kind":"stop","name":"Long Beach Blvd & Imperial HWY","stop_id":"2734104"},"type":"Feature"},{"geometry":{"coordinates":[-118.2112,33.92867],"type":"Point"},"properties":{"kind":"stop","name":"Long Beach Blvd & Sanborn Ave (In Front of Taco Bell)","stop_id":"2734114"},"type":"Feature"},{"geometry":{"coordinates":[-118.21013,33.92494],"type":"Point"},"properties":{"kind":"stop","name":"Long Beach Blvd @ Green Line","stop_id":"2734123"},"type":"Feature"},{"geometry":{"coordinates":[-118.21155,33.93095],"type":"Point"},"properties":{"kind":"stop","name":"Long Beach Blvd & Imperial HWY","stop_id":"2734124"},"type":"Feature"},{"geometry":{"coordinates":[-118.21216,33.93294],"type":"Point"},"properties":{"kind":"stop","name":"Long Beach Blvd & Norton Ave","stop_id":"2734126"},"type":"Feature"},{"geometry":{"coordinates":[-118.2129,33.93667],"type":"Point"},"properties":{"kind":"stop","name":"Martin Luther King Jr Blvd & Long Beach Blvd","stop_id":"2734127"},"type":"Feature"},{"geometry":{"coordinates":[-118.20975,33.93636],"type":"Point"},"properties":{"kind":"stop","name":"Martin Luther King Jr Blvd & Virginia Ave","stop_id":"2734128"},"type":"Feature"},{"geometry":{"coordinates":[-118.20804,33.93618],"type":"Point"},"properties":{"kind":"stop","name":"Martin Luther King Jr Blvd & California Ave","stop_id":"2734130"},"type":"Feature"},{"geometry":{"coordinates":[-118.20522,33.93388],"type":"Point"},"properties":{"kind":"stop","name":"Martin Luther King Jr Blvd & Brenton Ave","stop_id":"2734132"},"type":"Feature"},{"geometry":{"coordinates":[-118.19707,33.9272],"type":"Point"},"properties":{"kind":"stop","name":"Martin Luther King Jr Blvd & Ernestine Ave","stop_id":"2734894"},"type":"Feature"},{"geometry":{"coordinates":[-118.19381,33.92482],"type":"Point"},"properties":{"kind":"stop","name":"Martin Luther King Jr Blvd & Muriel Dr.","stop_id":"2734895"},"type":"Feature"},{"geometry":{"coordinates":[-118.19471,33.92335],"type":"Point"},"properties":{"kind":"stop","name":"Muriel Dr. & Platt Ave","stop_id":"2734896"},"type":"Feature"},{"geometry":{"coordinates":[-118.19574,33.92086],"type":"Point"},"properties":{"kind":"stop","name":"Muriel Dr & Cortland St","stop_id":"2734897"},"type":"Feature"},{"geometry":{"coordinates":[-118.1944,33.91875],"type":"Point"},"properties":{"kind":"stop","name":"Fernwood Ave & Harris Ave","stop_id":"2734898"},"type":"Feature"},{"geometry":{"coordinates":[-118.19511,33.91686],"type":"Point"},"properties":{"kind":"stop","name":"Harris Ave & Josephine St","stop_id":"2734899"},"type":"Feature"},{"geometry":{"coordinates":[-118.19479,33.91382],"type":"Point"},"properties":{"kind":"stop","name":"Lavinia & 4th Ave","stop_id":"2734900"},"type":"Feature"},{"geometry":{"coordinates":[-118.19216,33.91307],"type":"Point"},"properties":{"kind":"stop","name":"Lavinia Ave & 1st","stop_id":"2734901"},"type":"Feature"},{"geometry":{"coordinates":[-118.19016,33.9143],"type":"Point"},"properties":{"kind":"stop","name":"Atlantic Ave & Agnes St","stop_id":"2734902"},"type":"Feature"},{"geometry":{"coordinates":[-118.18931,33.9164],"type":"Point"},"properties":{"kind":"stop","name":"Atlantic Ave & Fernwood Ave","stop_id":"2734903"},"type":"Feature"},{"geometry":{"coordinates":[-118.18824,33.919],"type":"Point"},"properties":{"kind":"stop","name":"Atlantic Ave & Cortland St","stop_id":"2734904"},"type":"Feature"},{"geometry":{"coordinates":[-118.18749,33.92083],"type":"Point"},"properties":{"kind":"stop","name":"Atlantic Ave & Martin Luther King Jr Blvd","stop_id":"2734906"},"type":"Feature"},{"geometry":{"coordinates":[-118.18431,33.92015],"type":"Point"},"properties":{"kind":"stop","name":"Martin Luther King Jr Blvd @ Firebaugh High","stop_id":"2734908"},"type":"Feature"},{"geometry":{"coordinates":[-118.18032,33.92184],"type":"Point"},"properties":{"kind":"stop","name":"Wright Rd @ Vista High School","stop_id":"2734909"},"type":"Feature"},{"geometry":{"coordinates":[-118.18544,33.9257],"type":"Point"},"properties":{"kind":"stop","name":"Atlantic Ave & Beechwood Ave","stop_id":"2734910"},"type":"Feature"},{"geometry":{"coordinates":[-118.18452,33.92801],"type":"Point"},"properties":{"kind":"stop","name":"Atlantic Ave & Elmwood Ave","stop_id":"2734911"},"type":"Feature"},{"geometry":{"coordinates":[-118.18421,33.93088],"type":"Point"},"properties":{"kind":"stop","name":"Imperial HWY & Atlantic Ave","stop_id":"2734912"},"type":"Feature"},{"geometry":{"coordinates":[-118.18695,33.93111],"type":"Point"},"properties":{"kind":"stop","name":"imperial HWY & Pine Ave","stop_id":"2734913"},"type":"Feature"},{"geometry":{"coordinates":[-118.18917,33.9313],"type":"Point"},"properties":{"kind":"stop","name":"Imperial HWY & Jackson Ave","stop_id":"2734914"},"type":"Feature"},{"geometry":{"coordinates":[-118.19251,33.93159],"type":"Point"},"properties":{"kind":"stop","name":"Imperial HWY & Cornish Ave","stop_id":"2734915"},"type":"Feature"},{"geometry":{"coordinates":[-118.19474,33.93178],"type":"Point"},"properties":{"kind":"stop","name":"Imperial Ave & Lewis Rd","stop_id":"2734916"},"type":"Feature"},{"geometry":{"coordinates":[-118.1978,33.93161],"type":"Point"},"properties":{"kind":"stop","name":"Bullis Rd & Imperial HWY","stop_id":"2734917"},"type":"Feature"},{"geometry":{"coordinates":[-118.1995,33.92759],"type":"Point"},"properties":{"kind":"stop","name":"Bullis Rd & Martin Luther King Jr Blvd","stop_id":"2734918"},"type":"Feature"},{"geometry":{"coordinates":[-118.19827,33.92573],"type":"Point"},"properties":{"kind":"stop","name":"Senior Center","stop_id":"2735021"},"type":"Feature"},{"geometry":{"coordinates":[-118.19872,33.92415],"type":"Point"},"properties":{"kind":"stop","name":"Ernestine Ave & Platt Ave","stop_id":"2735022"},"type":"Feature"},{"geometry":{"coordinates":[-118.19978,33.92158],"type":"Point"},"properties":{"kind":"stop","name":"Ernestine Ave & Cortland St","stop_id":"2735023"},"type":"Feature"},{"geometry":{"coordinates":[-118.19755,33.92011],"type":"Point"},"properties":{"kind":"stop","name":"Fernwood Ave & Gertrude Dr.","stop_id":"2735024"},"type":"Feature"},{"geometry":{"coordinates":[-118.18958,33.91665],"type":"Point"},"properties":{"kind":"stop","name":"Fernwood Ave & Atlantic Ave","stop_id":"2735025"},"type":"Feature"},{"geometry":{"coordinates":[-118.18963,33.91297],"type":"Point"},"properties":{"kind":"stop","name":"Virginia Ave & Lavinia Ave","stop_id":"2735026"},"type":"Feature"},{"geometry":{"coordinates":[-118.18588,33.91213],"type":"Point"},"properties":{"kind":"stop","name":"Lavinia Ave & Wright Rd","stop_id":"2735027"},"type":"Feature"},{"geometry":{"coordinates":[-118.18622,33.91042],"type":"Point"},"properties":{"kind":"stop","name":"Wright Rd & Clark St","stop_id":"2735028"},"type":"Feature"},{"geometry":{"coordinates":[-118.18698,33.90769],"type":"Point"},"properties":{"kind":"stop","name":"Olanda St & Wright Rd","stop_id":"2735029"},"type":"Feature"},{"geometry":{"coordinates":[-118.18947,33.90868],"type":"Point"},"properties":{"kind":"stop","name":"Carlin Ave & Halo Dr","stop_id":"2735030"},"type":"Feature"},{"geometry":{"coordinates":[-118.19155,33.91028],"type":"Point"},"properties":{"kind":"stop","name":"Carlin Ave & Atlantic Ave","stop_id":"2735033"},"type":"Feature"},{"geometry":{"coordinates":[-118.19808,33.91219],"type":"Point"},"properties":{"kind":"stop","name":"Carlin Ave & Thorson Ave","stop_id":"2735034"},"type":"Feature"},{"geometry":{"coordinates":[-118.2012,33.91307],"type":"Point"},"properties":{"kind":"stop","name":"Carlin Ave & Bradfield Ave","stop_id":"2735035"},"type":"Feature"},{"geometry":{"coordinates":[-118.20632,33.91128],"type":"Point"},"properties":{"kind":"stop","name":"Bullis Rd & Orchard Ave","stop_id":"2735037"},"type":"Feature"},{"geometry":{"coordinates":[-118.20889,33.9119],"type":"Point"},"properties":{"kind":"stop","name":"Long Beach Blvd & Orchard Ave","stop_id":"2735039"},"type":"Feature"},{"geometry":{"coordinates":[-118.21319,33.91556],"type":"Point"},"properties":{"kind":"stop","name":"Carlin Ave & Alpine Ave","stop_id":"2735040"},"type":"Feature"},{"geometry":{"coordinates":[-118.21718,33.91523],"type":"Point"},"properties":{"kind":"stop","name":"Santa Fe & Carlin St","stop_id":"2735353"},"type":"Feature"},{"geometry":{"coordinates":[-118.21744,33.917],"type":"Point"},"properties":{"kind":"stop","name":"Santa Fe Ave & El Segundo Blvd","stop_id":"2735354"},"type":"Feature"},{"geometry":{"coordinates":[-118.21797,33.92034],"type":"Point"},"properties":{"kind":"stop","name":"Santa Fe Ave & Weber St.","stop_id":"2735355"},"type":"Feature"},{"geometry":{"coordinates":[-118.21841,33.92559],"type":"Point"},"properties":{"kind":"stop","name":"Lynwood Rd & State St","stop_id":"2735356"},"type":"Feature"},{"geometry":{"coordinates":[-118.22446,33.92597],"type":"Point"},"properties":{"kind":"stop","name":"Lynwood Ave & Alameda St.","stop_id":"2735357"},"type":"Feature"},{"geometry":{"coordinates":[-118.22568,33.93322],"type":"Point"},"properties":{"kind":"stop","name":"Alameda & 112th St","stop_id":"2735378"},"type":"Feature"},{"geometry":{"coordinates":[-118.22618,33.93639],"type":"Point"},"properties":{"kind":"stop","name":"Alameda & 109th St.","stop_id":"2735379"},"type":"Feature"},{"geometry":{"coordinates":[-118.22264,33.93472],"type":"Point"},"properties":{"kind":"stop","name":"Santa Fe & 111th St.","stop_id":"2735380"},"type":"Feature"},{"geometry":{"coordinates":[-118.22139,33.93266],"type":"Point"},"properties":{"kind":"stop","name":"Los Flores & Penn","stop_id":"2735381"},"type":"Feature"},{"geometry":{"coordinates":[-118.21583,33.9334],"type":"Point"},"properties":{"kind":"stop","name":"State St. & Norton Ave","stop_id":"2735382"},"type":"Feature"},{"geometry":{"coordinates":[-118.21537,33.93683],"type":"Point"},"properties":{"kind":"stop","name":"State St & Century Blvd","stop_id":"2735383"},"type":"Feature"},{"geometry":{"coordinates":[-118.21517,33.94256],"type":"Point"},"properties":{"kind":"stop","name":"Long Beach Blvd & Michigan Ave","stop_id":"2735384"},"type":"Feature"},{"geometry":{"coordinates":[-118.21568,33.94522],"type":"Point"},"properties":{"kind":"stop","name":"Tweedy Blvd & Long Beach Blvd","stop_id":"2735385"},"type":"Feature"},{"geometry":{"coordinates":[-118.2138,33.94482],"type":"Point"},"properties":{"kind":"stop","name":"State St & Tweedy Blvd","stop_id":"2735386"},"type":"Feature"},{"geometry":{"coordinates":[-118.21431,33.94149],"type":"Point"},"properties":{"kind":"stop","name":"State St. & Sequoia Dr.","stop_id":"2735387"},"type":"Feature"},{"geometry":{"coordinates":[-118.20861,33.93304],"type":"Point"},"properties":{"kind":"stop","name":"California Ave & Norton Ave","stop_id":"2735410"},"type":"Feature"},{"geometry":{"coordinates":[-118.20902,33.9286],"type":"Point"},"properties":{"kind":"stop","name":"California Ave & Sanborn Ave","stop_id":"2735411"},"type":"Feature"},{"geometry":{"coordinates":[-118.20559,33.92612],"type":"Point"},"properties":{"kind":"stop","name":"Birch St & Platt Ave","stop_id":"2735412"},"type":"Feature"},{"geometry":{"coordinates":[-118.20293,33.93114],"type":"Point"},"properties":{"kind":"stop","name":"Martin Luther King Jr. Blvd & Imperial Hwy (St. Francis Medical Center)","stop_id":"2735413"},"type":"Feature"},{"geometry":{"coordinates":[-118.19978,33.93222],"type":"Point"},"properties":{"kind":"stop","name":"Imperial HWY & Mallison Ave","stop_id":"2735416"},"type":"Feature"},{"geometry":{"coordinates":[-118.20844,33.93081],"type":"Point"},"properties":{"kind":"stop","name":"Imperial HWY & California Ave","stop_id":"2735417"},"type":"Feature"},{"geometry":{"coordinates":[-118.21676,33.93061],"type":"Point"},"properties":{"kind":"stop","name":"Imperial HWY & State St.","stop_id":"2735418"},"type":"Feature"},{"geometry":{"coordinates":[-118.22072,33.93044],"type":"Point"},"properties":{"kind":"stop","name":"Imperial HWY & Fernwood Ave","stop_id":"2735419"},"type":"Feature"},{"geometry":{"coordinates":[-118.22506,33.93011],"type":"Point"},"properties":{"kind":"stop","name":"Imperial HWY & Alameda St.","stop_id":"2735420"},"type":"Feature"},{"geometry":{"coordinates":[-118.23928,33.92786],"type":"Point"},"properties":{"kind":"stop","name":"Blue Line","stop_id":"2735421"},"type":"Feature"},{"geometry":{"coordinates":[-118.22488,33.92985],"type":"Point"},"properties":{"kind":"stop","name":"Imperial HWY and Alameda St.","stop_id":"2735422"},"type":"Feature"},{"geometry":{"coordinates":[-118.22083,33.93013],"type":"Point"},"properties":{"kind":"stop","name":"Imperial HWY & Fernwood Ave","stop_id":"2735423"},"type":"Feature"},{"geometry":{"coordinates":[-118.20848,33.93056],"type":"Point"},"properties":{"kind":"stop","name":"Imperial HWY & California Ave","stop_id":"2735424"},"type":"Feature"},{"geometry":{"coordinates":[-118.20095,33.92875],"type":"Point"},"properties":{"kind":"stop","name":"Martin Luther King Jr Blvd @ Natatorium","stop_id":"2735531"},"type":"Feature"}],"type":"FeatureCollection"}
